timestamp,px,py,pz,ox,oy,oz,ow,vx,vy,vz,ax,ay,az,jx,jy,jz,wx,wy,wz,aa_x,aa_y,aa_z,roll,pitch,yaw
0.0,-3.0005544338128836,-0.0096867353848028,0.12881388487946,0.0178344761262473,-0.703801839472103,-0.0239576875671884,0.7097682237346354,-1.0929254088387234e-05,-1.3241855227084947e-06,-0.0001835880661613,-0.1384422517453647,-0.0721929838718922,0.023524385738569,-0.4024252327522108,0.2820761321982135,0.044834544139581,0.0,0.0,0.0,-1.2641298267275277e-06,-0.0002051406690341,0.0001314184081586,-1.4333230166299884,1.5110851502599798,1.7169330535137413
0.1068871021270752,-3.0005556020091815,-0.009686876923156,0.1287942616830829,0.0178292223857011,-0.7038097445591837,-0.0239529456077557,0.7097606770520398,-0.0148086203550974,-0.0077178230254959,0.0023308653547537,-0.1814563186970623,-0.0420426835220114,0.0283166202368372,0.2045091455734489,0.4810304201962805,-0.0589451463239661,-1.2641298267275277e-06,-0.0002051406690341,0.0001314184081586,-0.284475714116624,0.0155891594071777,-0.0075387995273303,-1.433652351947741,1.5111022371696654,1.7166044400829503
0.2344841957092285,-3.0046991197593136,-0.0118470240008629,0.1294746742823659,-0.0072209978701414,-0.7010458068660074,-0.0501314559426108,0.7113153105272109,-0.0445138118080024,-0.0084898605816344,0.0066739358302315,-0.0629134441596309,0.0496400704376008,0.0049876928092389,1.7088985613997554,0.1534304943178094,-0.2521056248033496,-0.568951428233248,0.0311783188143554,-0.0150775990546607,-0.1533975442950829,0.0114162750117528,-0.0148067497396534,-1.376475802506713,1.5083879604026909,1.8462872544867184
0.3593299388885498,-3.011727254740971,-0.0118760211880112,0.1304717470863518,-0.0194811483484502,-0.6989638548866195,-0.064867204774186,0.7119425961170229,-0.0316154498160976,0.0045103120862787,0.0037481009759456,0.245697823086787,-0.0002341886641347,-0.0349485606834276,1.4199430341434065,-0.8393884355923487,-0.1329334332105215,-0.3067963527199926,0.0226274093544716,-0.0294820810711481,0.3292745080974725,-0.0138608790331683,0.0063487700863425,-1.3519785933685071,1.504025526013571,1.9090381091797968
0.46748948097229,-3.0128342485327284,-0.0109437917772327,0.1304799928288142,-0.0159291689770654,-0.6991393643746083,-0.0615749481527162,0.7121509225701804,0.0083009440307399,-0.0052942993519337,-0.0011107244068533,0.300702324018845,-0.1322423680301485,-0.0318085789587472,-0.4270632416754052,-0.4493394598950117,0.1013179209638725,0.0895975879616969,0.0034565607480186,-0.0023800588819757,0.1921482047084639,-0.0178303111851535,0.019040587806185,-1.347968385586136,1.5036593892499075,1.9033484596334451
0.5855457782745361,-3.009465776429001,-0.0133616684707479,0.130195914628852,-0.0130733759088358,-0.6999532287155422,-0.0580022009697341,0.7117094274601824,0.0349934229689168,-0.0262659396366559,-0.0031760519132942,0.1297230285556008,-0.0859196833252372,-0.0105325699323383,-1.3000265248165497,0.7811466267360374,0.1329776964876052,0.0775000566969351,-0.0130332130158353,0.0085990945412218,-0.0029842414453653,-0.0077161618048034,0.0070372654849404,-1.3651778185554424,1.5051063994145024,1.877027554023624
0.6985807418823242,-3.0048110767441134,-0.016956757318338,0.1297536010062956,-0.0102112116218411,-0.7006923174356792,-0.0542139463820072,0.7113275303694638,0.0392260963388011,-0.0260511247987852,-0.003613138033536,-0.0011797020705262,0.044452547119864,-0.0006142544714168,-0.7750528689631193,0.7678917992614481,0.0542439995070158,0.0836291050709663,-0.0119757628615881,0.011694472087905,0.0198340414429529,0.0011261493650534,0.0005534303783337,-1.3792445002088736,1.5067643226908043,1.853537392805205
0.8124983310699463,-3.00056677506951,-0.0192638408714361,0.1293764352492907,-0.0058844158079671,-0.7014694428758229,-0.0491369506460954,0.7109792925558979,0.0346572368329791,-0.0161019121465654,-0.0033096945180443,-0.045498432270151,0.087672181103152,0.0017188746823244,-0.1170749564491519,0.2158146344367915,-0.0150038400943645,0.1171681395828411,-0.0107809142857285,0.0097059552978892,0.0321033188189938,0.0015889725489307,-0.0007546351667445,-1.3933068091617988,1.508156716169064,1.8261556594128177
0.9292209148406982,-2.9968324935406225,-0.0206469353137817,0.128990259137352,-0.0001921454520452,-0.7022286210364104,-0.0426572661646303,0.7106724171661559,0.0287017101444284,-0.005828493882487,-0.0032220622574359,-0.0266373738707844,0.0932990960491337,-0.004276262313857,0.2708886962256633,0.0330863195195539,-0.0290701623308377,0.1478357427089539,-0.0087978177637265,0.0101852017544158,0.0243212885877991,0.0017732904466236,-0.0001820236486447,-1.4048336492432385,1.5095563049007037,1.7973949312733564
1.0532383918762207,-2.993706640280126,-0.0205764038528318,0.1286020562301794,0.0066888722052811,-0.702948594358337,-0.0350231220567373,0.710346333558257,0.0286114514064248,0.006438410517541,-0.0044147974481238,0.021359822940299,0.0954098735055093,-0.0049440775700171,0.331096641467922,-0.0822186403905314,0.0503103093242055,0.1658107167584393,-0.0072343333924811,0.0093419080005998,0.0857951390053908,-0.000679513709092,0.0041735800524662,-1.415314361827838,1.5108771471835212,1.7663696470961154
1.1755313873291016,-2.989796860667832,-0.019081190966518,0.1279072479237454,0.0197435957448685,-0.7039467187022752,-0.0204857701533764,0.7096827043662444,0.0338872085027954,0.0176839542902144,-0.0044558466567879,0.0551067316340111,0.0733876746417112,0.0079249387248227,0.1957015638490122,-0.2509832551437165,0.0746415663719796,0.3194260207197357,-0.0101568451819106,0.0185323618593484,0.0297409512442008,-0.000686098745525,-0.0002820572838789,-1.4296938819625744,1.513320104241537,1.7129487983572906
1.296402931213379,-2.985471889920385,-0.0162917181560591,0.1275150881519449,0.0290205164391969,-0.7045398083138078,-0.0105329026520742,0.7089926135641099,0.0419776327354171,0.0243361710648627,-0.0025110809821656,0.0691743198468702,0.0345800529927665,0.0132925619788215,0.0723292766575473,-0.2544222978721882,-0.008899215830202,0.2252926192468409,-0.0086065308835312,0.0087777934328418,-0.0921831018850187,0.0007526274988546,-0.0077462717176121,-1.445613056888868,1.5144985657758248,1.6698230552006346
1.414494514465332,-2.9797998078721055,-0.0132726583454193,0.1273031616620674,0.0345417651498387,-0.7049686892132726,-0.0048016316691528,0.70838051781692,0.0504050079066651,0.0260597342890576,-0.0012640424167086,0.0726328892127869,0.0122238595229795,0.0060913280618627,-0.0359974205026276,-0.1132236020489911,-0.0359108419499981,0.1350598169496982,-0.0086515901842012,0.003039818424124,-0.0781421907148616,-0.0004979403952985,-0.0047734593892976,-1.4632543097679205,1.5149402800502418,1.6362599316863593
1.542796611785889,-2.973001843527706,-0.0098602333082573,0.127214938891061,0.0377092112615562,-0.705417564688706,-0.0017369515098365,0.7077860254442293,0.0599009701816868,0.027297535378459,-0.0011054146439911,0.0589139691743084,0.0083034564214231,0.0049784288579707,-0.3419102698236764,-0.1053240925667937,0.0036479503527002,0.0690082378171176,-0.0096024116741283,-0.0007691253457533,-0.0110530429602636,-0.0021744835280671,-0.0005149230736375,-1.4853765453890266,1.5149032866132126,1.6053182844324971
1.672044277191162,-2.964359198169032,-0.0062408545137275,0.1270176693600531,0.042781591754365,-0.7060107367250734,0.0034725476200128,0.7068992265159928,0.0655496280450655,0.0281957362868143,2.5253590699769735e-05,-0.0158720431097703,-0.015044253145225,0.0070542452643916,-0.6795402781990351,-0.2422714095556464,-0.0335008637447301,0.1129537310291708,-0.0130005572403356,0.0020099722768489,-0.0319492137376095,0.0092040712224215,0.0015404417341084,-1.5154723888381982,1.5151835786723251,1.560670055309214
1.8026580810546875,-2.955971644458552,-0.0025327196566517,0.1272257629796232,0.0429088921695181,-0.705609352644049,0.0038394726076816,0.7072902705990841,0.0556127988340922,0.0233277031606428,0.0007230594249957,-0.117949549905752,-0.0548228233212744,-0.0038632865803667,-0.5391676762953628,-0.1867149214275414,-0.0086085063395454,0.0051098103418985,0.0088057307707147,0.0023117581224634,-0.0555797343347243,0.0069753194718764,-0.000241691003703,-1.4947242048153353,1.51548565957501,1.5807189274171989
1.914717674255371,-2.9505668603710133,-0.0004053280249001,0.1272231326837517,0.0429194387908666,-0.7055749785980671,0.0039731909113142,0.7073231829257378,0.0383698384288209,0.0154967741577786,-0.000594914348426,-0.1550682935308684,-0.0644171292489252,0.0023804992472304,0.0436592412479612,0.22280199741916,-0.150135674137416,0.001794262359722,0.0009500817034173,0.0015265902694428,-0.0032149449166813,-0.0135416926862869,-0.0038984071060505,-1.4927620310695922,1.5156555687772122,1.5824770454242771
2.030108690261841,-2.9473110836627208,0.000968447687414,0.1270865853228727,0.0430930193663301,-0.7063071686685564,0.0036503481377411,0.7065832223650474,0.0203343394459398,0.0087129395242809,0.0013601310966004,-0.1054841956344651,-0.002060873287998,-0.0394036990978845,0.8122412272491688,0.4216142005377883,-0.1600520755959474,-0.001320079491464,-0.018277654601859,-0.0054850560896377,-0.0010867293598827,0.0039365808683103,0.00405360154916,-1.5307261384258304,1.5150073654144696,1.5447236279780143
2.1441421508789062,-2.945880393736032,0.0016022504496268,0.1275283148527399,0.0426879286770572,-0.7059752593670746,0.0040448725568165,0.7069372765053866,0.0140320258474879,0.0148708396375289,-0.0094830003708648,0.0302472063617951,0.0326320829354042,-0.0348847459352397,0.9492656128489612,-0.1079010837403547,0.499458468411901,-0.0003791963600434,0.0088232434400381,0.0096337933677629,0.0161884106792247,0.0743716378078866,0.078983809193715,-1.5128430575157732,1.516123051369984,1.5626226851760066
2.2582814693450928,-2.9441090426164376,0.0043635410754208,0.1249199936420225,0.0377644323497456,-0.7010285638208115,0.0117655668667469,0.7120353725714308,0.0272540417331761,0.0161541663784646,-0.0065868665937593,0.1110613277658611,-0.0267682595844305,0.0746565261264589,0.1740640243410871,-0.2437779410648798,0.3388170444433848,0.0310567418669854,0.1304656210139142,0.1524825622977924,2.0075262944832502e-06,-0.0045487065898533,-0.0090245553837486,-1.135280759942952,1.530866469292217,1.9362375982403337
2.366486072540283,-2.9399562879735535,0.0052869586301021,0.1258757253258794,0.0380693198491055,-0.7010220978402788,0.0114265946879694,0.7120310233126631,0.0387810944088364,0.009358528318372,0.0065466726152066,0.0751223922872809,-0.0247686744229043,0.047627280038681,-0.2084756327406781,0.1770117954790016,-0.4184570691369662,-0.0003751813074545,-0.0002741697396685,-0.0084153173997344,-0.0077145910591347,-0.0891976571894698,-0.0848762041697799,-1.1439445056624813,1.5300251023409432,1.927621500067292
2.4789209365844727,-2.93554893180196,0.0064355141218719,0.1263447295148617,0.0394060852414824,-0.7028905095548063,0.0112485560853846,0.7101165833929807,0.04355808604266,0.0110173048149714,0.0032854339788943,0.0661300808891482,0.0136550115476357,-0.0191264593563173,-0.0140505390120234,0.1287174133495824,-0.2440026168657182,0.0156275597487158,-0.0479296933650253,-0.0172698460417675,0.0081281006547208,-0.0234158663603303,-0.0027130472472333,-1.2837537478731278,1.529682299020499,1.7861719496302066
2.5979089736938477,-2.9298171553372634,0.0078474329937039,0.1266241006121904,0.0406871773668523,-0.704834234629564,0.0112174081062152,0.7081154037637184,0.0544040177812554,0.0125037977238915,0.0022536243931894,0.0727600241586694,0.0021461484091965,-0.0041235536559386,0.0263299480828365,-0.0780633870671196,0.077560749020256,0.0158810200019872,-0.0471059024603292,-0.0138414118942011,-0.0015975680038504,-0.000540965522398,0.0025175402304235,-1.4231944405591097,1.5288591775530649,1.6449614034912543
2.721250534057617,-2.922309964339898,0.0094712088096268,0.1268900135961936,0.0417956146873592,-0.7069316460276216,0.0111004859265454,0.7059586061872027,0.0610269289348046,0.0114456433012537,0.0023264988464981,0.0722500298556529,-0.0050966165292695,-0.0007614487081519,0.277592345210455,-0.0784180024228602,-0.0033909121848199,0.0124324237410149,-0.0490116244098213,-0.0122347655809204,-0.0012224149192918,-0.0004917756656337,0.0016603022926631,-1.5650651069607482,1.5273616396212613,1.5016860536356744
2.8547487258911133,-2.914139590484988,0.0107507681617572,0.1272252459428764,0.0429605913253155,-0.709154314733723,0.0111045122744739,0.7036556226554785,0.073353114554111,0.0112684363031836,0.0020294538236056,0.1500151946928878,-0.0184112916335268,-0.0056426978500129,0.1509554096583315,-0.1840787903198241,-0.0477212997615232,0.0134361901634035,-0.0480894537915966,-0.0105208073088748,0.0087872915203375,-0.0079779539463961,0.0038277522865871,-1.7034733908623436,1.525074833866874,1.3616210248014244
2.984281539916992,-2.903110756099071,0.0124220030899798,0.1274275862584918,0.0445846919254812,-0.7120731255257663,0.0120931379828226,0.7005839172887177,0.1000349012321351,0.0067363785818747,0.0008689960488923,0.1153277723048167,-0.0528560840683417,-0.0132264597855648,-0.8373027676939198,-0.1460142946822604,-0.0310936089943983,0.03000700678169,-0.0649675323026137,-0.004579261007746,0.0510651445232471,0.0094676908465441,0.0071312784278075,-1.8705800651983917,1.522053364956076,1.190812730200864
3.1066033840179443,-2.8891541243319967,0.0125338019324681,0.1274538240047489,0.0493939461173659,-0.7132281186314868,0.01720668705846,0.6989776954959414,0.1036700087142517,-0.0017930910565247,-0.001241856822406,-0.0528785286682838,-0.056866749203043,-0.0138586791719968,-0.753610823977926,0.0351523508639254,0.038288982896667,0.1155664792098979,-0.0291540720985083,0.0037417495467403,-0.0013698062596119,0.0033041129814842,0.0116840009664145,-1.9404664031331729,1.521009778767096,1.106874658970035
3.2296760082244873,-2.8776864151747636,0.0119779111697006,0.1271206479489162,0.0498035299573072,-0.715760455968322,0.0190340572650688,0.6963076064067097,0.0869343991845514,-0.0071990332833101,-0.0025267293944283,-0.0686680689780912,-0.044127562304331,-0.0037651009152766,0.3871431555642594,0.0056739414333516,0.0787447515895005,0.0272673942624661,-0.0583593063396452,0.018788740925083,-0.0498322905935444,-0.0143609315685797,0.0080110177938553,-2.0858545352856357,1.5193091130378344,0.958316279284588
3.357069253921509,-2.867434927364736,0.0107071048635931,0.1268225509537058,0.0496775225487693,-0.7183650144691813,0.0204518662006527,0.6935889062759152,0.0870628836375804,-0.0128473220790697,-0.0021261946205183,0.0486198226193683,-0.0563058812272256,0.0058354544232564,0.2717572704650953,0.001502120712627,0.0493290400119683,0.0159018980228089,-0.0578759352356677,0.019763785134451,-0.0139559180860386,-0.0181326823100661,0.0065774894761813,-2.2243563099271544,1.5166049283106593,0.8179812553282115
3.4861934185028076,-2.855330295380227,0.0086723399210411,0.1265759871114615,0.0482910535509492,-0.7226906337479273,0.0215484893606373,0.6891457644404652,0.0995721723572806,-0.0216841864426829,-0.0010204533456014,-0.0012193102689346,-0.0434038197232513,0.0087979240330032,-0.7432946656801095,0.231200757784614,0.0071460390970946,-0.0006444419096112,-0.0946246709597775,0.0319437198774457,-0.0115855658330725,-0.0023004678052741,0.004517543729623,-2.4191236536485623,1.5101170420317458,0.6236152507426663
3.608974695205689,-2.8424242727437097,0.0053180695870246,0.1265544918443145,0.0467880235679059,-0.7254223256068492,0.0222589616656624,0.6863511266016297,0.087969608078934,-0.0240907453840191,8.714821147504104e-05,-0.1341986454153046,0.0003103512087579,0.0078310527753025,-0.5493127208713499,0.2507319639070621,-0.0120653802584659,-0.0072692336433362,-0.0624768708462159,0.028798872593697,-0.0010274292639755,0.0261866901778531,-0.006678268213759,-2.5321103546688772,1.5055431461136186,0.5117442223724419
3.736317873001098,-2.833486272452195,0.0026766571599757,0.1266002218785019,0.045871220152542,-0.7273248064212363,0.0228205980610918,0.6843783145528227,0.065636857865428,-0.0214215237085911,0.0009272265547818,-0.1336555939645248,0.0183317832035955,0.0057411325552588,-0.0374147861985085,0.0775762862868192,0.2161679827904064,-0.0026993004375623,-0.0422512906040712,0.0185871834499276,0.0049963646706072,0.0197343837758171,-0.0107908864744165,-2.600374992008238,1.5018518038356454,0.4439767040009953
3.878666400909424,-2.8248671959218674,-0.0004807171245352,0.1268226112840378,0.0456675779978187,-0.7284635882511401,0.0232379784973439,0.6831656235990243,0.0532495824218131,-0.0192303643027993,0.0016082867165189,-0.1456136214081458,0.0192000186889704,0.0735208778352448,0.1961997711740208,0.0036059023833012,0.0673178704456918,0.0027234956978781,-0.0230081032945816,0.007217099644864,0.0062679237626032,0.0285549381316599,-0.0136466439536581,-2.6330529558394384,1.4992969383348351,0.410991549548962
3.9979407787323,-2.8192454031438716,-0.0024795599871712,0.127019035808335,0.0464259395090952,-0.7278203661636728,0.0233510588480308,0.6837959306611519,0.0300258097162373,-0.0165598107616803,0.0172469932946153,-0.0942081947194155,0.0193809127548128,0.0406909576723184,0.8353209445766526,-0.0009524845429809,-0.6503282488621976,0.009836547087644,0.0148585856592485,-0.0087061044573887,0.0157089924257945,0.1723861392901779,-0.0850162704659263,-2.609431249769378,1.5004881619605734,0.4333806642091636
4.112835884094238,-2.8176889817177853,-0.0043602265229071,0.1307272043893521,0.0541329698171713,-0.7145430645511281,0.0192358906711366,0.6972286647798869,0.030324818370067,-0.0146660745661828,0.0119143144297234,0.0465166678223859,0.0189982046450622,-0.0755412955293291,0.5449323370936456,-0.0201064018555201,-0.3438341823366793,0.0341414805494671,0.3217641752857743,-0.1628154412869887,-0.0070001664610141,0.2054649792313883,-0.0868909703395041,-1.9794414747911675,1.5156968063494332,1.0583058985349627
4.239356517791748,-2.8115146633874177,-0.0059785941613635,0.1293979958681186,0.061656802958332,-0.6948360787185626,0.0124485325457107,0.7164120995610189,0.0423283744295908,-0.0119118883346792,-0.001701380986977,0.0207393832960225,0.0141171303126763,-0.0260033333842643,-0.2177278876191573,-0.0691680754775355,0.3620876652772573,-0.0041637858343842,0.4257885441220251,-0.1824880451363969,-0.0098473037123457,-0.1935759222760502,0.0939987359448746,-1.1051153194579038,1.494791475234804,1.9315527182988297
4.35445761680603,-2.807320371790214,-0.0072575768837019,0.1301241024246681,0.061291784614932,-0.697605122282451,0.0138323638223179,0.7137219880423263,0.0369526650982852,-0.011088201480011,0.0038514966250172,-0.0057860636648099,0.0029527860261527,0.0125892733426649,0.0758261549028223,-0.0506708306697918,0.0661940378745793,0.0144468731247755,-0.0653876692663261,0.0251820306027605,0.0143630920281044,-0.2276156754399602,0.0969108674863033,-1.1902438442353562,1.4998991829125488,1.8449903093508675
4.483768701553345,-2.802467514489946,-0.0086879730196547,0.1302652125306702,0.0619401749385167,-0.6989844081017599,0.0153465087850528,0.7122841403732983,0.0421488667818188,-0.011317026572218,0.0002997505117361,0.0485139886497917,0.0031303904082716,-0.0179445771166033,0.2876757581242385,0.0863242114310022,-0.0531334787445891,0.0245623982218245,-0.0294428067578952,0.0113336898362096,0.0123671784450694,0.0250873075990872,-0.0099784238331379,-1.2380402208813204,1.502257696591592,1.7941337693235182
4.6020143032073975,-2.7969840151159886,-0.0100537729244942,0.1302150747433285,0.0633878576064948,-0.6996064570202168,0.0171299936404921,0.7115049881213449,0.0487861586328186,-0.0104170534919716,-0.0007925202523716,0.0682314219609991,0.0225233197152373,-0.0044408230624674,0.1753076448846022,0.1428781488384881,0.093921816183013,0.0391812300149145,-0.0152130540681515,0.0052251829364846,0.0071024940934908,0.0079843108103667,-0.0042794054943634,-1.262034232357038,1.5032354951408486,1.7655622692113162
4.729329586029053,-2.790442105627043,-0.0112246447444655,0.1300636597313413,0.065034633957095,-0.7001832638682138,0.018927763837876,0.7107430148380071,0.0591317392211792,-0.0055053072634616,-0.0007004000551746,0.0917238757506754,0.0378177407647955,0.0047369900869237,-0.05222555876773,0.0794034292564216,0.0378515896201806,0.0387673864088061,-0.0134741851371618,0.0027748788474827,0.00545714699934,-0.0001435042073497,-0.0028907163942065,-1.2862129632743309,1.5038906229816118,1.736502471153013
4.84009051322937,-2.7831460097155785,-0.0114787250291918,0.1300331919210578,0.0670440005282937,-0.7007358982729108,0.0207924913091357,0.7099591362677,0.070299495019567,-0.0013899712597537,0.000211003810122,0.0631265612010972,0.0426881361519931,0.0056305472270597,-0.4257704697908975,0.1771184629798704,-0.0084606518521412,0.0500955240135946,-0.015500062482851,-0.0005562498519284,0.0564132137456545,-0.0017255346714411,-0.0038829682018788,-1.3117790556638396,1.5040865782330357,1.7054447695941408
4.969354152679443,-2.7733909924117706,-0.0115220256810517,0.1301337958904069,0.0742455544458696,-0.7012530915255468,0.0273547792421907,0.7085078795069958,0.0727719927972838,0.0049627475318422,0.0005468985168995,-0.017190874585159,0.0856692004099395,0.0020435101441793,-0.4359598503409208,0.2553628124413945,-0.0101753539532071,0.1515938139001152,-0.0169252544800441,-0.0049910575562749,0.0134981054758329,-0.00117224281662,-0.0020550605391357,-1.3453518465782195,1.503681171453028,1.6523511988393302
5.103702545166016,-2.763990372992411,-0.0101155501757288,0.1301749615818434,0.0781661679158726,-0.7019275020086374,0.0306747970911354,0.7072813364854751,0.0653911688729316,0.0215721946226366,0.0007439424404431,-0.0498753359023235,0.1092048977708973,0.0031304398453407,0.002203320551347,-0.0764095030770391,0.0153364460178655,0.0770917349652604,-0.017844548116091,-0.0046663709301998,-0.0617519250194208,-0.0012363819766648,-0.001164857460758,-1.3814550148386533,1.5031950858220058,1.605972678246833
5.228845119476318,-2.7563411246102563,-0.0061216624768343,0.1303190625412601,0.0797678807483961,-0.7026945757971166,0.0314895899980087,0.706304342382218,0.0597397763344567,0.033556916490014,0.0013296360507514,-0.0209840557358125,0.0703151683949667,0.0058943382614399,0.2896632497500097,-0.2545143160727766,0.0028820656391708,0.0280899638612736,-0.0193980184333739,-0.007320772477791,-0.0124629048684927,0.0004368426558908,-0.0019356331057963,-1.417366650338998,1.5023165497764586,1.566628860923891
5.3524956703186035,-2.749123420579429,-0.0017716912901608,0.1305052374757671,0.0824493156592123,-0.7032878467758026,0.0332992042150665,0.7053222511188955,0.0600987690693699,0.0391416263898534,0.002206811861316,0.0220164841398607,0.0457166364345396,0.0039044417781035,0.1621869412425649,-0.224265300400486,-0.0272951136002099,0.052165925228275,-0.0169708628043093,-0.0085376371417925,0.0586926621867325,-0.0016907114765174,-0.0038963494769031,-1.447440342038648,1.5012140179814577,1.530176419291209
5.48300576210022,-2.7410420331052694,0.0038824621455563,0.1308898333203204,0.0898841932276784,-0.7039060574869661,0.0391557910510492,0.7034940782040258,0.0656049888738383,0.0451840603101187,0.0022770200712846,0.0176209925678928,0.0129586205089798,-0.0012009522053045,-0.1789562213334054,-0.3383416439717113,-0.0266654302250181,0.1454752882347388,-0.0227794413864088,-0.0151134714315974,-0.011244006322026,-0.0002986208586045,-0.0004531493098499,-1.487486276919911,1.499037771565633,1.471244084844319
5.613689184188843,-2.731986545257743,0.010030737605841,0.131099747985694,0.091727484048075,-0.7045803009884227,0.0399834077906732,0.702533981548735,0.0646927352756492,0.0425147686845219,0.0018925277248076,-0.024776115360545,-0.0426863045025031,-0.0030560756928049,-0.2943082876471442,-0.2821052451920317,-0.0316600216281537,0.0296779125842228,-0.0175681045215184,-0.0094439357614923,-0.0754842762644904,0.0053222883798765,0.0052005863797056,-1.5169910560809583,1.497545576107145,1.4379383876233858
5.738375186920166,-2.7244675695220137,0.0147925512335116,0.1313697723724826,0.0917240932373834,-0.7050982567621047,0.0394663134180706,0.7020438370472372,0.0594864824405263,0.0345441694634755,0.0014979267532643,-0.0578893138530922,-0.0607664720249497,-0.0090812771224776,-0.4649459324352137,-0.1192994851857708,0.0291466639980882,-0.0054932642942419,-0.0121348646266556,-0.004712298672186,0.0076672768084199,0.0001676045024891,0.0018039623308821,-1.5362159110139075,1.496749619904662,1.419450576924233
5.856123447418213,-2.7175539654732574,0.0184546141216545,0.1314719037775835,0.0938664898711154,-0.705671546191575,0.0410004358182612,0.7010960813166625,0.0508760264625376,0.0277402819536256,-0.0002292743696873,-0.1348055033691875,-0.0719553486975403,0.002965050676484,-0.4925548391507185,-0.0734490807857134,0.2057319841585635,0.0450124662010626,-0.01723289551654,-0.005836011099728,-0.0029623732577436,0.0037015207585576,0.005746286177184,-1.5615514777709532,1.4957353255315675,1.388885229023815
5.969020843505859,-2.7126587487388454,0.0212226578668498,0.1313273114349218,0.0931554457824836,-0.705920941527092,0.0407888586673163,0.7009521782855009,0.028980250617641,0.0180826416815411,0.0020142499176573,-0.1730216246602063,-0.0779121832123283,0.0373871672289525,0.2523500131118935,0.1206697548980054,0.1146623044174022,-0.0114180108097292,-0.0047318231095404,0.0067802736821821,-0.0309627413986221,0.0192897022338313,0.0178802204567101,-1.57047635012854,1.4963890019291883,1.3812743317588303
6.080526113510132,-2.711010930319343,0.0225302149371647,0.1319147893055701,0.0912679710579122,-0.7052788042394201,0.0414034212818073,0.7018103180031959,0.0119916185053963,0.0102354637640291,0.0081120403274668,-0.0798124290854805,-0.0453566380463565,0.0292219742119179,0.9355339441237526,0.34354132395298,-0.247165129085346,-0.0169130165961815,0.0213465089511226,0.0299244298136923,0.0130921938990471,0.0740011481582363,0.0243563089384405,-1.5462327201294987,1.5000920859738422,1.4073401187604886
6.196685314178467,-2.7099551591952262,0.0235387421332571,0.1332011533648847,0.0892485551708312,-0.6996692846139403,0.0450280098126531,0.70743908988693,0.0114991242659421,0.0079942732987642,0.0084250922637423,0.0409127822616992,0.0007900618026005,-0.0205363295168937,0.7238463048995376,0.3167444921089887,-0.2672863848235048,0.014766376988365,0.1432704732069321,0.0554928915590631,0.0106076525979166,-0.0220086260140468,-0.0191099253492051,-1.3017267223564617,1.507290356532708,1.649587500260146
6.308903217315674,-2.708403469343932,0.0243612552248823,0.1338594146467423,0.0898021805831,-0.7005160971523522,0.0447540625447449,0.7065478326898313,0.0209852797398077,0.0102602660902154,0.0036020295288009,0.0879419657813049,0.0276045420544836,-0.0330682773991801,0.3016785419583467,0.1789990549067481,0.0145546950740891,0.0043022885996516,-0.022670743076971,-0.0082954208847179,-0.0038398039367522,-0.0751530724613694,-0.028547408290213,-1.3423534194943407,1.5065090596158852,1.6085608897186152
6.4247887134552,-2.705114983710612,0.0259009919276082,0.1340059111183133,0.0901755592706033,-0.7007772998497339,0.0449395145620282,0.7062294135452584,0.0315843969987792,0.0143462181663975,0.00095599403127,0.1088513889622076,0.0411734163958197,-0.0162753041104686,0.2233227532661921,0.0666759014873407,0.1097653890109199,0.0070867691148605,-0.0070356717158066,-0.0016019250213629,0.0078213198188471,0.0046897175325342,0.0025454255430899,-1.3551124385996256,1.506348766778233,1.5950070382373829
6.54961633682251,-2.700741116055027,0.0278342577775453,0.1340838112117335,0.0912320406189053,-0.7012883838294883,0.0455957596128401,0.7055440058392268,0.0475102324908434,0.0202811122562329,-0.000193841825401,0.1424953509747181,0.04271792711083,-0.0072990943085558,-0.063807674088314,-0.1469440747466862,0.0536013236303721,0.0199449282373459,-0.0132913080119024,-0.003204569798538,0.0215834218971516,-0.0058281818395669,0.0011306917087449,-1.3808598232607028,1.5059655251414052,1.566823738083266
6.673039674758911,-2.6933553514150974,0.0309224100269461,0.1339600739166301,0.0934436540573756,-0.7019607107597017,0.0476938449172498,0.7044464076302394,0.0669173569937928,0.0249644647661424,-0.0008613537536746,0.0939419904563533,0.0051393454112143,-0.0029175952512402,-0.5713140977282684,-0.3142701735113721,0.0180508897998583,0.0502536129091638,-0.0186920353949405,0.000659458396127,0.0474417172897447,-0.0001742127993293,0.0038855255754467,-1.4164989225639633,1.5059895587313754,1.5250569824429705
6.797715187072754,-2.6841211849299342,0.0340277709518565,0.1338704657184043,0.0983244798171208,-0.7022266150983552,0.0528384169214112,0.7031487605147566,0.0706578071068602,0.0214736032880772,-0.0009114245876927,0.0003051329131578,-0.0352768116447495,-0.0028646090295808,-0.3354601941089198,-0.1243238316205409,-0.0968585870280792,0.1148283628168354,-0.0136397336105612,0.0045664813523553,0.0167564495670382,0.0015423222510048,0.0017472240806621,-1.4433773910593428,1.5064449989364987,1.4839181217727924
6.920175075531006,-2.6758783393473884,0.0362443790191734,0.1337356749202552,0.101801489417715,-0.7026429907907148,0.0565243081473414,0.7019503449913527,0.0671231887488712,0.0162782764815238,-0.0015584828704028,0.0092127072151579,-0.026463177040086,-0.0264275237889839,0.2600614037782152,0.0409843282318252,-0.1546445735967429,0.0837665120432403,-0.0156073908929308,0.0041539065574512,-0.0211668508367907,-0.0025728973553597,0.001153534796747,-1.4738468003945735,1.506746283144936,1.4432533864408883
7.045892715454102,-2.667463955008696,0.0380556415180461,0.1334806628891846,0.1047622494262056,-0.7032504356618242,0.0599086468027309,0.700624471364569,0.0731955793725092,0.0150114182164186,-0.0076097362761201,0.0660832651485131,-0.0253100055499363,-0.0409945614321567,0.1264647737570388,-0.1123443541929526,0.1080312549886477,0.0724946611432539,-0.0187855283212806,0.0068735509458495,-0.0013460182767546,-0.0139195582763658,0.0210260225823101,-1.5125109420205776,1.5072444433905234,1.3955539933473793
7.173451900482178,-2.657316352723414,0.0400486643641811,0.1317875981415303,0.1064763788141899,-0.7051756633134189,0.0653182330963558,0.6979423995218137,0.083926518662535,0.0098113232331787,-0.0119149686093616,0.0400341835596176,-0.055368234657843,0.0017649817999517,-0.3466246447964841,-0.1131954857641028,0.2945295561525763,0.081074475489731,-0.0434465074456626,0.0462059517220715,0.035281517960361,-0.0207573419757964,0.0152583716508195,-1.6229316389174429,1.511689278669414,1.2749982774645954
7.300677061080933,-2.646083710363245,0.040559291355125,0.1304440095134917,0.1113956446286313,-0.7074753239251044,0.0729837749857476,0.6940771174615039,0.0834250790076023,0.000914200924449,-0.0071837417967975,-0.022136253931976,-0.0542321360933999,0.0340741019848713,-0.2110478126500252,0.0760794323586328,0.0601279234716866,0.1430576970639759,-0.0603002122728736,0.0373902942474886,-0.0216519912024068,-0.0056485048361125,-0.009339270656924,-1.7756025150203172,1.5132560737083764,1.1043849676656707
7.425174474716187,-2.636290123896934,0.0402955166966079,0.1299610626064735,0.1120628322387738,-0.7098527223932255,0.0754561615623203,0.6912723065650989,0.0784525218881242,-0.0039248625209396,-0.0033209431564806,-0.0145896159797801,-0.0365797312069458,0.0179466095303295,0.0771582612528813,0.0786827606210272,-0.1023407498690128,0.0377704930849173,-0.0547435171178878,0.0275274104082233,-0.0682968874225026,0.0068012928657466,-0.0080005029947399,-1.9074368839638036,1.512731642781956,0.9680677675901392
7.548290252685547,-2.626657247209231,0.0395924067990705,0.12962016620036,0.1116195825615521,-0.7119537808236414,0.0763262800470079,0.6890843066954095,0.0797428334595977,-0.0081497132517708,-0.0027039800421824,-0.003076305451086,-0.0345758336494547,0.0086584382643136,-0.3069394613672409,0.1392998161195307,-0.0749994428086077,0.0064639222189706,-0.0466976265413803,0.0213892882580088,-0.01646553142603,-0.0068670616116444,0.001695535130045,-2.0124011287971215,1.51131268808055,0.8624885920266837
7.677012920379639,-2.616190604260376,0.0382151352671086,0.129280841155861,0.1107525406693613,-0.7151807760771718,0.0774264418886632,0.6857517614715963,0.0775223055036118,-0.0126353658865804,-0.0010985853825487,-0.0964816485004232,-8.771243266041812e-05,-0.0009360512375837,-0.7027863955366097,0.261989582607965,-0.049317648818773,0.0048394302328573,-0.0684776403411767,0.0309184806683134,-0.0012417391610415,0.0033599132910098,-0.0023170772822355,-2.160649413944786,1.5079099638040732,0.7138935345746201
7.798311471939087,-2.6072203844226967,0.0364612121110305,0.1293233256020552,0.1103786756041486,-0.7169348280323764,0.0780271431023664,0.6839099101967625,0.0567628910070272,-0.008672879717627,-0.0027446718807835,-0.1791172578667055,0.0310127214631301,-0.004035672040332,-0.2045114991460899,0.1381160052666089,0.2997581310584825,0.0039804438968875,-0.0399777999593605,0.0167551336935376,-0.0022401010316017,-0.0324840637595594,0.0083897808286898,-2.2328020700366635,1.5054047584434265,0.6414062301705017
7.916424989700317,-2.6024928274619428,0.0361023656213917,0.1286431895891073,0.1089847132264295,-0.7226087969223419,0.0790962397863603,0.678013748935121,0.0346896009507577,-0.0052001451829027,-0.0021247142921693,-0.1484412059226973,0.0337224842335085,0.068784611650326,0.6845726018355102,-0.0399899863593043,0.2607879436505842,0.0003592281696537,-0.1334457678602956,0.047698042325693,0.0022474347353824,0.0174837329675171,-0.0067191913164291,-2.4176490813258975,1.4948565536484997,0.4569729621293822
8.028947591781616,-2.599161456062037,0.0352854737130605,0.1287936209432596,0.109195447421713,-0.7227824187938964,0.0795365884852193,0.677743211280607,0.0221073220303154,-0.0009424279426262,0.0124259121692376,-0.0258683197184021,0.0224766265265927,0.059995126650532,1.3073369822763958,-0.2487549540379987,-0.7247618776317768,0.0084753133676525,-0.0050103340243262,0.0033167510606792,-0.0100909596369771,0.1370673886485723,-0.0248985444590024,-2.425305797276793,1.4945127924725956,0.4483847483575652
8.140337467193604,-2.5975258192703503,0.0358771045633961,0.1314005111716298,0.1079050591231555,-0.7175242598957752,0.0795125155237592,0.683515321373071,0.028703621929317,-0.0001327209958405,0.011465188969383,0.1437964306938232,-0.0216414243708249,-0.0920410368345033,0.5978913588194623,-0.2397128967288735,-0.668342925487918,-0.0198226911043006,0.140689009436849,-0.0020990465923118,0.0138337816624765,0.1713528041774349,-0.0755342771734847,-2.312975917280848,1.5081323526358803,0.5626549272128012
8.254377126693726,-2.5926156296799587,0.035226360082076,0.1313141938407582,0.1138035703628772,-0.7031299851637833,0.0772927792857432,0.6976265459445513,0.0549768443185758,-0.0059760799508863,-0.0087701836794726,0.1039521964325155,-0.0307232659425873,-0.0869337437817254,-0.7961280115398504,0.0095549885511308,0.5047418467035931,0.0361428766926057,0.3376952743305435,-0.1477518032862902,0.0298372619288558,0.0798742853738361,-0.062729314112783,-1.5848179716275048,1.5185730446852546,1.285601375500877
8.378919124603271,-2.5841474481992446,0.034445393926828,0.1291320394722437,0.1196499774482494,-0.6888352231513456,0.0756092230421314,0.7109663590027552,0.050726705657107,-0.0070119439565772,-0.007286981623877,-0.0559607980573088,-0.0174020514529689,0.0384872193226647,-0.3229720921932765,-0.017452627802859,0.4130193596956079,0.0398518327534111,0.3004375801845213,-0.127557674817878,-0.0004416791030276,-0.1990506444985816,0.0885822699217107,-0.9665424868590048,1.5010774698842388,1.897857515819475
8.492757797241211,-2.580169600136399,0.0335700337829746,0.1293674471949649,0.1201824834397707,-0.6913218620335714,0.0777698524564901,0.7082246139450259,0.0420841936595142,-0.0099382770269941,-0.0001400717829578,0.0072733389639597,-0.0323347862909391,0.0236920248836634,0.4917700255151918,-0.0637284141361897,-0.206439572189212,0.0352595184865504,-0.0604060146666198,0.0294127365571312,0.0007715666117683,-0.1648216937515967,0.0726989352162473,-1.051048577611894,1.506216780407301,1.8095274404149488
8.606441974639893,-2.574574537625107,0.0321849031986953,0.1291008517222677,0.1212764147925723,-0.6924332606855348,0.0799148289107691,0.7067119857704558,0.0523558682867371,-0.0143667998364008,-0.0018844346627306,0.0559477894998309,-0.0319225479328482,-0.0084588870326119,-0.0021911727687514,0.1095743331041778,-0.1313195917469023,0.0413949659769479,-0.0292058073186722,0.0178401956146166,0.0096772735865876,0.0229868818060032,-0.011034019073244,-1.0955719753299022,1.5089049044848242,1.7603869961475485
8.723324060440063,-2.5680777377305968,0.0302433774323473,0.128935947605535,0.1233015461238109,-0.6928224811911237,0.0823254817736303,0.7057026663761394,0.054760723844037,-0.0172529312551201,-0.002045750883019,0.0039770006867093,-0.0063834860202158,-0.0056033165338021,-0.3988206868828939,0.285551869751484,0.0097522931298085,0.0546140656597256,-0.0144322510546134,0.0073446984106431,0.0167395217760394,0.0086107522377531,-0.0044838536170187,-1.1202558097551232,1.5100426503947766,1.729366130116097
8.845759868621826,-2.561478680802471,0.0280486681623587,0.1286040473596513,0.1262189676665663,-0.6930222783548424,0.0857930698898419,0.7045767829441489,0.0531188936884152,-0.0156862823723865,-0.0032734314716434,-0.0389760777829651,0.037177561579825,-0.0062919076065211,-0.5202117907418117,0.4000784912658333,0.0356754914164951,0.0748740095290268,-0.0119843028431658,0.0088724883805791,0.0894009985615159,-0.0003955952149617,0.0025311691998287,-1.1418500107314942,1.5113273287853588,1.69864362808556
8.971967935562134,-2.5548760194279914,0.0263602325996157,0.1281177188240579,0.1361230653741986,-0.6924585553159233,0.0964219485392895,0.701907734736413,0.0448737035931774,-0.0078221749587044,-0.0035815805487526,-0.1266681322362038,0.0934328873832917,0.0035835613691352,-0.4298268120239089,0.2759841108477522,0.0542332528798108,0.2334160627827575,-0.0152234414845369,0.0124070368103005,0.0868682170651724,0.0024372208368135,0.0011767074521225,-1.1718820156852132,1.5130740924121329,1.6392030678261658
9.089314222335815,-2.5504222271976715,0.0260485281693809,0.1277270895719172,0.1459312276431964,-0.6913606541073632,0.106917917857639,0.6994948760296789,0.0233172796109428,0.0065374727394092,-0.0025036776666966,-0.1481940261729981,0.1072976547710326,0.0073275131289462,0.3516005768550744,-0.1275485425954965,-0.0024190864572727,0.2486104436593717,-0.0071098611695387,0.0112259032848241,0.0001967601483374,0.0046496009843862,-0.0021669016277844,-1.1854124546337244,1.5144292356254556,1.5965200778535071
9.21040940284729,-2.5494277111076964,0.0279890710929292,0.1275270241119043,0.1555194549675986,-0.6900998920564797,0.1169840831159946,0.6970585071625813,0.0098085654660309,0.0176472220018458,-0.0018485520879499,-0.038756281160197,0.0611483840130822,0.0027452840491865,0.8354830243606577,-0.2936271141726596,-0.0124380635747928,0.2338095830794324,-0.0059242395157645,0.0080732335547317,-0.02456565553384,0.0007701225954125,-0.0029287613560612,-1.198167028610897,1.5154106020500049,1.5554712429535662
9.331883430480955,-2.54804176015559,0.0303304319533279,0.1272785386980426,0.1637679812634907,-0.6889183224607754,0.1255112461929642,0.6948514376251957,0.0139714442644844,0.0213469694876973,-0.0018397784910682,0.0544166357449178,0.0361391389309204,0.0043296988261545,0.4512296852565278,-0.0350437778131803,0.0245024023747404,0.1994791325916917,-0.0055696159787136,0.0053683805727016,-0.03637641295703,0.0001500789164201,-0.0026011174780967,-1.2108516093224928,1.5160395158289182,1.5185737622105666
9.45744800567627,-2.5459549121523524,0.0332798364892183,0.1270742398732425,0.1707057356004682,-0.6878888063776742,0.1325382457087527,0.692894043355727,0.0234191742701881,0.0266222523105617,-0.0007435320995525,0.070087866621931,0.0539123893176519,0.0088936502588548,-0.2426823855014396,-0.207570945849125,0.0748660611637573,0.1610567571653723,-0.0056240816829243,0.0028709985985382,0.0093263525621943,-0.0022632531717492,-0.0042818389967944,-1.2242162920477018,1.5163504676960244,1.4850056263762517
9.586354732513428,-2.5420361979017176,0.0371262525151795,0.1270953153593099,0.1806583657569148,-0.6863729878910235,0.1419425881754411,0.6900050565304915,0.0317718846353312,0.0351467263932876,0.0004245050668814,-0.0098281627379666,-0.0190463749220681,0.023641859544502,-0.8038946230517278,-0.956082393434972,0.2616032745442655,0.2181318377160803,-0.010096122322212,-0.0031952974208871,-0.0380504174709053,-0.0025782867658561,-0.0043961585874744,-1.247028351919136,1.5157966070470927,1.4341081162682578
9.710315465927124,-2.537934150478823,0.0421158008319563,0.1271790510065742,0.1846358459401121,-0.6860106113700379,0.1451807946171829,0.6886374825378079,0.0216579766760229,0.0226324337543407,0.0050932592451257,-0.1314062775987066,-0.1840648901168409,0.0736165043685716,-0.4821195507643591,-0.7300956934523564,0.4581043241355725,0.0849559222235616,-0.0107806552146366,-0.0059213185764106,-0.0336419322517328,-0.0303766441444535,-0.0239055938604217,-1.268838660271746,1.5148676369842284,1.4018000914475983
9.828627347946169,-2.5366628338027435,0.042803985882813,0.1282804992856128,0.1934495273117607,-0.687007704128807,0.1484430405285973,0.6845161492391159,0.0004857323501639,-0.0085295844182365,0.0178628330103406,-0.1321378731324974,-0.2025651087593641,0.1340212696958304,0.2948789573835857,0.6008816375388457,-0.2171415268333592,0.1508479732126146,-0.0708494106111191,-0.0510064851417306,0.0365141144394838,0.0047031558085408,-0.0472158991948494,-1.3817994979520745,1.5070392863845847,1.2711925862656863
9.947498083114624,-2.5378304376645877,0.04007665886959,0.131425386957914,0.2039748581267855,-0.6844734164299172,0.1507861367100466,0.6834866058884944,-0.0096303809668665,-0.0253443453695052,0.0369100043700091,-0.0611288204579206,-0.0406978287977301,0.0212990363852574,0.354241882665235,1.230103173460292,-1.4334983656445968,0.1579841511025292,-0.0013743435975549,-0.1003531169661094,-0.0087730758852336,0.0139046204580148,-0.0547447206126014,-1.3356013954360373,1.4955454169129976,1.2984996447689765
10.066330194473268,-2.5389520176074782,0.0367797482639842,0.1370533050021991,0.2162846801655217,-0.6830270723764704,0.1491558986216341,0.6815038322950935,-0.0140466138321393,-0.0182113560938334,0.0229364052637007,-0.0479147917394799,0.0898440816339226,-0.2066878961057601,0.1293399395204575,0.5011167498459586,-0.9067377204761824,0.1333018214421472,-0.0430401696950893,-0.1604959263669336,-0.0691630005471536,-0.0687425750417673,0.0638162990872704,-1.3318104297428115,1.475801742173059,1.2864355937769456
10.18272590637207,-2.541112367150792,0.0357468654267068,0.136938460058304,0.217177884626744,-0.6886836460298901,0.1492662615853068,0.6754762655137312,-0.020849421945039,-0.0043543267195052,-0.0112790394383485,-0.0307919582965663,0.0800600570020302,-0.1968707827430637,0.6466838582637585,-0.0475512338381574,0.8831872930780218,0.019658150008222,-0.1388594936810897,0.0272794812084315,-0.0946392774272827,-0.063010859816173,0.1263160652023955,-1.500450028286705,1.4729163325818455,1.1162875150398526
10.298112154006958,-2.543779936124549,0.0357614087753868,0.1344597165768464,0.2127770359536476,-0.6968624507889277,0.1485044778883868,0.668621774771303,-0.0212392227314897,0.0004234994287947,-0.0228898526082124,0.1009706274562568,0.0787491779483451,-0.0035868313789563,1.1099555552410374,0.2104060855518354,1.3081610597233997,-0.0559767334124182,-0.1690618893274354,0.0921362040378575,-0.0617608932951186,0.0003820629797133,0.0177820975221979,-1.726137052574629,1.4714731051478664,0.8981467797554297
10.416703939437866,-2.5460696624893115,0.0358478885108303,0.1315735870526295,0.2072658157754194,-0.704003513140834,0.1449531049159165,0.6636328295613086,0.003453767811365,0.0143139784291836,-0.0114875145747851,0.2287054456484804,0.1307319722237106,0.1068249934726093,0.2927725896244936,0.0988869086688227,0.207192253130639,-0.1038636365820151,-0.1380953677216631,0.0628436762528273,0.035644882089602,0.0832804784694016,-0.0449507967259927,-1.8936134162082867,1.4657464491113847,0.743857281242098
10.527108907699583,-2.543348857364491,0.038824509167755,0.1316259875066459,0.207759887301041,-0.7039979052783155,0.1456014055086265,0.6633423017615531,0.0308097128796713,0.0301456467453022,0.0014039338645555,0.1804135630380215,0.1067600954920012,0.055302197176822,-0.5510781444663702,-0.3235924662402206,-0.5240903145505549,0.0153130307667858,-0.0025009323886321,0.002234610585872,0.0738484738629308,0.0693073754405362,-0.025280654714846,-1.897126332041668,1.4657093676246848,0.738673102824396
10.648958683013916,-2.5387655115296885,0.0429260332186322,0.1319220315084678,0.2089991598042276,-0.7037408398461298,0.1479838541969097,0.6626982423628561,0.0437338020328006,0.0382274625839836,-0.0001230984737855,0.0979781802182594,0.0530128187280959,-0.0162798960724136,-0.5342752469838736,-0.4309805045974569,-0.2748772232849347,0.0438333111438466,0.0005193831594094,0.0122823668231351,0.0324086702004345,-0.0048692639824803,0.0114741983203953,-1.9073980629722824,1.4667555403018016,0.7231163849288436
10.773932933807371,-2.5325155762122593,0.0482888700274033,0.1315794477562558,0.2113201903864706,-0.7038256897331029,0.1523884716969985,0.6608713409587385,0.054941894935915,0.0431462236613254,-0.0026380557519629,0.0494419540579724,0.0004477649203083,-0.0105657361972302,-0.2988052426139024,-0.3181378930797195,0.0388994652868461,0.0801303711676549,-0.0122394603535927,0.0251830072266627,0.0545117552473568,-0.0113607465654473,0.0071807445184693,-1.9401868948616685,1.4676193545126237,0.6804890618656252
10.903995990753174,-2.524702059468626,0.0539323671510974,0.1312503003668341,0.216879123865538,-0.7035946483688242,0.1602169167668044,0.6574561247716887,0.0559254465052045,0.0379375814191186,-0.0027184965536778,0.0227018077551437,-0.0270600887616722,-0.0064299392299714,0.1695172292154041,-0.0200746863362974,-0.0024957537642793,0.1528568216385602,-0.0222021099714853,0.0266438558600737,0.0051761273382264,-0.0037694035092546,0.0014276541386975,-1.9838974937035208,1.4674123113285191,0.6171299059923002
11.0368549823761,-2.5178349954838297,0.0582326770754169,0.130863633513733,0.2197264317332732,-0.7038848505749902,0.1653823233219966,0.6549161010857848,0.0609962698800163,0.036104931664231,-0.0043614747825242,0.0961318880886956,-0.0037484030337398,-0.0114157545111133,0.1857276120286868,0.0167848339988091,0.0955341349892468,0.0904826258441079,-0.019778267372102,0.0280383155040579,-0.0251842974554583,-0.0120224386036978,0.0065928439235419,-2.0280359867703877,1.467297534905354,0.5612057360058779
11.171167612075806,-2.5083783740602144,0.0635895055464501,0.1300807961929654,0.2228578788604567,-0.7053457320219481,0.1712910190237963,0.6507542938391031,0.0817786008762269,0.0369654794406431,-0.0057656834890087,0.0712502522364127,-0.0230394990691787,0.0194830326000296,-0.545969511404068,-0.191855001818709,0.2392715625754022,0.1024882267276434,-0.046246987178881,0.0398295437071577,0.0304816505889081,-0.0384888342475454,0.0139395641476271,-2.101822171895279,1.4645449780964277,0.4740588363701301
11.29467225074768,-2.4969869672138163,0.0678235495401406,0.1293758381310616,0.2275166354281987,-0.7083538817764575,0.178791460261873,0.643820295201296,0.081097730354184,0.0307758571546749,4.0489419752154365e-05,-0.0371449280175196,-0.0522114113285215,0.0500812988208952,-0.4272628294856752,-0.0781052811178505,0.0516677941733666,0.1514459270219242,-0.0967559358671929,0.0559174437993121,-0.0347749216087801,0.0361540525759269,-0.0243101448170194,-2.2029746313306866,1.4563772307798,0.3548145921646636
11.432121515274048,-2.4875437396607887,0.0715172677983744,0.1302607323452255,0.2290807707680712,-0.7066555146649336,0.1804127015566095,0.6446791769360867,0.0711534905350532,0.023278984500322,0.0073936663186026,-0.0269752566945587,-0.0387632926694148,0.0271886383170208,0.2182507573869265,0.0878017285627312,-0.1870111029095706,0.0329383835100831,0.0260611179729728,-0.0087907459268811,-0.0763189760313752,0.0563464865383373,-0.0294340879039716,-2.181665784299286,1.4592966883887135,0.3714602993721823
11.572123527526855,-2.4772327151725437,0.0742638122324597,0.1314321449053918,0.228971521297631,-0.7059035842960083,0.1804760226775457,0.6455234909367675,0.073847214681626,0.020102242610682,0.0074484453152696,0.0241523928636282,-0.0279024390000508,-0.0019105863885958,-0.0650975192487784,-0.0200231344969263,-0.150167089612987,-0.0011920250408262,0.0159370372094818,-0.0029507320086311,-0.0174739617755624,-0.0067384561318853,0.0085167065619615,-2.1707383951028203,1.4612191959103265,0.3824878894283943
11.706278800964355,-2.467300255816649,0.0770228985962566,0.1323132959960907,0.2283417528494845,-0.7055092453373776,0.1809309649604757,0.6460501022115701,0.0777188084970976,0.0156889985054013,0.0068962198345748,-0.0398956961581398,-0.043135333695202,-0.0146411769034854,-0.8021919776638303,0.0211344180645129,0.1592985938438062,-0.0020095400410417,0.0125842057092021,0.0082426671970419,0.0046923939924305,0.007282804151355,-0.0050745344573583,-2.174421417244481,1.4631974856986925,0.3790961485536363
11.830987215042114,-2.457181250916193,0.0784140312999724,0.133211345464045,0.2289034251909732,-0.7039999299971865,0.1811975525671578,0.6474216303487776,0.0647729632750255,0.0091227089058612,0.0038502286585239,-0.1775858322115572,-0.02488654064233,0.0346924782276856,-0.8499707532534324,0.2328938670508548,0.2754832723094322,0.0081927629440348,0.0305026455121919,-0.0130998009233478,0.0023143662959945,-0.0167754885891148,-0.0022520584237051,-2.1464422994328087,1.4660875774627329,0.4058961119183866
11.95189332962036,-2.451268497797225,0.0792787882201703,0.133284062361684,0.2290763042872734,-0.7048429913523341,0.181165055548555,0.6464515658606351,0.0346536389105871,0.0093685676908042,0.014974486023336,-0.2505639263735806,0.0134185482237436,0.0539209719007971,0.229749789865124,0.0561374133370074,-0.3230562278359855,0.0026191925509472,-0.0209667714690275,0.0037385503496317,-0.0413889098349778,-0.0068327962615678,0.0498960290718297,-2.159716649648614,1.4639274427662414,0.3923792843806969
12.06231951713562,-2.4488790106772313,0.0805368442195394,0.1363872269035676,0.2228673244278005,-0.7060702130667228,0.1815659982592698,0.6471698372130928,0.0068385200345346,0.0119985649437517,0.0170875802115765,-0.1411470362164265,-0.0066731378913394,-0.0303741921119597,1.4636363232285556,-0.2567233389763122,-0.4421713117555608,-0.0745850567259207,0.0168370529890562,0.0866922572203117,-0.0125501416165026,0.0044616693577321,0.0556795370588218,-2.2396441097838613,1.4690169229912056,0.3211219250032155
12.174705028533936,-2.449803307034063,0.0819546039660125,0.1370478317448507,0.2176011396058168,-0.7081634908673092,0.1847048972684236,0.6457850378956899,0.0036422358256054,0.0077611752368446,0.0080110272213772,0.0774204493501967,-0.0440780377882326,-0.0433301696525447,1.3534590326501807,-0.0874666840072637,0.0478834686726451,-0.022481090682058,-0.0120434327535631,0.1150976244672754,0.0388008999606416,-0.0051588642218092,-0.0453366231794189,-2.3674664410445536,1.4710229655510572,0.1964729066653164
12.286694526672363,-2.4480711660607515,0.0822820956882874,0.1381830147948692,0.2178006375122935,-0.7078479663588129,0.1847599819805853,0.64604789905971,0.0241260372504932,0.0021135942621574,0.0073357776910363,0.1630028806994509,-0.0264924652127094,-0.0197593417190248,0.2440631805085275,0.1681759723872306,0.0928644187956814,0.0030167431953624,0.0065193245454378,-0.0039809891385261,0.0151740510637954,0.0064225286859462,-0.0581334954075636,-2.3616101996750043,1.4716503934179386,0.2019623631486062
12.395404577255247,-2.4445346636916465,0.0824263127926686,0.1386849353373436,0.2181138155907508,-0.7077269006061655,0.1850310752162983,0.6459972900958139,0.039745543579535,0.0017595980040538,0.0037388829731038,0.1346466585608283,-0.0070337194326158,-0.0220749427870849,-0.2553424355061869,0.0377008096459906,0.0497472024079244,0.0078670114455328,0.0008016246183293,-0.0011693663478517,0.0030445698432964,0.0005379272693349,0.0006376871942151,-2.3601748249245045,1.4717102265021509,0.2025354698816522
12.507117748260498,-2.439266397607298,0.0826725884297338,0.1390018040433538,0.2184707931724361,-0.7073256049903734,0.1853859045973858,0.6462144128942171,0.0537502790728101,0.0005401979027747,0.0025370026238843,0.1067529706251537,-0.019042710845672,-0.0083612780061315,-0.3288229076124159,-0.0863275431453914,0.0701400428891907,0.0091058828819554,0.0075951790841076,-0.0027056147500957,0.0040854080880992,0.0086747565221319,-0.0028385976210083,-2.3554237282129926,1.472479700460797,0.2062461961175845
12.61885142326355,-2.4325240630351788,0.0825469500528568,0.139251808291145,0.2191321331895839,-0.7064199473851843,0.1859938381356151,0.6468061984208862,0.0635983949240337,-0.0024957689869133,0.0018706800935384,0.0611689715894671,-0.0263224684164532,-0.0064045293719946,-0.1402077072123819,-0.1018785962407302,-0.0396997006090974,0.0160378276217312,0.0181511376625931,-0.0068465615898683,0.0085552043763524,0.0075692713444881,-0.0028998631348606,-2.3433576987917957,1.4743022138963768,0.2164630703604414
12.734983921051024,-2.424745270342524,0.0820915851994675,0.1394247780686468,0.2202196414122046,-0.7051732444659609,0.1870386357745854,0.64749560118445,0.0674466734737659,-0.0054501860966449,0.0010736705317598,0.0772064257955059,-0.042586857580134,-0.017920738329878,0.2662843452292787,-0.1413033154683207,-0.147104421819543,0.0262162916346602,0.0227337217730839,-0.008505341019817,0.0122575008084508,0.0034843615449695,-0.0009523354340592,-2.327100106615104,1.4766585454424257,0.2296023140953092
12.861703395843506,-2.416134218980103,0.0811895085926466,0.1395033470360336,0.2219756007364032,-0.7035366824357022,0.1888411148198474,0.6481527616994902,0.0833237856391662,-0.0132176860291429,-0.002726216346228,0.1286746199173126,-0.060665998316471,-0.0431904771172213,-0.1501633531355267,-0.0133083159329814,-0.0259579219799114,0.040552829238633,0.0251198607525323,-0.0087512324579867,0.0565816493406967,0.0220641630433935,-0.0028884524994395,-2.307390019943043,1.4794927931049766,0.2440889154317554
12.979061126708984,-2.404684985695203,0.0789754256006079,0.1388197097295803,0.2271161088255729,-0.6992340417134484,0.1949149515900701,0.6492289193093965,0.0987922452068765,-0.0202687482061101,-0.0092300500176117,0.0505864943299132,-0.048167756826176,-0.0273842261832939,-0.789955676739495,0.1454719409356922,0.2274289869837397,0.1393795903160537,0.0668620478598711,-0.014282246018696,0.0193655044591615,0.0446443283531893,-0.0171239891774101,-2.2661624455485954,1.486659363119569,0.2688006934555314
13.1038339138031,-2.3921947254567284,0.0762603675481503,0.1372163813943259,0.2308024944086855,-0.692997918134962,0.1982449250822371,0.6535924140582382,0.0943297724596128,-0.0246983017118503,-0.0089278817253475,-0.0645035100275949,-0.02484653845044,0.0132958861581243,-0.5085243306693236,0.1121112716694253,0.0955323911979257,0.0792838381569561,0.114408517458911,-0.042999210812807,-0.0390670221653205,-0.0129486922378828,-0.000499908688654,-2.142619343359012,1.4984924175896248,0.3820763557319529
13.221333980560305,-2.381749901004368,0.0730331906270786,0.136601340256489,0.2332970580551591,-0.6904976210165643,0.2007051746895727,0.6546013679531238,0.0835706304339982,-0.0264388466984089,-0.0061623772015765,-0.0784596574703187,-0.0199499737304195,-0.0009842922707526,-0.4886985556010529,0.0034753301706677,0.1108839696001907,0.0612455459854126,0.0409646633841054,-0.0152820633960042,-0.0078822653453078,-0.0356668174435291,0.0142051874597341,-2.0922954272573504,1.5022150838127484,0.4250792102676538
13.342430591583252,-2.3722939140961445,0.0699596430746316,0.1357392814118863,0.2358985114839863,-0.6878046357020463,0.2033888099539182,0.6556749708292547,0.0757052848932779,-0.0294958143568393,-0.0093418079955596,-0.1838069733907088,-0.0242962995056931,0.0414498173142796,-0.9991451368041124,0.1107148128199113,0.4809925879934006,0.0635193074663404,0.0430748825718527,-0.0145888358933386,0.0528943633942869,0.0053906284857689,-0.0161704095693369,-2.034295970477526,1.506144584039435,0.4752581833978595
13.458016872406006,-2.363806111849823,0.0660963527036949,0.1344142360746094,0.2434998689304588,-0.6831934127469937,0.2089182005273765,0.6559784753315983,0.0413467338671669,-0.0321995722134154,0.0029189064268017,-0.3135487359046554,0.0046753911654728,0.1114521177695928,-0.0012169602892941,0.2420052771185819,0.1185473723072048,0.1670342727739866,0.0517459203556433,-0.047622882534678,0.1141996847319228,-0.0188914770246097,-0.0409415905626872,-1.9117492445607496,1.508552130837194,0.5782517008057224
13.57494068145752,-2.3627667094258067,0.0624762104856844,0.1364566534720537,0.2584440640267756,-0.677941322688608,0.2169195583439217,0.6531065257432532,0.0027582001412778,-0.0283332233167792,0.0165864035765319,-0.1810731682215657,0.0319491105542321,0.0677027702675576,1.33590257228526,0.0315640584606368,-0.3374652091821155,0.2919186769301861,0.0052919285226333,-0.0964720170187132,0.0455499069743671,-0.0255905969016332,-0.0083660070116894,-1.7667828126109828,1.5023570733988876,0.6887760980194652
13.683094024658203,-2.363081787736678,0.0596748173134897,0.1381623394897841,0.2698867312927832,-0.673923820603398,0.2240955318004237,0.6502069123921259,-0.0019235704573805,-0.0249896797691328,0.0189877234576614,-0.0162930763896843,0.0151849942361961,0.034876725309964,0.8913535866088004,-0.1218633465271585,-0.1356620955492172,0.2581340867227208,0.0005647265523768,-0.0643548965580569,-0.044758260760363,-0.0161703009109533,-0.0064960871949342,-1.6916193937019188,1.4978510707260648,0.7358330103513789
13.794909715652466,-2.3631824634834153,0.0569860507361026,0.1406573251339149,0.2816849800507966,-0.6706630268362133,0.2273154263837073,0.6474506725432173,-0.0006246927492483,-0.0251101619085541,0.0243526066947782,0.010287759183286,0.0053897972795459,0.0391115900207206,0.1054368291380493,0.052310799661717,-0.0654079971761492,0.20240215540946,-0.0270486732992732,-0.1094641914085816,-0.0508618506062281,-0.0062519857865256,-0.0263792650400179,-1.6057890444358391,1.4871673924056283,0.7987693433569679
13.906441926956177,-2.363221467652762,0.0540671176612916,0.143600288415598,0.2918469378850137,-0.6672317289804334,0.2287356489099172,0.6459931792261291,0.0003749312144663,-0.0237895419035297,0.0277282365286928,0.0073309223855966,0.0267892776989211,0.0203264686001071,-0.0424627692731107,0.176476131263786,-0.6134732495076882,0.1564103855102644,-0.0119392450206744,-0.1171134266380928,-0.0452476106369621,0.0020291041852556,-0.0082811156571221,-1.5180045597479896,1.4765902594559115,0.8687633009587385
14.015588521957396,-2.363103144576157,0.0517249610570359,0.146770026786533,0.3006555187877857,-0.6646093372562711,0.227991561376522,0.6449190149122005,0.0010007885327052,-0.019268896419648,0.0288851439802968,0.0009924213083741,0.0444069928177717,-0.0941682482486885,-0.0657891486938384,0.0943465135838152,-1.158706100507493,0.1119069341355357,-0.0229904649287618,-0.126026422722826,-0.0490393022995156,-0.0131735011478064,-0.0005179445944607,-1.4517336283559823,1.464277581743461,0.9224876073022832
14.125527143478394,-2.3630023420889734,0.0498490688507151,0.149928348482507,0.307511058774097,-0.6632640298432156,0.2252948853529157,0.6440186255704011,0.0005848177314682,-0.0140558745369901,0.0069308055441579,-0.007094774187587,0.0473525812067276,-0.2337033200118391,-0.2243987929969331,0.1970971077651452,-0.4765963224872471,0.0583317809112331,-0.0382862473162874,-0.1181493158270142,-0.0610451362136659,-0.0073091257930052,0.0018894890608411,-1.4137260255083322,1.4513109850470411,0.9538405752473716
14.229260683059692,-2.3629741804408884,0.0486853451705299,0.1485138204061676,0.3118090420974044,-0.6626747899650027,0.2202562799295465,0.6443014939938725,-0.0004752354072703,-0.0091501843422057,-0.0206406270883595,-0.0451362589463666,0.0844673006406414,-0.2055624746528951,-0.4418979122601577,0.1719213064355907,0.6574191887169215,-0.0101833382917961,-0.0376087165147722,-0.1222474446011437,-0.0605425361876129,-0.0023034975102087,0.0071627752258347,-1.3822418252307471,1.4386434805478818,0.9861329437438512
