timestamp,px,py,pz,ox,oy,oz,ow,vx,vy,vz,ax,ay,az,jx,jy,jz,wx,wy,wz,aa_x,aa_y,aa_z,roll,pitch,yaw
0.0,-3.000905985417571,-0.0065323321549732,0.1144836324066007,-0.0040251961846816,-0.7050961262726203,-0.002686864474719,0.7090952201716737,7.314421057122332e-06,1.6484707697500277e-06,-0.0001589705407072,-1.255163710786039e-05,-2.686343348302116e-07,-1.33765148415605e-05,-1.1063571293945214,-0.2879521270475281,-0.0888451221237755,0.0,0.0,0.0,1.7068424366740736e-06,0.0001024337643984,4.5883412550959456e-08,0.3181967597108158,1.564832446096775,-2.8139035288224052
0.0962975025177002,-3.000905281057091,-0.0065321734113551,0.1144683239405567,-0.0040251262154817,-0.7050926291773206,-0.0026868248141891,0.7090986980746622,6.105729751126887e-06,1.6226019542153749e-06,-0.0001602586656789,-0.1065519800904523,-0.0277293393136712,-0.0085689398862412,-2.3721244405290807,-0.0291962303222884,-0.0002956224055149,1.7068424366740736e-06,0.0001024337643984,4.5883412550959456e-08,6.221657766463949e-07,4.7912458045041496e-05,3.133240551078371e-07,0.317665947462378,1.5648231046002796,-2.814434495980846
0.1913049221038818,-3.0009048142636825,-0.006532021676934,0.1144529774363599,-0.0040250930591007,-0.7050894013640808,-0.0026867803498821,0.7091019079943724,-0.0201035557594249,-0.0052320442677914,-0.0017763240117855,-0.4505676196585941,-0.0062488122439166,-0.0002968725275656,-2.092002476890815,0.8856122850910204,0.1406579156915168,1.2443315532927895e-06,9.5824916090083e-05,6.266481102156741e-07,-0.3455528723818457,0.0008866350944416,0.0061909941332089,0.3171862870264311,1.56481446358758,-2.8149142660681816
0.295795202255249,-3.0053162984945665,-0.0076801676382457,0.1140817972394207,-0.0300817475063456,-0.704460382477305,-0.0276852446793742,0.7085648772088107,-0.0946381976665673,-0.0002725256462437,0.0001133091830799,-0.4934572283665001,0.1620807660615465,0.0205590931649057,3.2164114604618788,0.5503375393415034,0.0149561417497987,-0.6911040379212547,0.0018757039532817,0.0123820341498303,-0.0734045900618176,-0.0009825701552892,-0.0058380812988267,0.4876178263326599,1.5640746918965829,-2.572256766460156
0.3989949226379394,-3.020425757142282,-0.0066161098132542,0.1144671076892636,-0.0350267123197313,-0.704316783821235,-0.0334448996305765,0.7082319084455906,-0.123153666375563,0.0281364973083746,0.0024872457598127,0.2081452877972354,0.1107714768912563,0.0032830060382191,5.864372484247138,-1.578780093247596,-0.1616191134345398,-0.146807935792082,-0.0018693153944883,-0.0116755359495432,0.4965267092836665,-0.0011921038898411,-0.0074937781958636,0.3355364680980451,1.5648246628400604,-2.7091843985844895
0.5127081871032715,-3.0315160082731754,-0.0011830778955595,0.1145937701513345,-0.0227593769758079,-0.7048128163724835,-0.021452288650811,0.7087035374177296,-0.0387831343638396,0.0201198662394245,0.0003896530300832,0.7579589771089026,-0.2042784145676628,-0.0143703469648122,1.196260044194823,-1.216442080689805,-0.0272867831597685,0.3019493806460782,-0.0005085038264005,-0.0026055222418969,0.137048740511703,-0.0009329354623428,0.0060148779826938,0.2928362442106957,1.56499180486102,-2.7862212196871794
0.6165852546691895,-3.029970266355548,-0.0017176455868415,0.1145655234272383,-0.0180906040591249,-0.7050762956064393,-0.0167746843128988,0.708702164089316,0.0414697266043813,-0.0137945664097559,-0.0007163192326611,0.5369283450142885,-0.1831655650768511,-0.0050626974002736,-2.74815147236831,0.9362500444433124,0.0773695431226873,0.127289545231324,-0.003735186319174,0.0003542200158443,-0.1432573027535429,-0.0019208226196049,0.0045215035900196,0.3234868515717506,1.5653413100343418,-2.76879365877118
0.7209513187408447,-3.022854157245207,-0.0040641795963599,0.114444165953207,-0.0177604467602255,-0.7052443209200409,-0.0159646063464928,0.7085620267027506,0.0727975021084557,-0.017882608113233,-0.0006591447323871,0.1850671903891438,-0.0085922155300774,0.0017293370391166,-2.293330791940689,0.9918240566047142,0.0227151570105895,0.0154347751389923,-0.0043501490656105,0.0064374849381423,-0.058611763114568,0.0014533910759158,-0.0011987918328286,0.4722817984433881,1.5654611139197794,-2.6216117361912636
0.8259611129760742,-3.0147222690157967,-0.0054558900329353,0.1144281648767066,-0.0173109894150582,-0.7052853797938304,-0.0156671183154967,0.7085389220771378,0.0800696784678614,-0.0155540795324561,-0.0003527119666845,0.0581525113114195,0.0236191409637275,-0.0003614018211742,-0.4214168435560803,0.0831902885364759,-0.0141830711030277,0.0100660190021879,-0.0008284041673422,-0.0020433636498128,-0.0033146093869797,0.001353124723919,-0.0028027262631096,0.4445221660607264,1.5656411587066086,-2.650428017514891
0.9345505237579346,-3.0057321853449217,-0.0074032722855931,0.1143673682671779,-0.0170054979756808,-0.7053552446824161,-0.0152963696635368,0.7084848713365195,0.0851380114289241,-0.0128270588089978,-0.0007602190236133,0.1007845591408724,0.0075493959494978,-0.001258456860781,0.5294143991231547,0.153753800445803,-0.0018357133090498,0.0088055563650329,-0.0016438996177724,0.0008320324119231,-0.0029152413208815,0.0007248259094398,0.0016459633312171,0.4770107573316597,1.5657533694225785,-2.61889603869498
1.043412208557129,-2.9962076347780595,-0.0082423638652454,0.1142627451839909,-0.0168895796042829,-0.7053336372499858,-0.0150861800971282,0.7085136621368519,0.1020148938555287,-0.0139220314034297,-0.0006250048338525,0.173348848608885,0.0572175912941655,-0.0007570764381253,-0.1653541794944464,0.709200405755516,-0.0044832631463828,0.0042355363604248,0.0006212476515373,0.0012485630126215,0.0342772362679428,0.0004127088916397,-0.0004976525234173,0.4932664334918267,1.5656262517793162,-2.603101662067451
1.150599718093872,-2.9837402028016045,-0.010390468755185,0.1142312198838734,-0.0139464163833134,-0.7054213490019154,-0.0121671858939087,0.7085465245344191,0.1225290259310103,-0.0006887756990365,-0.0009171423962437,0.0678240869571887,0.1599311199048376,-0.0021968633478217,-1.394203539198438,0.3513600609994085,0.0091112447661399,0.0773600289009186,-0.0008184818344929,-0.0001632726349115,-0.0258839113717951,0.0022310533043165,0.0015070683446104,0.4990902600443269,1.5657105798256088,-2.6055699646792423
1.2601802349090576,-2.969617183497576,-0.0082980163013896,0.1140609229265343,-0.0159530058004873,-0.7051866226743974,-0.0138426772200997,0.7087070686076067,0.1161190194814381,0.0209224267450188,-0.0010986563509087,-0.1308526969635421,0.1304441615728794,0.0013270487753206,-1.0346615353926465,-0.5553515755017391,0.0289774672996188,-0.0475322863831654,0.0050833542601703,0.0042626997018423,-0.0393167646312709,0.0031149064495931,0.0004395234905127,0.518944041719618,1.5649916608114447,-2.5805078572971576
1.3656609058380127,-2.958664809144581,-0.0059055699161871,0.1139912770637849,-0.0160232755823922,-0.7049827981440153,-0.0138678394552598,0.7089077457536265,0.0949698943374901,0.0279019794486559,-0.0006557517861471,-0.1609547331756253,0.0427999016332588,0.0040606583134976,0.1816637052019831,-0.6621777264227816,-0.0090980171634465,-0.0012735003616232,0.0054113310646932,0.000715774346114,0.0287762862499309,0.0020559480085129,-0.000168621355482,0.4810625073639765,1.5644636834850938,-2.618254365901793
1.4747803211212158,-2.9493022496672103,-0.0022716008811886,0.113920231994929,-0.0157797382541198,-0.7046310857241782,-0.0133386291696836,0.7092729473648852,0.0818708916074264,0.0299342874163608,-0.0002282622564712,-0.0884101218597359,-0.010410156301636,-0.0008845938089908,0.4677039684915272,-0.3344286307308455,-0.0385820661138249,0.0100202861166965,0.0091952502771963,0.0039254569908782,0.0030448503964664,0.0057532505641383,0.0031572457254066,0.4635531301090561,1.5633793167302084,-2.6368567399570977
1.583956241607666,-2.940793219634209,0.0006285646443499,0.1139414962726273,-0.0158513537226981,-0.7039731394358169,-0.0128957464823935,0.7099325695167815,0.0756739528507495,0.0256262088016097,-0.0008493973305145,-0.0588794200993957,-0.030186990608305,-0.0043608651509143,0.010490699327276,-0.0957887504792557,-0.0386449855720218,0.0048162004313096,0.0169178321929699,0.0070302657969273,-0.0032063965896196,-0.0091575712270172,-0.0028364041235037,0.4400772248527592,1.561388803486126,-2.6608576396536248
1.6860368251800537,-2.933284540893898,0.0031549799111571,0.1137551272406281,-0.0156638522390922,-0.7043072974084003,-0.0128220610495033,0.7096065595107969,0.0694613155622327,0.0234297754856089,-0.0011677622574136,-0.0826242572858187,-0.0318180760014561,-0.00895518281978,-0.3165700898169159,-0.0930296764503129,-0.0560306402675601,0.0036074929374572,-0.0091198921768381,-0.0017473512561291,-0.0028717075453112,0.0035352395422271,0.0011608630759557,0.4720902801521628,1.5622924248791032,-2.629214119687503
1.7907228469848633,-2.926452550433182,0.0054660965584139,0.1137035142460029,-0.0160269442992294,-0.7034073705658996,-0.012528539023419,0.7104957732456508,0.0584751581521683,0.0189929287973976,-0.0027318310757876,-0.1247786384794956,-0.049829049510617,-0.016004307527529,-0.4260731729383937,-0.1225043024206403,0.130819142398699,-0.0009272146593128,0.0239883112774242,0.0093519919488389,-0.0060164324472153,-0.0012038497227591,0.0036350291699965,0.4382722377056671,1.559617333749962,-2.662933488492768
1.8935983180999756,-2.921122987430979,0.0071082504714766,0.1131961411370897,-0.0165421051186966,-0.7038184607121658,-0.012622041567251,0.7100750785555526,0.0436332776455348,0.0131139154069711,-0.0044858216283441,-0.1709766445303557,-0.057423101644739,0.0174864992204029,-0.3717045616339252,-0.0457207015774274,0.3107551106124018,-0.0084253719569734,-0.0115275916223564,0.0055227070838638,-0.0023860284759877,-0.0162199285285689,-0.0017857604028234,0.5390869001279048,1.5603548077143,-2.5612579355583924
1.9926011562347412,-2.917581829904176,0.0081351597149272,0.1127945340779944,-0.0169491024487318,-0.7041071174580718,-0.0126104995595755,0.7097794519228671,0.0241616362966787,0.0074025491799826,0.0005358568904808,-0.2004056435960856,-0.0592725917465222,0.046842819959978,0.4563513735413826,0.1424478209391898,0.0355035562445088,-0.0056992716112884,-0.0084515457797135,0.005780471143192,0.0120656069807158,-0.0040690345722453,-0.0118336191470325,0.6320470904210206,1.5606968924744438,-2.4677383955074372
2.093289613723755,-2.916337580716283,0.0085763773803017,0.1133187608928507,-0.0157571628399905,-0.7048344310820058,-0.0126853311912386,0.7090833653055951,0.0036013399341801,0.0012723103603726,0.0048550908659826,-0.0772850356083531,-0.0284296830983033,0.023688810665257,1.669236176644645,0.4144146175926841,-0.269604758547236,0.0157058420044582,-0.0196656607668471,-0.0181445312102013,0.0018546395424793,-0.0140676319616448,-0.0277857995016836,0.6058597894457067,1.5633815149076549,-2.4955061146816577
2.1927690505981445,-2.916839911834091,0.0083973096341692,0.1137672118314705,-0.0141047689783887,-0.7061592698658908,-0.0144824752546005,0.7077643668517356,0.0083866171499575,0.0016338364949848,0.0053237636118134,0.1326487975244793,0.0234201021429568,-0.0070281023838869,1.2780644983024831,0.3148077634086258,-0.2485841423016951,-0.0019899925263296,-0.0365868097030033,-0.0497911278601751,-0.0084719574227678,0.0096896392153103,0.0120297620257432,-0.2513277784226709,1.568464374995625,2.93069612494714
2.2910919189453125,-2.914709587646908,0.0088916571339969,0.1143699375492318,-0.0143533943629594,-0.7061642202213647,-0.0143194462572067,0.7077577464134889,0.0296451491108005,0.0058593590535652,0.0034919128966018,0.1774330074569462,0.0343146819738715,-0.025620129536074,0.0174846815926865,0.0139496566710066,-0.0705919274435685,-0.0012380728410774,-0.0002863823362264,0.0059149928412852,-0.0024696235020635,0.0128167924646675,0.0244398485815888,0.0010243796436921,1.5685422286273936,-3.1000159495087183
2.3911473751068115,-2.910931066228045,0.0095625863598483,0.1144507094512585,-0.0145743861840667,-0.7065475880518901,-0.0145886442985168,0.7073650150685612,0.0434499217648625,0.0084108482239254,0.0002168532027518,0.1345862724754477,0.0258488368727971,-0.0206177706729101,-0.2442232066174225,-0.1133681374245057,0.1065201723737791,-0.0069292395304567,-0.0109532247736682,-0.0009114306969975,-0.0033854572437833,-0.0032892837730205,-0.0035794992536468,-0.0380637490227474,1.5696401345136322,-3.138410718912191
2.499497175216675,-2.9055561687500284,0.0106739828949086,0.1144049306745743,-0.01483910825832,-0.70680519818189,-0.0149374547966387,0.7070948204684826,0.0576351565769321,0.0112524061690396,-0.0005956425275259,0.129714555925438,0.0101913593617087,-0.0024442365941471,-0.1018470256077997,-0.2004282694929411,0.1098958013377526,-0.008008987328644,-0.0068649498822674,-0.0012440056660085,-0.0003880962359812,0.0065571213429308,0.000260580160831,-0.3484082269667323,1.570363769025998,2.835297958954225
2.6058483123779297,-2.8985885396704765,0.011974548170748,0.1143235101299438,-0.0151124477232324,-0.7067180668623139,-0.0152434397611168,0.7071695874671476,0.0713045354970987,0.0106624462740852,-0.0003279451520824,0.1129449079677314,-0.0169618329380014,0.0032060115863091,-0.2055565289882038,-0.1152181543592414,0.0186938127053313,-0.0077054320024192,0.0021610179121935,-0.0003902703753353,-0.0011330443432808,0.0046445690247668,-0.0003227002278309,-0.303828239509179,1.5701314511994058,2.880697421487122
2.7122788429260254,-2.890382951178186,0.012942507158263,0.1143352194751207,-0.0154260955490021,-0.7066199086971948,-0.0157029163883454,0.7072508456168731,0.0816652867229326,0.0076414259130587,8.664739399733001e-05,0.0859682901813135,-0.0143026976171403,0.0015279942774716,-0.2485513569938137,-0.0804093794911848,-0.017948456394979,-0.0102750760152057,0.0024241881672662,-0.0018894061216704,-0.0029255175210497,-0.0005728178681738,-0.000936402103079,-0.4354688220999302,1.5698219436969132,2.75015046327578
2.820004940032959,-2.8810874709742755,0.0136072215004986,0.1143420053169727,-0.0158555276372674,-0.706571447573392,-0.0163059355149634,0.7072761187714225,0.08968554997492,0.0076361397440006,-6.8867246407755545e-06,0.0597288019310849,-0.0344567867293903,-0.0006434579388199,-0.2643431602558418,-0.2649957062331139,-0.0115224630857633,-0.0135564670445187,0.0010153821758457,-0.0022630745814935,-0.0021895322575847,0.0002379164379951,-0.0001881821455504,-0.5914709149918155,1.5696135936593132,2.5956088453388784
2.9287145137786865,-2.870965085873311,0.0145981363657114,0.1143335908673977,-0.0163292953214224,-0.7064486859898234,-0.016958334431453,0.7073726196785318,0.0945636409392811,0.0001157608594766,-5.217566571713572e-05,0.0287139663970543,-0.0718111645221675,-0.0009488161769966,-0.2510557278548112,-0.1127797461905265,-0.0032250726829478,-0.0146541405303751,0.0029000210432566,-0.0022657704127713,-0.0101957830869421,0.0003010094265404,0.0017800469720743,-0.6212821197673382,1.569215602958731,2.5673907139971823
3.0334935188293457,-2.860910403342302,0.013701402365546,0.114330671677745,-0.0176339125226265,-0.7063563550974951,-0.0181680585815113,0.7074034678950228,0.0959403833829668,-0.0076744030861209,-0.0002053399915763,0.005866939539427,-0.0603158064924799,-0.001328761954671,-0.0379099584426621,-0.2052938733583833,0.0040383466914227,-0.0339480332184029,0.0016174010289265,0.001297019362655,-0.0027226607036435,-0.0015827315215651,0.0011158808185184,-0.4970239272983341,1.5691339444434609,2.6952057866654324
3.139106512069702,-2.8507800311725617,0.0129849836127175,0.1142900917664168,-0.0183837141438211,-0.7063466212936578,-0.0189187856255542,0.7073744193789926,0.0957858193582588,-0.012550702811524,-0.0003315137871238,0.0210396790493981,-0.1155308636839378,-8.634524726409596e-05,0.2855697838848619,-0.5520819577238748,0.0161263408823098,-0.0200994619376621,-0.0002654419998735,-3.40087757345542e-05,0.010312863673138,-0.0009108741913997,-0.0006953762881471,-0.5063712328675198,1.5691576256659572,2.6879812585644625
3.245426893234253,-2.8406103815454853,0.0110333028492004,0.1142604876766779,-0.0188813695199268,-0.7063408214233423,-0.0194223521375587,0.7073534548678582,0.1004313371273593,-0.0322577055963759,-0.0002220661337571,0.0665901453083055,-0.1773619570326339,0.0020951404842475,-0.1080151869948561,0.1459414504074829,0.0144541583360999,-0.0133223058721268,-0.0002043473538728,-9.37332136392208e-05,-0.0427336831849383,-0.0008215238332244,-8.257815792927512e-05,-0.5177459585443274,1.5691726956947714,2.6780229807762157
3.3490443229675293,-2.829721209719252,0.0062870643060563,0.1142431707983929,-0.0227444343794175,-0.7062941625253351,-0.0232906703781726,0.7071695633726974,0.1096434054360475,-0.049828343593208,0.0001026474368422,0.0012262963684869,-0.0887750165163357,0.0029804931746142,-1.0613671950701709,1.0382643832789258,-0.040605148504169,-0.1055668283075388,-0.0019084896663225,-0.0001991650915931,0.0276288588452429,0.0086127155214275,-0.0039076471567848,-0.5904257682297953,1.5693370800038804,2.6162818751176373
3.4587957859039307,-2.817158376557924,0.0003506698602304,0.1142857969721277,-0.020788701910328,-0.7056948586945737,-0.0219934120900819,0.7078692577796871,0.0995855086858448,-0.0501789673538002,0.0004119422791222,-0.1653109349875672,0.0464869395011952,-0.007189553056566,-0.8083962876435823,0.8143921629296098,-0.0437427224374382,0.041935411818359,0.0170210836889823,-0.0079090275272089,0.0596784768512272,0.0090470208973314,-0.0035495596203371,-0.5361979820418383,1.5672808341231794,2.665907042980885
3.5650553703308105,-2.808107369758947,-0.0045790222857433,0.1143319930024526,-0.0199775044381134,-0.70510980852852,-0.0217687151401497,0.7084823076650865,0.0744407153369852,-0.0401280960968533,-0.0013815960004762,-0.1782689954983994,0.0900157790427553,-0.0068046396481707,0.3487230312379962,0.1018705413120409,0.0350053024437263,0.0137901253949156,0.0161855521283403,-0.0072982843322673,-0.0177070345289232,-0.0354589215465636,0.0149457917406426,-0.5177580631421311,1.5653959153947798,2.6828814530720964
3.674201250076294,-2.801186265001522,-0.0082564858968194,0.113977566239612,-0.0206351767415223,-0.7071738498854568,-0.0206089705747555,0.7064379702782663,0.061526894996879,-0.03081582813812,-0.0009948702491514,-0.0874402015902412,0.0666296181361635,0.0005344014903415,0.3823893400707923,-0.1690916161704076,-0.0373276490314357,0.0065213427605125,-0.0538967594041448,0.0219825559540762,-0.0106530329960472,0.0123756841267075,-0.0054287204675379,3.076827510590534,1.569754976125596,-0.0064288310340523
3.778662204742432,-2.7949475249352127,-0.0111878748376482,0.1140988301603414,-0.0201977732737891,-0.7056728648257546,-0.0216005453564265,0.7079203869388832,0.0554797882107589,-0.0257241916392512,-0.001239857242442,-0.0924640167706291,0.0534824688269703,-0.0138193191978357,-0.3019848081889076,0.0286809381798684,0.0103722818640109,-0.0075159405971788,0.0409369203817553,-0.0181557252673431,0.0021532594246069,0.0366831567015838,-0.0209326442618233,-0.5875420431738729,1.5670495592878553,2.6131710728411663
3.882177829742432,-2.78963978190814,-0.0136109153896683,0.1137242233605019,-0.0190530463625919,-0.7049915403779211,-0.0219539066474187,0.7086197396367021,0.0423616194427562,-0.0197016492453472,-0.0038473695911138,-0.1497681177395582,0.0723037248898602,0.0024134561693391,-0.330277098286633,0.250562110983774,0.1779950311059279,0.0108278616097264,0.0194695539990227,-0.0198827325695705,0.0069169617299324,-0.0261672732443114,0.0067595923452068,-0.7034558379271615,1.5642268674774993,2.496137847375087
3.979442596435547,-2.7863340767146845,-0.0151885101990327,0.1133291245008176,-0.0186885157448323,-0.7053952060703561,-0.0218865098516058,0.7082297108415678,0.0256886497830652,-0.0113782606794534,-0.0010899484778684,-0.1614845539165754,0.1029569860525777,0.0216617975748186,0.4002472853282887,-0.0642769944475598,0.0865066439213494,0.006317982862686,-0.0113976261068675,-0.0046365405769295,-0.0062444891509903,0.0026593586270857,0.0114339909829511,-0.8742755286788191,1.5647528775834088,2.32470701385532
4.077086925506592,-2.7846391419284187,-0.0158249595448562,0.1135140431216408,-0.0188222600816689,-0.704533069248159,-0.0218630958599067,0.7090845379082862,0.0108943667933925,0.0003788249935632,0.000369624974163,-0.0713602288238699,0.0594869574847426,0.0191896642479821,1.212983890374114,-0.7825234181635294,-0.0182546952834197,-0.0016611166922542,0.0247882712531943,0.0029852493963318,-0.0051421968789937,-0.0090963654615485,0.0432432784977595,-0.6177672656074766,1.5630551771618144,2.581371541129242
4.177167177200317,-2.784211876453831,-0.0150795876285397,0.113394690287472,-0.0218808089494991,-0.705494887408963,-0.0190705954728762,0.7081204039058895,0.0119743359677055,8.327673887238707e-05,0.0027252430389663,0.0797826261136536,-0.0534310769091289,0.0180872348551236,1.0930547432134323,-0.720363394110813,-0.1645321614176795,-0.0039664108953013,-0.0295903570299646,0.0818500164185895,0.0011731552139556,-0.009713777514983,-0.0039525784997468,0.7904022462900878,1.5653574531761407,-2.2932680649040313
4.280052185058594,-2.782164940177759,-0.0158499471925667,0.1140894577640113,-0.021672033074383,-0.7053057701982371,-0.019230980693914,0.7083108518786401,0.0274799003895882,-0.0107529519066473,0.0040097047372755,0.1481190460221789,-0.0844015379726316,-0.0150778694117981,0.3120876808706793,0.0311651182054095,-0.2131848196425997,0.0006851937356569,0.0053607162232281,-0.0049199076031619,0.0009269940540572,0.0124153793724917,-0.0400077994781784,0.6532740498333275,1.565321056924575,-2.430464722135657
4.383903980255127,-2.7785160355585212,-0.0173089620375011,0.114218314820709,-0.021821662314947,-0.705476623922796,-0.0192355190586466,0.7081359636106973,0.04259096511222,-0.0173249827805508,-0.0004454516583018,0.1436185975042969,-0.0463427771732285,-0.0257738401548891,-0.0486839268008324,0.2755538732424618,0.0763020979211175,-0.0021124227871869,-0.0047595982849811,0.0018344174622326,0.00162130402471,-0.0037211426962737,0.0057330331900523,0.7424088944462153,1.5655503271618192,-2.3411117770403256
4.486741304397583,-2.773376903545494,-0.0194242183299388,0.1140007923058518,-0.0219181622492977,-0.7055488981793633,-0.0188523473400749,0.7080712785032799,0.0571681126602445,-0.0203657021321509,-0.0013520441916521,0.1380674071195627,-0.0272639842250704,0.000330942140779,-0.1218986234851543,0.1346631180139687,0.1444208154215834,0.0039278017850769,-0.0020815691693193,0.0065461587769428,0.0024771678013556,0.0053436114097851,-0.0015046932514775,0.8535070117235176,1.5651817627048294,-2.230419217190827
4.590932846069336,-2.7666609713518175,-0.0215246961296193,0.113940483239229,-0.0217643208306816,-0.7053343328731992,-0.0187979986414242,0.7082912031475299,0.0711648652223999,-0.0229631324753936,-0.0003520006305265,0.1181969001998229,-0.0186022850177486,0.0038271166882004,-0.26837939600569,0.1827442709742064,-0.01977566289532,0.0028419128155244,0.0059276245345892,-0.0011749690407224,-0.002229943734555,-0.0019846189408494,-0.0041025684452486,0.7583079577753125,1.5648731181310946,-2.3259127938455655
4.697502374649048,-2.758345856574734,-0.0242774375600255,0.1139276953758605,-0.0217281115666811,-0.7055640484338446,-0.018873589811707,0.7080614735550923,0.0820017812045268,-0.0242559047499041,-0.0005731969642702,0.081129875765083,0.0117305513353276,-0.0040935326683001,-0.336580695862962,0.2945300810150271,-0.0146234657693303,-0.0005320856840331,-0.0060508070510181,-0.0016589781135545,0.0004090085889435,-0.0018171779201583,0.0018345818091484,0.8233083787914361,1.5654324734829228,-2.260856700547448
4.801070928573608,-2.749452805145341,-0.0266311028658249,0.1138227145219021,-0.0216828035552829,-0.7054807095234411,-0.0186509929290305,0.708151795156269,0.0883349973635851,-0.0206392950103584,-0.0012002667699781,0.0474019696160161,0.0432311155894986,0.0004008965006858,-0.2084675177087584,0.1864957700371357,0.0484916872496047,0.0036599299934116,0.0022932686942725,0.0024941945775743,0.0054376747589249,0.0076545511717215,0.0014304934689537,0.82004266978073,1.5650820256901816,-2.264501413175289
4.907197952270508,-2.739809610221374,-0.0285945987042447,0.1136750379703371,-0.0213299633101593,-0.7051414711423102,-0.0182292691781747,0.708511278728628,0.0918705479021948,-0.015147478029519,-0.000455690171627,0.0380222214416732,0.0502284145290483,0.0061013576723169,-0.166664307451853,0.0654291762508227,-0.000333073837962,0.0103432638338166,0.0092582952924248,0.0012020088243529,0.0006802795729743,-0.0012442638168565,-0.0014342251401351,0.7158549050450409,1.5643202198534305,-2.3697849535900457
5.017422437667847,-2.729568071081794,-0.0298802670864011,0.1137319422624779,-0.0211195760774249,-0.705154552178789,-0.0180485468574348,0.7085091890753263,0.0966004879570832,-0.0097849915288872,0.0001121318849112,0.0106899958153103,0.0573826060712305,-0.0001226227484642,-0.3293331905113417,0.1229975693071308,-0.04411377339266,0.0050204891393603,-0.0001952589394404,-0.0003742557026959,-0.0021762942179354,-0.0041066766399965,-0.0001389686141763,0.7135903627298813,1.5643643938835377,-2.3726028295809476
5.122584104537964,-2.719039660896028,-0.0307207404799115,0.1137031876842851,-0.0209296690417139,-0.7051202460543129,-0.0177931609888764,0.7085554254821097,0.0944917990560672,-0.0028744459185136,-0.0004299239750639,-0.0321066411599288,0.0761456789742164,-0.0035223439636147,0.0240003351059722,0.129365326065043,-0.0038451591255634,0.0059906753979458,0.0010449420124318,0.0009240715960002,0.0012563718226183,0.0012306809208572,0.000773895744039,0.7125964686920605,1.5642178439147894,-2.374226692014469
5.236767768859863,-2.7089475803844594,-0.0304144573873384,0.1136346955810241,-0.0206698676325717,-0.7050347536301964,-0.0174451318376023,0.7086567717314418,0.0893311994943797,0.0071135196751175,-0.0006297638854809,0.0240641800743042,0.0848351521890815,-0.0004300403268994,0.6657374661629868,0.1252434135245732,0.0393200112977553,0.007533232784597,0.002266102902274,0.0011735357853822,-0.0058807842605966,0.0003096098732079,0.0001605402742734,0.7004834423159918,1.5639380430072358,-2.3871996173050873
5.346292972564697,-2.699064118623069,-0.0291698255324527,0.1135625770157069,-0.0209403075509535,-0.7049632086497618,-0.0176215043663131,0.7087156415331695,0.0992430448128818,0.0161280034643381,-0.0005381763828182,0.1152384524930795,0.1037152236162671,0.0051621951034076,-0.1121347548397893,-0.0439176982340201,-0.0067448936421943,-0.0057708931232474,0.0016641617588478,0.0012451521445472,0.0396761197164265,-0.0017343970771866,9.088862138871318e-05,0.6968809483731244,1.563711792641536,-2.3901699654704913
5.452425956726074,-2.6876051455437,-0.0269681427184551,0.1135178299815826,-0.0177242313526323,-0.7050806856917655,-0.0143186295166161,0.7087609294650448,0.1140180666078851,0.0293375506652256,0.0004546109660388,0.0061906389618866,0.0768086815584887,-0.001498538707152,-1.3842254053938785,-0.5868995153240871,-0.0723309385111149,0.08688547221745,-0.0012026912520993,0.0013553130281596,-0.0166527626858268,0.0223802639135657,0.0086602025838384,0.7239985167397402,1.5637051458702889,-2.3722745253419624
5.563532114028931,-2.674233346476897,-0.0227090899776,0.1136702557263296,-0.0199529838765601,-0.7031990222004828,-0.0151638544221927,0.7105512445487441,0.0992338155352889,0.0323287720414147,-0.000974191611075,-0.1891010963661331,-0.0271759476496887,-0.0106483586131482,-0.8687445007086071,-0.6477667930103268,-0.0222205497266806,-0.039076418494901,0.0464246895859794,0.0185655573122241,-0.049205410046516,-0.013318169791209,-0.0061487953139406,0.552514057865819,1.5583873040821006,-2.539409825461226
5.675944089889526,-2.665480064323992,-0.0197578494392663,0.1132939173643367,-0.0200044866696912,-0.7043121431988763,-0.0160251410807764,0.7094275299909281,0.0716033345038784,0.0231211186165181,-0.0019196808598075,-0.1856542274635532,-0.0672220124372695,-0.0063072699932595,0.2400313365020968,-0.1038005586357286,-0.0048099795458461,-0.0115253478755821,-0.0278390308345174,-0.0109422775997215,0.0205761684793815,-0.0081817576964311,-0.0023128388731804,0.6356499982642542,1.5616308843740756,-2.45498301822886
5.781304359436035,-2.6585545472690737,-0.0176311564556567,0.113232692229918,-0.0204187104304067,-0.7031746596446263,-0.0154588014038825,0.7105557682245487,0.0579818694877776,0.0174890314808341,-0.0023764781685697,-0.1396891274824539,-0.0532294682174043,-0.0111025712494653,0.0663120201077628,0.0629424676273514,0.1653102884810489,0.0020759184638619,0.030061174193117,0.0139398795658632,0.0033060367027498,0.0097562686518731,0.0086224380184468,0.5662950845869773,1.5582199597714046,-2.5245526576066553
5.88886570930481,-2.6531689434467833,-0.0160460484176257,0.112779927696541,-0.020851732391912,-0.7034817083202654,-0.01539461259801,0.710240591080244,0.041814218634375,0.0117884195174778,-0.0043137588813306,-0.1731805729638232,-0.0541309661918033,0.0298286382130397,-0.2462569655052597,-0.0200422844711866,0.3298597563569974,-0.0049132744700823,-0.0083264935307711,0.006302598437172,-0.0030285077428927,-0.0202908424508924,-0.0037430769643198,0.6536033585367799,1.558511083473802,-2.436722641208714
5.995731592178345,-2.6495769938644513,-0.0150993105621471,0.1123078495916196,-0.0212540546629616,-0.7038703300602752,-0.0152876126506966,0.7098458371510433,0.020878945731841,0.005883448007472,0.0039532676101052,-0.1925836031525863,-0.0575109125141131,0.0596986060719403,0.5966685881821969,0.1460932633728075,-0.1526365825911878,-0.0039810970219236,-0.0105205107086678,0.0064537256372235,0.0140904936485957,-0.0174737402553837,-0.0221753242503528,0.7587968705544398,1.5588543032899234,-2.3311113878362715
6.09574031829834,-2.6486806003999317,-0.0147894123760094,0.1134866424036165,-0.0191219746820731,-0.7054611825853522,-0.015773133704356,0.7083149569243045,0.0019295075176337,-7.919439124508265e-05,0.0082707951685089,-0.0600755023828496,-0.0262671068984591,0.003988441373143,1.6537459073753862,0.4285824784357709,-0.4358733747527909,0.0232677128271091,-0.0432739740415386,-0.0380480500635336,0.0024360411650717,-0.0063038665710786,-0.036884307133721,0.8403679157312441,1.5645739757388883,-2.251870354462194
6.195981979370117,-2.649193889816501,-0.0151166514844914,0.113962439571648,-0.0167283660860958,-0.7063429958307145,-0.0181091316075598,0.7074403108117328,0.0089091579831386,0.0006390064546663,0.0047336790693535,0.1387330024406831,0.0283670786550402,-0.0275286862861565,1.1634074964535892,0.3152003308043076,-0.1354694973426777,0.0008909853082197,-0.023128243850825,-0.0673148886302185,-0.0136476882964789,0.033392408360056,0.0268638657014184,-0.9239226459214378,1.568302087349551,2.266942691885153
6.2995522022247314,-2.6467698601820926,-0.0146327576884444,0.1144513356767218,-0.0174273848708436,-0.7054635472358785,-0.0177023797205864,0.7083107337391996,0.0306726189307511,0.0058458436618945,0.0027126197833511,0.1714920787528647,0.0364190952228547,-0.0224108355306867,-0.0451123934254386,-0.0102120306180857,0.0648567162886575,-0.0040276637658488,0.0235108426785733,0.0156796813393031,-0.0038960729426723,0.0064988666618081,0.0339039048789492,-0.1211292053742465,1.5667510568880307,3.070149650095513
6.401215076446533,-2.642926322870627,-0.0139213270103434,0.114526747597643,-0.0177026458195856,-0.7058215069777167,-0.0179231284462223,0.7079416487856832,0.0442510523412398,0.0081657738597445,0.0001451830489498,0.1308404234616988,0.0266036700343465,-0.0142763072279428,-0.238757214098071,-0.1061602623786985,0.100413717794215,-0.006901160577125,-0.0101305105272088,0.00049292112768,-0.0042006747132927,-0.0153011800410721,-0.0089851480056096,-0.128815724251176,1.5677818227510758,3.0631647700120124
6.5073912143707275,-2.6375133037966543,-0.0129248158387337,0.1144760056037003,-0.0180906800256414,-0.7060781468561357,-0.0184682711294331,0.707661854835984,0.0578412392033449,0.0114100371785351,-0.0001532599741632,0.1233555601109721,0.0142661669426986,-0.0013527284585215,-0.1653241376581487,-0.1948232669560067,0.0619124517947169,-0.0124290131924344,-0.0070915174035709,-0.002290614671916,6.745910753982011e-05,0.001206412764388,-0.0027222259577807,-0.259906536600573,1.5684938467503171,2.933394076118446
6.611255168914795,-2.630808720174674,-0.0115340222231664,0.1144930719322708,-0.0181651772381995,-0.7063598127175548,-0.0188910921943065,0.7073676328114201,0.0701818938729559,0.0112367484600295,-0.0001456135372009,0.0965494771782282,-0.0139573959258558,-0.0009986573121559,-0.3339107082217944,-0.1840242697067775,0.0018079796284326,-0.0067662423620453,-0.0077176849984327,-0.0049515307878815,-0.0024282166944541,0.006464576065422,0.0013026688987768,-0.6504146838405427,1.569039822162615,2.5435894674131014
6.715847015380859,-2.6228752556694523,-0.0105855968679452,0.1144451988482976,-0.0188104585045862,-0.7061261669987533,-0.0195235066399557,0.7075668418029324,0.0779350096086481,0.0084825842504246,-0.0003630023575638,0.0536391683049745,-0.0239666230312698,-0.0009781835084028,-0.1677339344503539,-0.0630065059556389,0.004326583736905,-0.0172854465813428,0.0058376347272732,0.0003147231256376,-0.0086797187957974,0.0016214687036703,0.0016642762269329,-0.4867012715754256,1.568523010869981,2.7091104713809107
6.826666593551636,-2.6139939070130147,-0.0097142837163265,0.1144160918671603,-0.0196976551865842,-0.7062765416393122,-0.020526403898625,0.7073642031182763,0.0814735964124366,0.0061044093831958,-0.0003422131241954,0.0635284353609572,-0.027110407219809,-1.3678499395745718e-05,0.4111805036947812,-0.2949735552499144,-0.0016790287321685,-0.0241256799536403,-0.004474747591092,-0.0016229783340157,-0.0035962236931469,-0.0005076846645806,-0.0001560068492857,-0.6795548345568345,1.5688625054468288,2.5189309282515335
6.941227197647095,-2.604502593580673,-0.0092231597239451,0.1143674654636688,-0.0206838710349178,-0.7060516485941095,-0.0215219852193128,0.7075309541983097,0.0924934635317296,0.0023294445950387,-0.0003676165799796,0.1487605568839954,-0.0924762388343111,-0.0014355962202714,0.1622903730217335,-0.5116844569102862,-0.0077894891801591,-0.0244778939676366,0.0048222653981119,2.7094270662339276e-06,-0.0384626706652592,0.0015655446094997,0.0011045317367144,-0.5453161509262469,1.568391838554357,2.655973504069336
7.0516321659088135,-2.593264760125898,-0.0091742640033462,0.1143329269198531,-0.024654785505766,-0.7059724163789737,-0.0254357699978417,0.7073528896302853,0.1145106168767409,-0.0142138088288145,-0.0006552671982302,0.1047851706465798,-0.1427024014056249,-0.0018037669139243,-1.1342333680642414,-0.0001643766205177,0.0086007161691319,-0.1010510212841589,-0.0013436583720925,0.0005860851394131,0.0404958487712682,-0.0003952036571276,-0.000824920909791,-0.5502716633384656,1.5685532734164933,2.6621745977153903
7.16203236579895,-2.579218178901568,-0.0123615023984486,0.1142227823453961,-0.0223781803733016,-0.7058931233449689,-0.02330311780822,0.7075811474013993,0.1156314732615477,-0.02918005122592,-0.0007659052816499,-0.101677014512845,-0.0925168708990094,0.0004633725368591,-1.2382258660015082,0.3602358533244937,0.0126172173556105,0.0565138035748999,0.0040318580838565,-0.0016471323925158,0.052329328879696,0.0010904781266066,-0.0002246787922095,-0.5335681655373,1.568074218508588,2.6726388990134384
7.270272970199585,-2.567933381444521,-0.0155528872046112,0.1141644774656174,-0.0222441947149457,-0.7058654294944929,-0.0231610724140982,0.7076176622800393,0.0927581621531086,-0.0346258801911517,-0.0005602230351213,-0.1686441275107851,-0.0635366473304789,0.0009887383295043,0.0575734676213393,0.2805072285397867,0.0109661616672691,0.0036076364752332,0.0008372978811207,0.000136727554994,-0.0288114659675427,-0.0017584587614155,0.0006307113491168,-0.5141958685864777,1.5679995475762485,2.691620629471586
7.383984804153442,-2.558759279763512,-0.0201044858060909,0.1140981975603247,-0.02227265974708,-0.7058437376642716,-0.0232217538083383,0.707636415666963,0.0786792694293438,-0.0434305296465115,-0.0005566784563801,-0.0813114620300275,-0.0301143598383958,0.0029659148136049,0.5503888041733096,0.4494801030508213,0.0043405589631762,-0.0011091283601855,0.0005149405610255,-0.0003857096942821,-0.0061698060291859,0.0015473697516083,-0.0017440007530733,-0.5190869627211906,1.567927711526234,2.686855675977167
7.492467164993286,-2.5504308753577507,-0.0251681249196004,0.1140405190454095,-0.0224745572011006,-0.7056857573297384,-0.0236894432808053,0.7077720794561013,0.0742569374611772,-0.0418006033813099,6.879749497390453e-05,-0.0441271037944443,0.0347456487330511,0.0020865059096994,0.1112170865449888,0.3531320188388313,-0.0457342344530344,-0.0087319755831385,0.0039320373843374,-0.0033512739511525,0.0013758002321711,0.007043414766904,-0.0030462985353211,-0.5599592539008642,1.567382035107386,2.646930850297835
7.604091167449951,-2.5424308867845835,-0.0292739806883546,0.1141171679654373,-0.0221352082758401,-0.70511896986918,-0.0238989667417682,0.7083403915307157,0.0689451850014108,-0.0356570853773124,-0.0001208773397526,-0.0583078449350697,0.0460521223454573,-0.0073403305561952,-0.1995363511898957,0.0722780297241844,-0.0389155215071343,0.0016424721041566,0.0146017700948335,-0.0064783067649244,0.0069498308824161,-0.0056867272175702,0.0025763088790574,-0.5334859276628473,1.5656024011561578,2.6732206024468046
7.7123095989227295,-2.53525552832028,-0.0330146165400869,0.1140193614949197,-0.0220154901165024,-0.7054086196282886,-0.023623844613179,0.7080649062866591,0.0615103121426692,-0.0316161249104681,-0.0015070824219021,-0.0875074121195992,0.0508300216761901,-0.0067741991319558,-0.4334079913548706,0.1995624841347583,0.057228151633027,0.0051676861816936,-0.0074414170508031,0.0018013438069623,0.0023735589586594,-0.0160512025489802,0.0057021531366235,-0.5767239137454928,1.566404817146711,2.6294238703728783
7.820430517196655,-2.529122851299944,-0.0361143675608437,0.1137912443396852,-0.0219810973574626,-0.7060804291123418,-0.0231707789635814,0.7074110360926764,0.0500175541744578,-0.0246631811135426,-0.0015875796536246,-0.1520391584832265,0.0891950446158111,0.0050302343804684,-0.3246352177398107,0.1769637836832876,0.0352180327844461,0.0063895900214755,-0.0175006350031269,0.0049259995083225,-0.0054075262783141,0.0037827675612356,-0.0029399439658446,-0.7614726170040182,1.5682721005960365,2.443985336595382
7.929107904434204,-2.524419286535448,-0.0383570823790956,0.1136757596481992,-0.0220415396019184,-0.7060733685203724,-0.02354437920087,0.7074038669715605,0.0284974392561618,-0.0122510203725948,-0.0004100926597049,-0.1575840417664407,0.0889970017217976,0.0007784859441157,0.3205813814722364,-0.1795279393223847,-0.0252788762437925,-0.0056473663749345,0.0001241180716681,-0.004078544124727,-0.0304611066313009,0.0133210282535877,-0.0032906971800331,-0.8783892297413092,1.5679577512036205,2.3276828828173053
8.037626504898071,-2.522928630691313,-0.0387779010743294,0.1137019667797514,-0.0240594809240665,-0.7056516248468517,-0.0257079472054455,0.7076835642991468,0.0157781010969007,-0.0053253879505148,-0.0014153043752488,-0.0825280937287111,0.0502586898968371,-0.0004646293209316,0.6207292107546819,-0.3668215775490698,0.1380523996361569,-0.0545326232411263,0.0091414215040485,-0.0016553948517437,0.0051274342294677,0.0065791077866967,-0.0049639358313233,-0.7167778095576999,1.5670959952339725,2.495211271275533
8.139349460601807,-2.521128954385036,-0.0394576423113469,0.1134000168846897,-0.0233735627259096,-0.7051963474796923,-0.0260629668053743,0.708147237393539,0.0106900070899786,-0.001506013600256,-0.0006236145267253,-0.0261473566390131,0.0120055138558434,0.0278344585474909,1.064376388953682,-0.657671069213754,0.0971489250764758,0.004607502084001,0.0132823336450616,-0.0140064157873737,0.0292895349672693,-0.0072385031553293,0.0363456087604548,-0.7740351824503533,1.565149967270948,2.4374858072453884
8.238011121749878,-2.52074429283904,-0.0391108983041284,0.1135628641523067,-0.0257101100564258,-0.705301665353432,-0.0234343564609316,0.7080532338940512,0.0103946152367822,-0.0027656417509813,0.0040413722128063,0.1276803105347497,-0.0798301857211974,0.020094328155394,1.397049019280277,-0.6614880279861249,-0.2138000428591588,0.0040464466934123,-0.0053355848066101,0.071035822669166,0.0002346940198951,-0.0062020898910599,0.0019927875816667,0.6562759629513633,1.5657465325504414,-2.415801702230843
8.347278356552124,-2.518822424213091,-0.0401730672248833,0.1142937723748862,-0.0251264540850628,-0.7052881372358989,-0.0236275980628609,0.7080812392580439,0.0401591587592609,-0.0196039544385697,0.0029468852393773,0.2607165041516204,-0.1195171963757604,-0.0196459545312415,-0.1097380120704705,0.3004138927366136,-0.1489633414710867,0.0050768901237912,0.0008781538629418,-0.0100208406240402,0.0090550877792221,0.0067732950820773,-0.0372539094168244,0.4580374255799306,1.56631346942303,-2.6145927482967193
8.459185123443604,-2.5117415409476695,-0.0434995871406644,0.1141946441206925,-0.0241007248544947,-0.7049963645754307,-0.0229023073052721,0.7084312001295605,0.0679958976026604,-0.0290149570913766,-0.0003552500996777,0.0963177497967704,-0.0098408127469809,-0.0117051997776582,-1.2934854802583755,0.8294234204228377,0.0886662331174381,0.0221566222518565,0.0082110053575444,-0.0034719961644828,-0.0088065136109443,-0.0013170939768166,0.0048312207493789,0.3024530219274604,1.5656515568103044,-2.772654841944456
8.568527221679688,-2.503802347420818,-0.0465961980040791,0.114212483451951,-0.0245746371343845,-0.7050489838228987,-0.0233970480499316,0.7083463812024174,0.0622422653914096,-0.0221577426401664,0.0002668533294611,-0.026355996918019,0.0647556530073671,-0.0001184383752691,-0.6057539334081362,0.4569071838248565,0.03307238678723,-0.0125361370980975,-0.0017560340906914,-0.0003583991252823,-0.0075073919509471,-0.0066813631732344,0.0031604921996171,0.3090820127398231,1.5658446461550164,-2.7646552079209568
8.678364515304565,-2.498109609194609,-0.0483499904476584,0.114253235809029,-0.0244137396774339,-0.7052546338109158,-0.0230027281519841,0.7081601127575313,0.0622452772172703,-0.014819825234361,-0.0003869745188204,-0.0359386592513362,0.0900801629211945,-0.0045287727595203,-0.8584095401298295,0.4061242892521011,0.0033233672308392,0.0071418383499622,-0.0051517209889243,0.0028489882347514,-0.0136949285716978,0.0065154838522087,-0.0024472665032327,0.418557408603006,1.566228443351842,-2.6559654879364403
8.79578447341919,-2.489493235186797,-0.0499461100504792,0.1141126485858924,-0.0258409049600735,-0.7047373503778273,-0.0248903709220015,0.7085605013325603,0.053510679769543,-0.0013212468214338,-0.0007400034969039,-0.2335344504303418,0.1598046756346051,0.0013189183830443,-1.06587952230566,0.2260380546717306,0.0421342198966256,-0.0399259942414931,0.011274933613726,-0.0052529321317477,-0.0016729430859911,0.0028288641838676,-0.0001395122315964,0.2078046323430155,1.5652249646050205,-2.8620274881363303
8.906547784805298,-2.4856423286164113,-0.0488102266259877,0.1140784638059349,-0.0257915531344125,-0.7047190257258836,-0.0246420914666139,0.7085892024967834,0.0110153330696647,0.0210648187089608,-0.0001419733317374,-0.2871351323709604,0.1464156647568117,0.0051847347524197,0.7337315270317376,-0.8781463927257747,0.0043438843579357,0.0037959521779798,0.0005060073788109,0.0025699637715585,0.1360045337268307,-0.0075414602109199,0.0034758297509619,0.2530371036063572,1.565086760324012,-2.8172161882903084
9.020695924758911,-2.4871790079986917,-0.0451340945485874,0.1140818625985718,-0.016477050322743,-0.7051350895798845,-0.0152309676168886,0.7087178774951876,-0.0104058815833436,0.0312265394796759,0.0004246288738751,-0.060140787562064,-0.0429052711282105,0.0020858816773213,1.4408336775454462,-1.3351335069304495,-0.069349991542835,0.2320830732121682,-0.0038079868081138,0.001698727370176,0.1318738913564825,-0.0046491306077385,0.0010528042866436,0.3122879297595844,1.5654317903073092,-2.7844588956252445
9.126672506332396,-2.487981081498211,-0.0419210758146383,0.1141657129615466,-0.0066099154535565,-0.7056061539095788,-0.0050496949617137,0.7085554072642608,-0.0042326303666317,0.0136992393041144,0.00036253054839,0.0386596671256919,-0.1525767423428407,-0.0094158824561859,0.203765839688699,-0.1218158169424606,-0.155047487947421,0.2675437348909449,-0.0087922538366661,0.0046755723448458,0.0385049539377344,-4.038475819262985e-05,0.0001692644019314,0.4783501935878054,1.566077766847601,-2.6467530481184824
9.235720872879028,-2.4880683385619125,-0.0422919957547479,0.1141571438831373,0.0052528885451341,-0.705740526062552,0.0069227403989177,0.7084171036192265,-0.0022151942981487,-0.001501416426038,-0.0016550541840528,-0.020866626760526,-0.0634080329932957,-0.0315431142100142,-0.3168200815387555,0.6683554588267533,-0.0750025892391821,0.3090929810876371,-0.0038887563244991,0.0020372561740389,0.0301749358415207,0.0039292284261663,0.0041725319730301,0.5664000611924197,1.5663348272400088,-2.5924117875519004
9.34115481376648,-2.4884461419924233,-0.0422566103377182,0.1138219403521978,0.0170134016021085,-0.7055537321775565,0.0196068278846067,0.7081808014035328,-0.0084282905894799,-0.0004408479022027,-0.0063101975954075,-0.030920966508502,-0.0081646325730026,-0.0264119259587329,0.2331488307239039,0.2307173462355113,0.2066442434083392,0.3278936065739863,-0.0009337969843335,0.0130206362909061,0.0979232695762343,0.0170739320222054,0.0005315374030469,0.8048512515227003,1.5655757169547575,-2.38853619308679
9.452142477035522,-2.489947635343905,-0.0423962564537258,0.1127557883257181,0.0366963376928654,-0.7035400303957892,0.0395198531694359,0.7086063686110149,-0.0085878704741553,-0.0034761693912621,-0.0071689263628853,0.0333368306475857,-0.0168188022861131,0.0149800991399127,0.2945542118438528,-0.0236693660927235,0.3356984649623259,0.5049395202401059,0.0302591077199118,0.0031003309801328,0.0095358334673062,-0.006982863668351,0.0051795837912535,0.5623569034791074,1.5625938623886746,-2.6870748735884784
9.566686391830444,-2.4903472749623425,-0.0430566242618049,0.1122227327673074,0.0498617103728825,-0.7032687197102753,0.0544098265612524,0.7070830845730477,-0.0006584852488362,-0.0041579281710854,-0.0027675470498524,0.0334550402261596,-0.0131103910809445,0.0490295358144685,-0.0445929196750196,0.0856646662912631,0.0911407455194577,0.3469652735085988,-0.0148995243210355,0.0233798038734132,-0.1333983086192451,-0.0260016230437733,-0.0037292549580193,0.946716009991284,1.5624016919504835,-2.342474103293538
9.675030708312988,-2.4901285498589556,-0.0433423991905745,0.1121161805052427,0.0592095292738684,-0.7033288823482626,0.0632522586931004,0.7055649273228735,-0.0006996108042045,-0.0063119642630731,0.0036312538597667,0.0239479966654183,0.00163198134736,0.0377808607540201,-0.0590612185692493,0.154770383129963,-0.26310636135117,0.2381429030016157,-0.0217441383676347,-0.0043581789359058,-0.065195220723649,0.015614081628774,-0.0205347519461639,1.152276657639956,1.5642627773444586,-2.1627212175813124
9.781272411346436,-2.490486081065862,-0.0443957821741941,0.112982731464713,0.0679288804865341,-0.7018864265438841,0.0707279102957127,0.7055059703039405,0.0043791097280738,-0.0038973185643838,0.0054283122336402,0.0206618627766434,0.0200232915996394,-0.006766089505862,-0.2257676556208403,0.0372748821569798,-0.2914167453952861,0.2165748320613008,0.0163286389365124,-0.0176897000189147,-0.0605392330202301,0.0100329626228082,-0.0027182821285841,0.7564568781741949,1.564325509542889,-2.581542652142024
9.88745665550232,-2.489199203052321,-0.0441709821257641,0.1132696082952832,0.0726837187117264,-0.7014607200566462,0.0747159661741671,0.7050442962328729,0.0036926231742953,-0.0020581868612119,0.0021966815077945,-0.0239885272576104,0.0095657389350835,-0.0241383092841405,-0.1871204369597025,-0.0481149006171039,0.0217971231841503,0.1170644369611555,-0.0016782131220182,-0.0097947431930741,-0.0504760770571706,-0.0059434652983923,0.0070825827650998,0.6202946508050555,1.5649701623674417,-2.730132801297698
9.990564346313477,-2.4896621457622303,-0.0448012254305204,0.1134455415384852,0.0769953966401127,-0.7008282087428945,0.0787844329747219,0.7047726894874043,-0.0005352337686623,-0.0018482637903034,0.0003381808028842,-0.0199161367920839,0.0096477884542325,-0.0033283968075464,0.2598450779320868,0.0904209250513025,0.2243210376709614,0.1156226779469596,0.0044417083397277,-0.003524534488715,-0.0370900987467987,0.0056509370108785,0.007297602045072,0.5361832568142909,1.5646710287606458,-2.826164354657295
10.098233461380005,-2.489275142110852,-0.0445207910044959,0.113328131687875,0.0784003222851023,-0.700299103057972,0.0806242047934128,0.7049356660882055,-0.0003085970827765,4.63207636152152e-05,0.0016321718472988,0.0328354603964303,0.0294600953445502,0.0233531117150132,0.573797339804655,0.2611659121003563,0.0378895747143573,0.0428842394675579,0.0096236608997388,0.0048004608970699,-0.0540559442528222,-0.0298361391085212,-0.0084894138383934,0.5599139943408854,1.5635239837492467,-2.8070514586144784
10.2062828540802,-2.489731689535878,-0.0447931823294049,0.1137997055895672,0.0797022396928485,-0.7022793379680061,0.0798931680805715,0.70289996880439,0.0065713962858175,0.0045158629764402,0.0053845152497995,0.1039264585306772,0.0660448934561989,0.0046851475013677,0.0936590234291352,-0.0053159782224223,-0.2539060387374477,0.007510789441315,-0.0552305698773146,-0.020503362165502,-0.0214324423931325,-0.0030520934697788,-0.002548782111242,0.4115394156104954,1.5698780280266846,-2.956237084093631
10.31193470954895,-2.487922023382676,-0.0435891133211085,0.1144739721961444,0.0796991253795896,-0.7021473103564708,0.0798976710739087,0.7030316963906164,0.0217097471742953,0.0140431714347455,0.0027758533428026,0.0555263034215627,0.0299548388216626,-0.0305222006156929,-0.758561969702564,-0.4973408185795882,-0.1457804299052646,1.935468129290609e-05,0.0035194739601812,-0.0002971033254141,-0.0177125634268739,0.0293450159173063,0.0086888601036537,0.333932515285768,1.569514485024062,-3.0338459836461027
10.41656756401062,-2.4851757530541874,-0.0418454858609437,0.114390738929081,0.0787727021284315,-0.7021229495919131,0.0787716457674775,0.7032874610561605,0.0184257192640941,0.0109370474510472,-0.0010220103937453,-0.0549781560874547,-0.0382223949721611,-0.0263504470513,-0.6009215393800098,-0.3419858193762708,0.0714543206565625,-0.0279143374124328,0.0034594619572979,-0.0031256419581945,-0.0586552906440932,-0.0010438574029505,-0.0046042688789461,0.1107252991334453,1.5691494580249763,3.029053098956659
10.524584531784058,-2.4840575878542324,-0.0413027419421087,0.1142550838594627,0.0746703492871023,-0.7025129396544086,0.0739673352634378,0.7038669916038751,0.0098563941892351,0.0058564749057858,-0.0027591550189977,-0.0691288722944818,-0.0406390590422804,-0.015110227977086,-0.0071583200534868,-0.0062679695233791,0.076662809420371,-0.1172912266068936,0.0014317591542801,-0.0095056410833065,-0.07526112841651,-0.0033625130111672,-0.0058425330641924,-0.3735864433071246,1.5686386955464084,2.5574117128196137
10.630338430404665,-2.4830665245436028,-0.0405972678077169,0.1138076447780679,0.068588829532084,-0.7032423997355981,0.0667715575335407,0.7044765849778694,0.0036022782421021,0.0022209551613268,-0.0042564898721325,-0.0570630696079344,-0.0396344342629548,-0.0098394684917948,0.1188020628381341,0.0580077038140284,-0.0513680809572969,-0.178436594245453,-0.0032655640650365,-0.0148107080865795,-0.0650999195450514,-0.0001950712202916,-0.0026715338479252,-0.878345684323577,1.5676896582866666,2.0715247441474007
10.738369941711426,-2.4833140360180046,-0.0408484229358629,0.1133449908182536,0.0597252302226922,-0.703977310666753,0.0568031551495878,0.7054234504936056,-0.0023333021581866,-0.0026409947774749,-0.0048428030058533,-0.0437090437624918,-0.0280145137219117,-0.0265579637293612,0.1273464467837979,0.2052307931449428,-0.0734216703680487,-0.2474910656969965,0.0010416167136968,-0.0148487087791571,-0.0434971323199843,0.0001029413828916,-0.0025202506267309,-1.0287439390983384,1.5661854999788216,1.9478652014372064
10.853598594665527,-2.483588085605654,-0.0411915992636872,0.1127181072105997,0.0497455952297181,-0.7048192304520294,0.0452134858280444,0.7061947102885489,-0.0059891181539111,-0.0037808584514308,-0.0105001185532442,-0.0285761404802757,0.0076381514454373,-0.0250218592255785,0.2041933096142023,0.3284218195368403,0.3021573860878502,-0.2654308588854216,-0.0030596812992531,-0.0198512093400414,-0.1529037674558109,-0.0033403383485677,-0.0199881396292444,-1.208937582778925,1.564098260764293,1.7982607782947764
10.959475040435793,-2.484573463314364,-0.0416699863815072,0.1111141605750667,0.0310982615547832,-0.7059045855387054,0.0224848187624208,0.7072666026110099,-0.0087081690859704,-0.0012667489849023,-0.0108072907237811,0.0001315673526384,0.0442600148092822,0.0350674775364895,0.2504745082852393,0.1950903370247445,0.4203728352213718,-0.5532986006086184,-0.0056390599834387,-0.054824988037646,-0.0670797634004162,0.0007252225115652,-0.0015298826882033,-1.3760691830094385,1.5584636505965612,1.689725967429765
11.073038339614868,-2.485489465723968,-0.0414177704758785,0.1104157329502826,0.0159631555166867,-0.7062565958997477,0.0055395178538646,0.7077542738521595,-0.0055490009741152,0.0062583777647159,-0.0022000107672341,0.0260586280648048,0.0480461778392849,0.0648799794478458,0.0972473782339094,-0.1964337163071388,0.0383348283120941,-0.3995903856862541,-0.0016092362761226,-0.0229109747164481,0.1037146055183911,0.0027504816964866,0.0309864512891143,-1.4128863604975426,1.555903555994152,1.698294905780418
11.180202960968018,-2.4858295863280286,-0.0403388007273631,0.110579429989031,0.0025735135789344,-0.7062492627121785,-0.0072791678959474,0.7079211606253242,-0.0029344142639793,0.0095649523283489,0.0036492530097469,0.023226718692616,0.0037592604378096,0.0463171813400214,-0.0542904560502086,-0.4057843578778727,-0.1099976062606961,-0.3458693895718361,-0.0001380965904653,0.0071479145405826,0.0364797982020067,6.261946055707737e-05,0.0231012622465944,-1.406035322792521,1.5566632282473785,1.7422123093939916
11.287981986999512,-2.4861199044085436,-0.0393624650749587,0.1112027313709524,-0.0107747423569515,-0.706071003403068,-0.0188210598910753,0.7078088801259155,-0.0005580085680882,0.0070330158532259,0.0077453880760378,0.014354900901376,-0.0391653788635399,0.0413146007655466,-0.184463351903593,-0.1651656752059582,-0.157469742686637,-0.3266307892822406,-0.0014839973550084,0.0232915497767407,0.0191678172312868,-0.0034568976475442,0.0154463391182431,-1.3790090037756204,1.55915465967274,1.804442199664969
11.39598560333252,-2.485949034606847,-0.0388221088195905,0.112251632615554,-0.0239857044156766,-0.7059069280779529,-0.0290862845905912,0.7073005605285119,0.0001596646010852,0.0011066958399621,0.0125657149169831,-0.0166232017176333,-0.0317758124934342,0.012288008631768,-0.2190394408846345,0.2385466581460509,-0.4426049808115624,-0.3075337551092623,-0.0070518918855537,0.0380405927770688,0.0208549056938228,-0.0022084429018736,0.0168434231168377,-1.3416128846067457,1.56331859186982,1.8750530486817976
11.504889965057371,-2.4860878450270487,-0.0391294625809682,0.1139334980656075,-0.0371556551819672,-0.7055201197863133,-0.0378323075399914,0.7067032859488517,-0.0042058057053786,0.0001823687741627,0.0103522463234587,-0.0330338776388457,0.0128850547433476,-0.0550044444868513,0.0417521877848632,0.2262727920991999,-0.3157898044073625,-0.2849209778945948,-0.0059008831587558,0.0569783960104162,0.0278753739531605,0.0022438486453965,-0.0099612313572039,-0.572550591187245,1.5688687681540758,2.67514086311131
11.62578797340393,-2.486989721919089,-0.0387041590523757,0.1145017529028775,-0.0486859412485133,-0.7049310052176014,-0.0477861841863144,0.7059875619361577,-0.0072531388229588,0.0046086121784994,-0.0009521124503626,-0.0021581218075848,0.0155700726076552,-0.0526352812271084,0.3180731806519393,-0.0710187824316814,0.3321473359025561,-0.2517830072029413,-0.0025641945947606,0.0181181300626609,0.0158505817421425,0.0041040639205924,-0.0392724813349216,0.6371494265569368,1.568833738968372,-2.3679049377532797
11.732012510299684,-2.48774089364232,-0.0381128102552008,0.1138730658706357,-0.0573630693909269,-0.7041933546774628,-0.0580771422254722,0.7053001084992652,-0.0053312969201542,0.0042987083766575,-0.002728980188393,0.0374796991617623,-0.0006749949011626,0.0118179198191974,0.4511678343119445,-0.2905459034531633,0.335812961111978,-0.2532198144103098,0.002307244682429,-0.021566566659427,0.0353354441618232,0.0024443470019706,-0.0078685082324946,-0.6547099732332331,1.5689336381270984,2.650321713147088
11.845163583755491,-2.4881343846406265,-0.0377792694152633,0.1139487060350193,-0.0646741514974262,-0.7034608044738563,-0.0652021511994948,0.7047757304107749,0.0012463251195509,0.0044926123408932,0.0020487849789334,0.097933102988683,-0.0501371503902527,0.0171580141814848,0.038556629678068,-0.3227026663936931,-0.2476649362651755,-0.1811121188792948,0.0023244994091807,0.0023811135976715,0.0398523279139699,-0.0038152435249859,0.0179117581365858,-0.4738021444187604,1.5687924233157835,2.8517225958123777
11.957103967666626,-2.4874717336565864,-0.0371052822861282,0.1143309055262544,-0.0720963951617491,-0.7029525275048989,-0.0714491815653382,0.7039565812838166,0.0166167483634698,-0.0068618570530862,0.0011935133563604,0.0473523594281211,-0.0735882071101768,-0.0432191950832201,-0.8320257730065075,0.3346483352259172,-0.1006332066637816,-0.1735151585823699,-0.0053232423675429,0.0142569496137446,0.0980528883492111,0.0161704906594346,-0.0120828754820718,0.4708928981525172,1.5691069424278612,-2.4673453745572007
12.064728260040283,-2.484576492577065,-0.0391768280158104,0.1142295601804759,-0.0705708768899347,-0.7017795803171779,-0.071841537262286,0.7052403600962037,0.0124047826554196,-0.0119004876139224,-0.0071394219739003,-0.081531923279799,0.0187332041351161,-0.0086517211419757,-0.4558442764691253,0.5947923998913365,0.5060695436092566,0.0149936578191274,0.03466548072805,-0.0217846373664722,0.0970563005892732,-0.008520701960242,0.0081050973698155,-0.4527518160244993,1.5655825747391954,2.8905850460879856
12.171105861663818,-2.4847811504970885,-0.0396702230654399,0.1128184195862713,-0.0710207640121087,-0.7025810043127635,-0.0698457149076042,0.7045974450472062,-0.0007261402539509,-0.0030154105547515,-0.0008284590655067,-0.0520377958393622,0.0543505028946481,0.0646223318354812,0.4093054523956406,-0.0106989394282882,0.0351058746084622,0.0205974425961765,-0.0223646462880269,0.0304671443533757,0.0235299285948522,-0.0126359845284226,0.0047122746514068,0.4278541257045419,1.567495787875899,-2.5141920656057617
12.274479150772097,-2.4847358962957085,-0.0398189258003111,0.1139821165315576,-0.0682777373679699,-0.7025044594062616,-0.068076533491238,0.7051178771539148,0.0010668561454743,-0.0003276042385054,0.0063837956951834,0.0035380450447043,0.0185358665504261,0.0025841704258196,0.2409595418593657,-0.2787795254483404,-0.5554359992067973,0.0620535150088319,0.0093935116712048,-0.0123600880636585,0.0496024405978358,0.012199621526719,-0.0154079207236485,-0.0197299904188392,1.5670894566351534,-2.968188223226828
12.373654127120972,-2.484570235534834,-0.0397457171168946,0.1141515357856973,-0.0640686257088807,-0.7028265221447783,-0.0639210469774302,0.7055807471317228,0.0001040612276845,0.0008004059343217,0.0002476308668688,-0.000791471057454,-0.0026725482197771,-0.0482479841771866,0.0493790931660058,-0.1770685800817052,-0.1702043102158228,0.1198023237918483,0.002034596765411,-0.0003486970939212,0.0352666360751849,-0.0077867966364535,0.0115206942959717,-0.0370950631194481,1.5668956744375948,-2.9974346329693127
12.47741413116455,-2.4847294739623953,-0.0396559116037631,0.1140186655849507,-0.0596236501244371,-0.7034401600203334,-0.0586735206428371,0.7058146921053579,0.0009898945169766,-0.0010017423136166,-0.0032795861046472,0.0144316419847278,-0.0170524724889558,-0.0287443388000239,0.0227779804806134,0.0196023784789293,0.1880722237986113,0.1325867871592017,-0.0061800816017022,0.0106813005282848,0.0348526749491244,-0.0024059968496695,0.0101133759306113,0.2968746028221201,1.5671793789695552,-2.67722459625375
12.586180210113524,-2.4843339709583327,-0.0399777597066828,0.1134340407603496,-0.053115621030089,-0.7040492256322469,-0.0506487011004278,0.7063484464243275,0.0032315999472292,-0.002820449534831,-0.0058074625999406,0.0027786373897835,0.0031155046691663,-0.008276670850055,-0.1018681118513159,0.2102548669220598,0.1764944102100125,0.1895076736900971,-0.002777396933928,0.0198780547673015,0.0470450606979829,0.0011790620511632,0.0069630210410186,0.7471305149607871,1.5660272321755393,-2.247584821357155
