seq,timestamp,px,py,pz,ox,oy,oz,ow,lx,ly,lz,ax,ay,az,vx,vy,vz,jx,jy,jz,wx,wy,wz,aa_x,aa_y,aa_z,roll,pitch,yaw
2320.0,1.722911118096668e+18,-1.791552424,-0.283787876,0.1741177886724472,-0.011842663,-0.019747542,0.3402728140354156,-0.940044761,0.0,0.0,0.0,3.034001358545995e-22,-2.6611886337987457e-20,3.33858471880795e-19,-3.3926188730731795e-14,3.0445437590968538e-12,1.3132732811363533e-13,1.3754561915643997e-27,-7.177354270287811e-27,-1.1067186535591262e-26,0.0,0.0,0.0,-3.222638551964162e-12,-6.103332288267249e-11,-1.888797884704281e-11,-0.01757997289342547,0.0011826761155596301,0.15374735727090258
2322.0,1.7229111181072202e+18,-1.791552782,-0.283755749,0.1741191744804382,-0.011715136,-0.019451793,0.3403699696063995,-0.940017402,0.0,0.0,0.0,1.4817654015223446e-20,-1.0234962535143094e-19,2.170739780575446e-19,-3.072461340915059e-14,2.763726618654782e-12,3.654308758110786e-12,2.1479415380164236e-27,-4.322558271770792e-27,-1.8252663181728442e-26,-3.222638551964162e-12,-6.103332288267249e-11,-1.888797884704281e-11,-1.942912220736596e-11,6.887266085605516e-12,-1.5144952452409822e-11,-0.017337415378156997,0.0012011009786543506,0.15379788389932775
2324.0,1.7229111181156718e+18,-1.79155302,-0.283734292,0.1741739064455032,-0.011578101,-0.0195639,0.3404864072799682,-0.939974606,0.0,0.0,0.0,3.820016090397094e-20,-1.1955780836633232e-19,1.417114969623071e-20,1.9275586876478698e-13,1.3860369714331506e-12,4.698406639345852e-12,-2.519976712190744e-28,1.2033557193677382e-26,2.3534471922376042e-27,-3.885824441473192e-11,1.3774532171211032e-11,-3.0289904904819645e-11,1.759632474328376e-11,3.648114965260333e-11,1.1123310150587259e-11,-0.017371899836130956,0.0010693304524016342,0.15392643525055563
2326.0,1.722911118129462e+18,-1.791545391,-0.283741117,0.1741987019777298,-0.011813764,-0.01956589,0.3404679894447326,-0.939978302,0.0,0.0,0.0,-3.319761577487525e-20,3.629698131524416e-19,6.397794679040617e-19,9.841056028758204e-13,7.150233723286257e-13,2.432940368218444e-12,-6.845716543816724e-28,6.2910237811019114e-27,2.1123036148228452e-26,3.197001093460336e-11,1.1928976422534169e-11,3.358641454131708e-12,2.4442110914087444e-11,1.3495154498614466e-11,1.552204166385645e-11,-0.017455469042029527,0.001227711980047959,0.15394662772965767
2328.0,1.72291111814085e+18,-1.791530132,-0.283721596,0.1742323786020279,-0.011946536,-0.019764584,0.340462327,-0.939974546,0.0,0.0,0.0,1.2577514351301779e-21,1.6471801037146753e-19,6.5234237318918665e-19,-2.4579181019950504e-13,8.719480357953008e-12,1.7280142586286446e-11,1.495281500462003e-26,-7.65122308739935e-26,-1.2521199351937796e-25,1.0025977413442962e-11,4.0764841168439964e-11,7.541784228932571e-13,-2.5702331987048472e-11,-1.6947685596939004e-11,-2.0073563853992267e-11,-0.01763812680744209,0.0012474302510166943,0.15398751240936617
2330.0,1.7229111181441981e+18,-1.791532516,-0.283685505,0.1743043363094329,-0.011902215,-0.019741829,0.3405199944972992,-0.939954638,0.0,0.0,0.0,6.306463304895526e-20,-1.4964513966983714e-19,1.0875601866166057e-19,-1.340235492659498e-13,8.74119891100647e-12,1.8823045992564583e-11,1.4864606869044194e-26,-7.610865387661655e-26,-1.4112313445352018e-25,-1.943465303949359e-11,-2.1966394771343842e-11,-3.6788486253852826e-11,2.311522688074183e-12,1.1510298724059245e-11,-3.0860233618459204e-12,-0.01761108854519401,0.0012237118752648146,0.1540876882716102
2332.0,1.722911118155865e+18,-1.791510582,-0.283666372,0.1744154691696167,-0.012108618,-0.020062853,0.3405469357967376,-0.939935446,0.0,0.0,0.0,9.033944549559341e-20,-3.147430678152107e-19,-6.74743204644183e-19,1.8084819985604544e-12,6.479701978320794e-13,5.779510342619082e-12,-4.724310518540816e-27,1.5891890725593634e-26,8.471630668100786e-27,1.4649022789591328e-11,6.378543861655845e-11,-5.4178683007985836e-12,1.794206289484422e-11,-1.3469086568085882e-11,9.759939031567872e-12,-0.017906300875287887,0.0012485619999130018,0.1542285386787579
2334.0,1.7229111181642788e+18,-1.7914958,-0.283666939,0.1744413673877716,-0.012102143,-0.019846791,0.3406191170215606,-0.939914048,0.0,0.0,0.0,7.740601001980738e-21,1.2540174220653469e-21,-1.4459087097539656e-19,2.106480429282068e-12,2.9910676118677573e-13,2.7918724163008663e-12,-5.1516627387026485e-27,2.5940001098183037e-26,5.424095031108533e-26,1.6449472750194852e-11,-4.8904567907515605e-11,-1.7268608190717082e-11,-3.1190468510680104e-11,-4.036774379707976e-11,5.762672770502218e-12,-0.017759949550421608,0.00132024018839594,0.15429209678006672
2336.0,1.7229111181744182e+18,-1.79147017,-0.283659428,0.1744661778211593,-0.01184604,-0.019848071,0.3405862152576446,-0.939929128,0.0,0.0,0.0,1.2514116134041453e-20,1.2231563689090263e-19,2.982222685462212e-19,1.8467711141049926e-12,8.337918250007424e-13,3.897932759252466e-12,-8.696791313318781e-28,4.417366721543749e-27,2.2597537194098578e-26,-4.773191423176888e-11,-1.695004897760108e-11,6.1074772402058525e-12,-3.767723770135629e-12,5.314490209017278e-11,6.2171218503479174e-12,-0.01767046973301535,0.001143561939041118,0.1542772453026485
2338.0,1.7229111181897948e+18,-1.791457653,-0.283644438,0.1745599508285522,-0.012059983,-0.02023986,0.3406172394752502,-0.939906776,0.0,0.0,0.0,-3.2117081337547274e-20,1.4825440125944056e-20,1.5424696127009452e-19,2.928305413273813e-12,4.337186437989574e-12,1.2894080963224859e-11,-7.98297523472053e-27,-2.5039997111307235e-26,-5.851014193575169e-26,8.914025209923594e-12,5.738523627282995e-11,-4.834364490021247e-12,-1.2844208252406471e-11,3.991021909303153e-11,-4.189899704633596e-11,-0.018016524882588297,0.001149538555577474,0.15440974663813575
2340.0,1.7229111181955082e+18,-1.791436434,-0.28361252,0.1746480464935302,-0.011919531,-0.020482788,0.3408194482326507,-0.939830124,0.0,0.0,0.0,-8.851233518874127e-20,-1.6655554072996576e-19,-2.843791692959456e-19,2.5273096241669744e-12,3.9696847738977076e-12,1.2860799872894746e-11,-1.0466725631375746e-26,-2.335064748247118e-26,-5.096465175061206e-26,-7.342033073658182e-11,6.287038920846198e-11,-7.769051685246607e-11,-8.30003713269913e-12,-1.6647065128067858e-11,-1.1135707989673694e-11,-0.01814370138458269,0.0009702582875754106,0.15463474392239832
2342.0,1.7229111182056369e+18,-1.791432142,-0.283601344,0.1747323721647262,-0.011921717,-0.020612352,0.3409461677074432,-0.939781189,0.0,0.0,0.0,-2.0522846338796795e-19,-2.5230994482450394e-19,-3.3719917405318894e-19,1.3017171394731596e-12,4.47021096024129e-13,4.978738051061446e-12,-5.751911018977118e-27,1.0609694838468006e-26,3.523608906528396e-26,-7.686049055474668e-12,2.4091106016694233e-11,-2.7105780469368637e-11,3.8933152315921006e-11,1.7468761621578856e-11,4.240331402656289e-11,-0.018240288109855528,0.0009260372579297742,0.15480478624718547
2344.0,1.72291111821442e+18,-1.791414022,-0.283602417,0.1747506111860275,-0.012087156,-0.021008985,0.3409120738506317,-0.939782739,0.0,0.0,0.0,-2.117907981503743e-19,-1.3833371208848227e-20,2.8037066830585373e-19,-1.142315996758358e-12,-1.0418191576713009e-12,5.375849518490469e-12,1.0056520358074234e-26,2.1042381398562534e-26,4.1575776282692544e-26,4.445973895260194e-12,9.78079124516197e-11,7.116111200659716e-12,-3.173235100359809e-11,-1.6296106986499116e-10,9.109333236168939e-12,-0.01856859443341846,0.000898649020489714,0.1548236651237377
2346.0,1.722911118225026e+18,-1.79146719,-0.283625245,0.1748498827219009,-0.011185884,-0.019633921,0.3409673273563385,-0.9398036,0.0,0.0,0.0,3.323669970263374e-20,1.310986407049683e-19,3.532718500436966e-19,-2.537218947764529e-12,8.053032822628773e-13,1.1361245675828392e-11,1.4772197637043664e-26,-4.41941349132347e-27,-9.663904404222399e-27,-7.115075106267084e-11,-3.018310337132881e-10,-8.88711399703076e-12,-2.697431444063115e-11,-3.092254551821636e-12,-1.3098783990244259e-11,-0.017316707134117648,0.0007620644485144221,0.15483982443076483
2348.0,1.7229111182346176e+18,-1.791470051,-0.283591866,0.1749762147665023,-0.011110795,-0.020128842,0.3410436809062958,-0.939766228,0.0,0.0,0.0,1.0266694672230714e-19,-6.815578580395248e-20,1.1713318362396113e-19,-7.893235398811999e-13,1.6892520510654562e-12,1.2918883218809538e-11,3.2786478105693236e-27,-1.3540619099343823e-26,-1.657742820403381e-26,-4.950265498600211e-11,9.162340334797642e-11,-1.90814567798288e-11,-1.606647024713363e-12,1.2782051885262048e-10,-1.5166462396992437e-11,-0.017634696226379892,0.0005343957130398943,0.15502233499394452
2350.0,1.7229111182458772e+18,-1.791485429,-0.283596516,0.1751183420419693,-0.010624224,-0.020029694,0.3412455916404724,-0.939700663,0.0,0.0,0.0,8.724016642946507e-20,-1.2500931803417649e-19,3.677530186382952e-20,-6.850192276313417e-13,-1.1971758002962966e-12,1.3639473786674732e-11,-1.424094635319297e-27,6.267731049014051e-27,-2.1392352329145533e-26,-7.436404511209757e-11,-4.618999600804713e-11,-3.9220038791015634e-11,-1.4896385471257095e-11,-9.858595305713719e-11,-8.6193507347509e-15,-0.017407222753157568,0.0002358056016111524,0.15526152906900934
2352.0,1.7229111182550607e+18,-1.791486621,-0.283613384,0.1752512156963348,-0.010114932,-0.019699445,0.3413258194923401,-0.939684212,0.0,0.0,0.0,7.375754032414137e-20,1.731670177473179e-20,-2.6645731629614844e-19,7.002063431268588e-13,-1.36142460423639e-12,1.3773300155979651e-11,-3.580304162327054e-27,1.1817442370038921e-26,-2.1035389370837686e-26,-7.92954259285163e-11,-1.0554850276629795e-10,-1.9098695481298303e-11,4.594325146516439e-11,4.855089367890696e-11,5.410777850713922e-12,-0.017008209024861175,2.7153843242065296e-07,0.15539497744178227
2354.0,1.7229111182640978e+18,-1.791472912,-0.28362146,0.1753695011138916,-0.010265324,-0.019889887,0.3414455950260162,-0.939634979,0.0,0.0,0.0,2.2618722736177356e-20,9.138023002230177e-20,-3.499826193809721e-19,6.812776084396514e-13,-8.918832602613333e-13,8.866123876260452e-12,6.749136460319956e-27,-3.2178815888204127e-27,1.2386494678423639e-26,1.7522457818231208e-11,5.091179134976678e-11,-2.839848308958779e-11,5.849339368740497e-11,9.097474796426233e-11,8.804399065823984e-12,-0.017198616339117574,3.3940201832848385e-05,0.1555995707584279
2356.0,1.7229111182751857e+18,-1.791476727,-0.283631325,0.1754103600978851,-0.010606127,-0.020216616,0.3414531350135803,-0.939621508,0.0,0.0,0.0,2.662508312180008e-19,-9.956838266880619e-20,8.160046725170304e-20,1.26827290358705e-12,6.576415714716358e-13,7.611469432515916e-12,7.572241774266275e-27,-1.6556244365289192e-26,5.276238349663806e-27,3.769136144629364e-11,7.64009931622267e-11,-1.4898973496503355e-12,4.3665195011515105e-12,1.2432121469456767e-10,-3.463200154425787e-12,-0.017543392096636728,0.00015058284453211112,0.15567189159796962
2358.0,1.7229111182893627e+18,-1.79142952,-0.283593953,0.1755894422531128,-0.011500955,-0.022150863,0.3416688740253448,-0.939488947,0.0,0.0,0.0,1.125653221861611e-19,-3.2222959912687146e-19,-4.535235155095913e-19,8.909561767680241e-12,-5.092017620510674e-12,1.2298631420349293e-11,-6.669581508520937e-26,5.939032330423178e-26,-7.753137000351273e-27,2.625549682053423e-11,2.9955422073890214e-10,-3.5324883398439364e-11,1.3382459487609566e-11,2.0682378783748337e-10,3.6316373572750536e-12,-0.019196974643685638,8.012133102781607e-05,0.15611897030866254
2360.0,1.7229111182943327e+18,-1.791375518,-0.283632725,0.1756499856710434,-0.012067819,-0.023240035,0.3416447043418884,-0.93946439,0.0,0.0,0.0,-3.162290324297057e-19,1.0377989130769599e-19,-4.397999216140607e-19,8.726044725214623e-12,-6.548303242452068e-12,8.678412975043338e-12,-6.408282891737738e-26,7.052116044586659e-26,1.5490894965971067e-26,6.445628042151277e-11,4.900485688371935e-10,5.773377364899772e-12,1.287940841928073e-11,-1.6242824537648256e-10,3.4413171555553856e-11,-0.020143999604078366,8.158927921427432e-05,0.15623962174957956
2362.0,1.7229111183115845e+18,-1.791353106,-0.283670664,0.1755899041891098,-0.012421477,-0.022878213,0.3413861989974975,-0.939562559,0.0,0.0,0.0,-9.26960510741136e-20,4.1043309498514675e-19,5.897547269497677e-19,-1.3455520537213247e-11,1.9004101877188483e-11,1.8374772437442937e-11,1.2650732800537491e-25,-1.399338831603039e-25,-9.020861784156678e-26,5.201431365909569e-11,-2.5302270014062992e-11,3.350145971266835e-11,2.4618325606231188e-11,-3.837890611302718e-10,2.1258568186699815e-11,-0.02000723593032491,0.0004466751954069275,0.15600356108024901
2364.0,1.7229111183138944e+18,-1.79138875,-0.283620209,0.1756391078233719,-0.012436701,-0.022531534,0.3413407802581787,-0.939587295,0.0,0.0,0.0,2.3464009956385134e-19,3.842587070369075e-20,3.3502657953332717e-19,-1.3300654692104834e-11,1.962101198817506e-11,1.9745608882383604e-11,1.226962908588616e-25,-1.4538523733057747e-25,-1.0668637459972103e-25,1.1369293163397515e-10,-2.7752955342335023e-10,4.8290513738299404e-11,-5.3888180178265594e-11,2.820609847491807e-11,-4.849368438273635e-11,-0.019774225149048048,0.0005754694188139629,0.15599720053014957
2366.0,1.7229111183272617e+18,-1.791401744,-0.283529818,0.17578271,-0.012147933,-0.022859387,0.3417283892631531,-0.939442158,0.0,0.0,0.0,4.038614221189549e-19,-6.932200784211174e-19,-8.133028957645101e-19,2.80042120022815e-12,2.4472982824596445e-12,4.232185919254302e-12,-3.9829614525165487e-26,2.4782336230848063e-26,2.0135680302303206e-26,-5.57620466974355e-11,3.110992693577315e-11,-6.348590905280436e-11,-6.98052295091981e-11,1.9942020693394618e-10,-4.146080922846784e-11,-0.019918260576801246,0.00026601716547332223,0.15640162102965388
2368.0,1.7229111183339133e+18,-1.79137063,-0.283527821,0.1757893115282058,-0.012202195,-0.023269266,0.3418296873569488,-0.939394534,0.0,0.0,0.0,-3.480441998853253e-20,-2.6518544022626345e-19,-3.2838037662385373e-19,2.8366895435264815e-12,-2.05832569526327e-13,-2.826338094746945e-14,-4.1141215529006194e-26,4.9912710185071926e-26,6.526943004284902e-26,-2.591752738442105e-11,1.2131086044454214e-10,-3.463110471863628e-11,2.4041739121105928e-11,-4.735901401982086e-11,3.564119272260391e-11,-0.020223451679368742,0.00016116850472140624,0.1565041510814886
2370.0,1.7229111183476946e+18,-1.791384101,-0.283545107,0.1757597774267196,-0.012003917,-0.022874959,0.3417833149433136,-0.93942368,0.0,0.0,0.0,1.0653273475474411e-19,1.0445093936915709e-20,3.5316551721796394e-19,1.2075947079708925e-12,-4.3409447504999715e-14,4.358411770209031e-12,6.368728447185762e-28,2.818078228582601e-27,-7.96570477991511e-27,-7.678568455223648e-12,-6.360810110386857e-11,7.796476392403466e-12,2.669755224815787e-11,1.3752233288242388e-11,1.1225007461242548e-11,-0.01988008854896513,0.00016448168489977243,0.15641371801363177
2372.0,1.7229111183572995e+18,-1.791357875,-0.283537418,0.1758451610803604,-0.012370805,-0.023501936,0.3418326079845428,-0.939385474,0.0,0.0,0.0,4.825977626044089e-20,-7.750830717979298e-20,-1.0772265326206036e-19,3.735289914121837e-12,4.793936032772832e-14,7.983862227965937e-12,-1.5061545563360462e-26,-3.371317394733725e-27,-4.533366165353235e-26,2.7477577111894695e-11,1.488153270210269e-10,-1.2181089796151183e-11,2.1836028507972726e-11,9.761317992290298e-11,-6.0815279831523996e-12,-0.02044414548347471,0.00019208562997702876,0.15657667464920647
2374.0,1.7229111183647237e+18,-1.791324377,-0.283541381,0.1758992373943328,-0.012662951,-0.023915431,0.3418449163436889,-0.939366758,0.0,0.0,0.0,-1.1517797880392955e-19,-6.933445430262605e-20,-4.290768216843593e-19,2.860284391145083e-12,-1.0268793335928e-12,4.399777601733699e-12,-1.092175453340274e-26,4.4163920347097725e-27,-1.5270860538924733e-26,3.599348856072181e-11,1.3161825874193737e-10,-4.366579573901334e-12,-2.7311750168969795e-12,-8.453829336393069e-11,1.4462738010824343e-11,-0.02083304580437726,0.00024411870322955899,0.15667148440539475
2376.0,1.7229111183789379e+18,-1.791328669,-0.283569396,0.1758832931518554,-0.012763548,-0.023725169,0.3417386710643768,-0.939408839,0.0,0.0,0.0,3.144096128699497e-20,8.366597449477899e-20,1.1621349684947185e-19,1.2960525107913245e-12,4.0508816505888605e-14,-2.38441569190646e-13,4.6532909524909845e-27,-1.4025402132859128e-27,2.2428146682433712e-26,2.2015227078100735e-11,-2.026125970683446e-11,1.6744386225497504e-11,-6.570855097227409e-11,-1.330172679416025e-10,-5.354265804e-12,-0.020732533423066118,0.0003778741635568479,0.15657697935733653
2378.0,1.7229111183855877e+18,-1.791315079,-0.283562869,0.1758844554424286,-0.012311573,-0.023414386,0.3417838811874389,-0.939406216,0.0,0.0,0.0,4.47709369205006e-20,3.648898484074467e-20,2.1578519229033632e-19,1.9453049797858265e-12,6.235450640638117e-13,1.9110643707406865e-12,-2.829551963487142e-27,-3.9690941636085725e-27,-2.5064810558722906e-27,-9.542361338382639e-11,-1.3441627714126761e-10,-1.5075111181901333e-11,-2.539708226441548e-11,1.7738786728705005e-11,-9.615584467059589e-12,-0.020361836271989314,0.00017934134562868384,0.15656771103936962
2380.0,1.7229111183946719e+18,-1.791298628,-0.283561647,0.1759233623743057,-0.012212134,-0.023524126,0.3417905569076538,-0.939402282,0.0,0.0,0.0,-4.0922384732149294e-20,3.9217320223988866e-20,-2.3903561691431342e-20,1.6960017836243994e-12,3.198006699743098e-13,2.5378097527754e-12,-3.259518845513362e-27,2.2173554349633017e-27,-1.4065508649975284e-26,-2.877893745073022e-11,1.521631375057555e-11,-2.486782708621673e-12,5.98606919135343e-11,8.728836702529478e-11,1.1703555336447799e-11,-0.020403287317823864,7.109747616803255e-05,0.15660600516491965
2382.0,1.7229111184053652e+18,-1.791281939,-0.283555895,0.175928533,-0.012408614,-0.023680894,0.3417491614818573,-0.939410925,0.0,0.0,0.0,1.9353995395926657e-21,8.705907009425556e-20,-1.923337911033676e-20,1.0887386013110119e-12,1.6537101927108246e-12,1.112847248216486e-12,4.617849458535775e-27,-3.0735045338645814e-27,-4.677823568134507e-27,2.429777044324223e-11,4.016045690932194e-11,8.331999490994264e-12,1.1939310576531076e-11,5.843488412775562e-12,5.3050876513069375e-12,-0.020578425925710315,0.00014897697675813446,0.15660027473090274
2384.0,1.722911118415197e+18,-1.791275501,-0.28352955,0.1759451627731323,-0.012432126,-0.023812868,0.3417094051837921,-0.939421654,0.0,0.0,0.0,5.2850374746183264e-20,-1.1383366533504338e-20,-1.114569029011466e-19,1.6385989314112492e-12,2.1690182603477493e-12,1.9544544018517114e-12,-3.537139153133824e-28,-4.912266055290565e-27,-4.5551566797680276e-27,-4.9003162976680685e-12,2.6903290576126674e-11,8.123392593992202e-12,2.4715490846963765e-12,1.1149767450186695e-11,-1.7790746137137972e-11,-0.020675804060980255,0.0001168308888154667,0.15659411781539503
2386.0,1.7229111184254766e+18,-1.791248083,-0.283512741,0.1759680807590484,-0.012679679,-0.024064837,0.341840535,-0.939364195,0.0,0.0,0.0,-1.0248217709963567e-20,-7.059099670659465e-21,-1.0642200046680411e-19,2.1488116821163513e-12,1.366311305494771e-12,-1.3092897871935286e-12,-8.87362198850011e-27,2.019021322958375e-27,1.652185267796178e-26,2.924086861263498e-11,6.245999180969533e-11,-2.7249492783281682e-11,2.902941140505843e-13,-2.7854161991884374e-11,4.5171222096503896e-12,-0.020943044234801606,0.00019957014596261156,0.15673706816689106
2388.0,1.722911118434195e+18,-1.791233182,-0.283502817,0.1759305000305175,-0.012620867,-0.023952374,0.3417714238166809,-0.939393044,0.0,0.0,0.0,-1.0783762631195941e-19,2.2361900385632625e-20,1.561643492049669e-19,1.616693228399263e-12,1.829956130571528e-12,-6.764114742529606e-13,-6.784070261465461e-27,3.656092028303005e-27,2.5488521534988758e-26,-4.3197280695669e-12,-2.8805033407642077e-11,1.715763701329298e-11,-1.9441434363607142e-11,-7.143095503976329e-12,-2.3566119897920253e-12,-0.02084080411339505,0.00019899710061936738,0.15664486346255113
2390.0,1.7229111184463764e+18,-1.791215062,-0.283468753,0.175984114408493,-0.012661316,-0.024250532,0.3419491648674011,-0.939320147,0.0,0.0,0.0,-1.154264185792727e-19,7.168948813267365e-20,3.878429268597919e-19,-4.935379636628119e-13,1.5778159317600184e-12,2.648341055421079e-12,7.813332304433016e-27,2.7844295786801618e-27,3.698651307571227e-27,-9.642000114579305e-12,4.817380080174267e-11,-3.196271676286573e-11,3.7924070450291024e-12,-1.6430096018443516e-11,-4.4654746414101165e-12,-0.021069702583761174,0.00012363606904986844,0.156838240924
2392.0,1.7229111184577057e+18,-1.791241527,-0.283463717,0.175995647907257,-0.012560373,-0.023915503,0.3419102728366852,-0.939344347,0.0,0.0,0.0,6.198368162362483e-20,8.990665273001783e-20,2.683216535300057e-19,-1.1921531498660696e-12,3.3634698563293016e-12,8.253075414569683e-12,1.4094311141842042e-26,-1.1279515331166427e-26,-4.198297841211489e-26,3.265086020491304e-12,-6.16652254445291e-11,8.226687730472748e-12,-9.227668432498787e-12,-5.5903686757857285e-12,3.013782631403851e-13,-0.02080241709758427,0.0001709922285284249,0.15679663109154188
2394.0,1.722911118464953e+18,-1.791244864,-0.283425808,0.1760890036821365,-0.012507848,-0.024077661,0.342012882,-0.939303517,0.0,0.0,0.0,1.5687409108774e-19,-5.1588363220795604e-20,-1.816731440417734e-19,-1.6968340883098273e-13,3.701154081772624e-12,9.148118248682469e-12,8.70441532699048e-27,-9.299778343337049e-27,-3.070713570846112e-26,-2.809733697957688e-11,3.6993063450171216e-11,-3.135996023658496e-11,-9.413569170946604e-12,3.783246610914879e-11,-2.3374876730996937e-12,-0.020902465164601324,7.606761129676244e-05,0.15695755464278555
2396.0,1.7229111184784366e+18,-1.791239858,-0.283414274,0.1761187016963958,-0.012442156,-0.024201896,0.3419866561889648,-0.93931067,0.0,0.0,0.0,1.6414689239135265e-19,7.949149885942485e-20,1.915701308450347e-19,2.3416956287412417e-12,5.425826228122876e-13,-9.569449202869856e-13,-1.184378617214091e-26,2.0165876956069325e-26,5.1020798932482265e-26,-1.5562052321401904e-11,1.3999706773768478e-11,3.551712384273361e-12,6.483464793469434e-11,-3.983621829960099e-11,3.6811124978368106e-11,-0.020964025900067174,-1.4710351779989644e-05,0.1569667695534058
2398.0,1.7229111184840832e+18,-1.791221976,-0.28341195,0.1761058270931244,-0.012673199,-0.023989156,0.3418830037117004,-0.939350784,0.0,0.0,0.0,6.798782000017168e-20,2.180574570165438e-19,5.348535152980904e-19,3.2162868449475776e-12,1.7333420506429249e-12,2.349942137754655e-12,-1.6709688661388894e-26,1.2783943179776125e-26,2.653605277704276e-26,1.0157195888981179e-10,-4.267937314903076e-11,4.226228972015125e-11,-2.8299256667464995e-11,-6.844209560396886e-12,-2.3185577853864107e-11,-0.020894341324493252,0.00021624236590553456,0.15688362458286492
2400.0,1.7229111184942538e+18,-1.791188359,-0.283370107,0.1762145459651947,-0.012323813,-0.024118859,0.3420787155628204,-0.939280927,0.0,0.0,0.0,-9.610001403045416e-20,1.3272001977280893e-19,1.7714573761111512e-19,2.3158091618329777e-12,4.082588606321032e-12,6.859308579088316e-12,-6.869448992541201e-27,-1.1432391878483733e-26,-2.4179683856629117e-26,-7.21605656563319e-11,3.1128765297470646e-13,-4.2819443323454854e-11,-6.940101319961132e-11,-1.3990330464380331e-11,-2.9348359375529125e-11,-0.02087196304576039,-6.875933206850445e-05,0.15710566183787852
2402.0,1.7229111185047544e+18,-1.791174769,-0.283327579,0.1762450486421585,-0.012011223,-0.023838324,0.3421595692634582,-0.939262629,0.0,0.0,0.0,-6.779898846611525e-20,-2.0304232585016422e-20,4.240103994677003e-20,1.224708916383279e-12,4.4109255676364345e-12,5.8332119020536344e-12,2.7468850750342826e-27,-1.186895771558388e-26,-6.691825671654981e-27,-3.723006750941085e-11,-7.066003407779142e-11,-1.6434429030907008e-11,2.887460438867565e-11,5.774550573995481e-11,9.623473465364373e-12,-0.02057327790752201,-0.0001832633708662161,0.15715772905777942
2404.0,1.7229111185151718e+18,-1.791162729,-0.283277899,0.1763360798358917,-0.012144173,-0.024432024,0.3422658145427704,-0.939207017,0.0,0.0,0.0,-3.864919776905889e-20,-1.1600318020595367e-19,3.6148329737411727e-20,8.916040522317558e-13,3.66641202850389e-12,7.72303079992057e-12,-9.515803001455498e-29,-6.709088949963131e-28,-1.6724199792561353e-27,-1.4411356878980596e-11,1.1580229913288432e-10,-2.357249639272611e-11,2.0123962670129365e-11,7.78247290267913e-11,2.566871248696977e-12,-0.02103562428048232,-0.0003034241463020572,0.15735250304241633
2406.0,1.7229111185267174e+18,-1.791155815,-0.283249676,0.1764122545719146,-0.012326865,-0.024887651,0.342321515,-0.939172387,0.0,0.0,0.0,-7.677094161750683e-20,-1.4784646997278206e-20,3.1193623776928855e-21,3.599831405062777e-13,1.7572174460705789e-12,6.2816242278428256e-12,-7.718881777768532e-28,-1.0822956934619081e-26,-4.3946656696862737e-26,3.017857830847882e-12,8.498942397579119e-11,-1.1300686533513054e-11,2.1406785898443103e-11,-4.0338830690041275e-11,1.1125854540309607e-11,-0.021418147874566876,-0.0003414710504530425,0.1574943865865033
2408.0,1.7229111185345395e+18,-1.791154265,-0.283239573,0.176459714770317,-0.012478087,-0.024978705,0.3423274159431457,-0.939165771,0.0,0.0,0.0,-6.94014367786314e-20,-2.032572104957903e-19,-5.583662563009486e-19,-4.0335312250956847e-13,2.4395386677307687e-12,6.984158727195926e-12,6.584600900817632e-27,-2.2733942943002669e-26,-6.280820877382989e-26,2.840221491790561e-11,3.512463775280178e-11,-1.3207873121068924e-12,-5.7031256410181033e-11,-3.7890554518529975e-11,-2.401469857845009e-12,-0.021535805903123442,-0.00027228776538086146,0.1575544899618228
2410.0,1.7229111185443948e+18,-1.791165709,-0.283201277,0.1765399277210235,-0.011977738,-0.025209622,0.3423876464366913,-0.939144135,0.0,0.0,0.0,6.555290956077442e-20,-4.104061713527524e-19,-1.0659277995182082e-18,-7.37339788735879e-13,-3.1705464337074347e-12,-6.56703109601112e-12,1.3563197162997335e-26,1.8051397694212314e-26,3.9149044626677965e-26,-1.1104465498951418e-10,9.208314938731236e-12,-1.6103626249203072e-11,1.199670369949118e-10,-1.1720680126902512e-10,7.183180694890597e-11,-0.021522237039528387,-0.0006989507015079777,0.15764829917882245
2412.0,1.7229111185550075e+18,-1.79116869,-0.283315569,0.1763021647930145,-0.012971922,-0.023719862,0.3417262434959411,-0.939410686,0.0,0.0,0.0,2.0800437644159757e-19,2.276853184914479e-19,3.855498548983685e-19,1.0948273723311779e-12,-5.710744411865365e-12,-1.4346935805545861e-11,9.466220498037305e-28,3.736293124886814e-26,8.36238162638441e-26,2.683362889077292e-10,-1.992889647852485e-10,1.4234282658570505e-10,1.183673464937215e-10,-1.4656427895350076e-11,3.342976375330491e-11,-0.020812777466319196,0.0005019663346616783,0.1569452617703766
2414.0,1.722911118564595e+18,-1.791146278,-0.283326507,0.1762343943119049,-0.013510773,-0.023420265,0.3415131270885467,-0.939488053,0.0,0.0,0.0,1.0902201945169951e-19,3.887527377708898e-19,7.269997892247456e-19,3.3953717779346273e-12,5.17309669639909e-13,-9.618518774796866e-13,-1.47240210905832e-26,-6.745211821796155e-27,-2.1491809268620677e-26,1.2569003799792883e-10,-2.0104540851968916e-11,5.075590125740675e-11,-1.3279053789942272e-10,1.3314786230236416e-10,-8.552054233267314e-11,-0.020786183334449797,0.000973300393098517,0.15674836596620387
2416.0,1.7229111185763958e+18,-1.791090846,-0.283296317,0.1763117462396621,-0.013657103,-0.023788443,0.3416672348976135,-0.9394207,0.0,0.0,0.0,-1.286426156159419e-19,-3.2842298090936635e-20,-3.5609771432577557e-19,2.7801162798221778e-12,1.3159943041394763e-12,-2.1015137588407716e-12,-4.706173544807679e-26,-2.86939102468607e-26,-4.8479379403239876e-26,2.755213108883723e-12,6.700675981947984e-11,-2.869825807964124e-11,-5.457492243788139e-11,-1.6548264846020882e-11,-1.793705748589448e-11,-0.021099902736932297,0.0009440055263463266,0.1569559516943494
2418.0,1.7229111185857032e+18,-1.791079044,-0.283293188,0.176228642463684,-0.013646469,-0.023528613,0.3416073620319366,-0.939449131,0.0,0.0,0.0,-7.642942710782661e-19,-2.482875310547101e-19,-4.894424492414573e-19,1.0211738295733733e-12,2.7240140007678515e-13,-7.320961238167438e-12,7.302730500932795e-25,-3.4269045636516397e-25,9.304646612008762e-25,1.6540193122166043e-11,-5.320107054401068e-11,1.4881786285617793e-11,-1.1466692606608896e-11,-4.1614682654327647e-11,1.598214903146153e-11,-0.020912791004115392,0.0010306376786540482,0.15682554116425096
2420.0,1.7229111186227507e+18,-1.791077614,-0.283292502,0.1761945188045501,-0.013194093,-0.023373161,0.3415457904338836,-0.939481854,0.0,0.0,0.0,1.4405198642321786e-16,-6.006571924219538e-17,1.7330632649718855e-16,-1.1213268240592352e-10,-2.9005322281290845e-11,-1.4933000141943153e-11,3.34660160654986e-23,2.5128678403408214e-23,-2.2191165646860907e-23,-2.0178172104334068e-11,-1.622260548917545e-11,3.2660399832818144e-12,2.1346812510945387e-10,-4.1708490135265385e-10,1.667472709436308e-10,-0.02064227596774096,0.0007763282127940781,0.15671593820811533
2422.0,1.7229111186229947e+18,-1.791105151,-0.283299625,0.1761908531188964,-0.013208938,-0.023252428,0.341508537530899,-0.939498127,0.0,0.0,0.0,1.522641096762987e-16,-5.389216021173974e-17,1.6784920321587697e-16,-7.675226728522523e-11,-4.3754667264184805e-11,2.7626960774912248e-11,1.425453379683014e-23,3.318170694936048e-23,-4.534304512512225e-23,4.4347644334107376e-10,-8.873708732493184e-10,3.483763281728794e-10,-3.222768499452418e-10,4.1580625650722244e-10,-3.5941556648678837e-10,-0.02056291008890743,0.0008282000393003847,0.15668032643441038
2424.0,1.7229111186231877e+18,-1.79111445,-0.283310294,0.1762026995420456,-0.013173935,-0.023349185,0.3415709137916565,-0.939473629,0.0,0.0,0.0,1.5205191564804142e-16,-4.628434872766353e-17,1.5558823759800497e-16,-4.625544506031768e-11,-5.315472245085375e-11,5.901798666473189e-11,-2.32739906172995e-24,3.829461241875814e-23,-6.239120478016024e-23,-6.647318719948177e-10,8.153899075252694e-10,-7.155650929902949e-10,-1.6519292713768604e-10,4.919081104300447e-10,-1.7312242236195046e-10,-0.020620092813102626,0.0007712872506215699,0.15673879756516818
2426.0,1.722911118627794e+18,-1.791116476,-0.283322304,0.1762157082557678,-0.013494614,-0.023468832,0.3415694236755371,-0.939466596,0.0,0.0,0.0,6.340638104238959e-18,7.086542814602279e-18,-7.675522179498067e-18,8.675386278757154e-13,-9.43891513654451e-13,1.9269938049603467e-12,-1.975007995586414e-23,6.752432134996934e-24,-2.1362893811995205e-23,1.1309058906570167e-10,9.644534761077085e-11,2.13148344897847e-12,3.569791922963658e-10,-4.0695280687451484e-10,3.4985664634448915e-10,-0.02081590569756604,0.0009475414895657076,0.15677449955954623
2428.0,1.7229111186351176e+18,-1.791094899,-0.283309847,0.1762193739414215,-0.013664455,-0.02341315,0.3416281044483185,-0.939444184,0.0,0.0,0.0,7.34875048953068e-20,2.472164487977854e-19,-1.6262386588013395e-19,2.011721835458241e-12,1.4867289920790524e-12,6.614620115499793e-13,-5.455310445005448e-25,-5.984068372414729e-25,6.484519788107244e-25,4.9226512597913816e-11,1.484293776239733e-12,-1.5851800301316617e-11,-6.374203816214564e-11,-4.8376885826927667e-11,-7.488116749247593e-13,-0.020840681495727674,0.0010846226626049901,0.15682737224527432
2430.0,1.7229111186476877e+18,-1.791089773,-0.28329578,0.1762311607599258,-0.0135789,-0.023442179,0.3416222631931305,-0.939446807,0.0,0.0,0.0,-9.110465408751095e-20,-3.723221862626372e-20,-1.5367829880653202e-19,1.1502700384207862e-12,2.767509191638009e-12,-1.1631721247166783e-12,-1.0157750592242596e-26,-1.799680179055778e-26,1.1411914178372076e-26,-1.4393487258589605e-11,-3.0842404308448097e-13,6.338600991289515e-13,-4.888345003500746e-11,-2.8018761290656196e-11,7.743486127364406e-13,-0.02083035794316116,0.0010152244419178458,0.1568298507580315
2432.0,1.7229111186578383e+18,-1.791072011,-0.283254176,0.1762021332979202,-0.01325117,-0.023267215,0.3416884243488312,-0.939431787,0.0,0.0,0.0,-1.701449533347886e-19,-1.8194220541096254e-19,4.9868967284591083e-20,4.047045321572843e-14,1.2492008243230387e-12,-2.79295947313982e-12,3.262800938361246e-27,-5.370672092429009e-28,1.596411378542716e-27,-4.85403874721011e-11,-5.455322880507266e-11,-1.4303103075843736e-11,2.5387486923374252e-11,-4.377081978511665e-12,6.561242122549771e-12,-0.020596669912140018,0.0008560770629195012,0.15682372394966848
2434.0,1.7229111186680556e+18,-1.791089177,-0.283270717,0.1761742830276489,-0.013411587,-0.023159284,0.3416273295879364,-0.939454377,0.0,0.0,0.0,-2.3172607666346627e-20,-4.6338853460670517e-20,-1.2362774210058801e-19,-2.3233424484947707e-12,-9.42588892829873e-13,-1.1934326290093747e-13,2.3404483471296892e-26,1.32691784917903e-26,-3.2576235235368e-26,3.6381486588158897e-11,-9.062588000107811e-12,1.3756344344228494e-11,3.944580804869943e-11,5.464253843977969e-11,4.592276587483752e-12,-0.020575815873800377,0.001003388964792056,0.15675901160544495
2436.0,1.722911118677358e+18,-1.791116238,-0.283273757,0.1761952489614486,-0.013630628,-0.023350533,0.3416495323181152,-0.939438403,0.0,0.0,0.0,2.7094272716322633e-19,7.707377127498388e-20,-5.587579844092119e-19,-7.756509397432782e-13,5.078478983894229e-14,-4.5328244491302355e-12,1.6812482909134315e-26,1.081364231257816e-26,-1.24342072840973e-27,3.035122862529777e-11,5.473184807448672e-11,-5.118549900876231e-12,8.801214903229398e-11,-4.9351371918367e-11,-1.390866622222807e-11,-0.02078610238035044,0.0010852896252214004,0.1568165140521144
2438.0,1.7229111186847035e+18,-1.791109562,-0.283271194,0.1761225908994674,-0.014227055,-0.022712886,0.3417215347290039,-0.939419031,0.0,0.0,0.0,3.0857218651103877e-19,1.422773203173037e-19,-3.038037106843344e-19,1.8210411003826323e-12,4.4459480741616873e-13,-9.1261837152357e-12,-2.9841858371551414e-27,1.2850090167973396e-26,4.3372774720135326e-26,2.1240578465274685e-10,-1.077653318368418e-10,-1.4060988100227645e-11,2.5113028088639845e-11,-4.812954902884708e-11,-7.138721701740103e-12,-0.020561019658375652,0.0017228783326387147,0.15680593089932546
2440.0,1.7229111186951698e+18,-1.791076899,-0.283265114,0.1760384887456894,-0.014546613,-0.022366079,0.3418295085430145,-0.939383149,0.0,0.0,0.0,1.5643689161342843e-19,3.3602507350017616e-19,2.7934842659284876e-19,4.380450701010007e-12,3.255979667699346e-12,-7.510788452099103e-12,-2.4986623901973782e-26,2.6578691981851356e-27,4.029149881159596e-26,8.057728480257746e-11,-4.152724998320745e-11,-1.9395993304356437e-11,-8.252939177619352e-11,2.530438242215516e-11,-1.1438077461840832e-11,-0.020438554920676925,0.0020703431318829014,0.156810210289344
2442.0,1.7229111187056156e+18,-1.791018009,-0.283203214,0.1759655028581619,-0.014672553,-0.022003926,0.3420206010341644,-0.939320266,0.0,0.0,0.0,-2.1352364072364108e-19,1.985077535880972e-19,5.39408484349185e-19,5.0960744946913934e-12,7.46883565684309e-12,-3.2895288959728633e-12,-3.400915922348426e-26,-3.7158154169087415e-26,-2.0796114886686744e-26,4.734700110035979e-11,-5.7156566992531485e-11,-3.693714302390931e-11,-2.8202798190919877e-11,3.4790524735918224e-11,-1.1125061653259208e-11,-0.020240872781506,0.0022927689934105584,0.15687218563653466
2444.0,1.7229111187142874e+18,-1.790977716,-0.283127338,0.1759635955095291,-0.014808627,-0.022084985,0.3421907126903534,-0.939254224,0.0,0.0,0.0,-4.983068235153797e-19,-2.964455219448662e-19,3.01332975264975e-20,1.21411473867593e-12,7.715913398561946e-12,2.3620943788017384e-12,-1.7006032061005763e-26,-1.7795155578332097e-26,-7.01075743357539e-27,2.4171688420737707e-11,2.8053799488628992e-11,-4.1646116610874853e-11,-3.5495223566366115e-11,6.735700897630855e-12,-2.044208737930506e-12,-0.02035208508855273,0.0023624447169670066,0.15700599116059175
2446.0,1.7229111187303078e+18,-1.791059852,-0.283034325,0.1760778576135635,-0.01450374,-0.021825984,0.3425003290176391,-0.939152181,0.0,0.0,0.0,-3.021063943510961e-19,5.810708507945763e-19,1.448485356837923e-18,-8.268096307992068e-12,-6.650401738054425e-12,-1.5552379854526917e-11,4.8528281083636066e-26,9.704383374655317e-26,1.5781681559341823e-25,-2.3643446032372444e-11,-4.3685165197269775e-11,-4.102556049977032e-11,1.536583466560705e-10,-3.0466755036851194e-11,6.835173034959886e-11,-0.02008327515072924,0.0022489283336424126,0.15729920606551237
2448.0,1.7229111187368154e+18,-1.79112196,-0.283110529,0.1759166866540908,-0.015486794,-0.021351596,0.342234731,-0.939244211,0.0,0.0,0.0,1.0959706682120793e-19,1.3243179686634774e-18,2.6586213647278115e-18,-9.468083648633399e-12,1.0373253390152217e-12,6.583898752594466e-13,5.702747611064631e-26,3.301906661858213e-26,3.79405109667367e-26,3.314883817328787e-10,-3.287971058507339e-11,9.505734408832287e-11,-1.0182253637986386e-10,7.806569439443544e-11,-8.941740818866802e-11,-0.02008853994410668,0.003088038419001769,0.1569933320212687
2450.0,1.722911118744313e+18,-1.791192293,-0.282992631,0.1761412620544433,-0.014813146,-0.022051888,0.3429839015007019,-0.938965619,0.0,0.0,0.0,4.832831230583937e-19,8.704782917863723e-19,1.6644096086530624e-18,-6.106627882952584e-12,1.2201655029096956e-11,2.203931186291919e-11,3.105000674346082e-26,-6.500468450303134e-26,-1.2713435642585214e-25,-2.2728851879210015e-10,1.124462235916011e-10,-2.1986037687710638e-10,-2.0509397075260758e-10,4.640774380527287e-11,-8.007208457309418e-11,-0.020371235777759723,0.002392848734617576,0.15773633643728902
2452.0,1.722911118760913e+18,-1.791173339,-0.282919556,0.1762162894010543,-0.014358516,-0.022751015,0.3434692025184631,-0.938778579,0.0,0.0,0.0,3.0814811017674307e-19,-3.730280909846058e-19,-2.450612243283137e-19,3.2003660318557244e-12,3.918712212789166e-12,6.035060864116325e-12,-3.564087732676677e-26,-6.505161699029351e-26,-1.2084485334691353e-25,-7.869955977233649e-11,5.993577702547234e-11,-6.50868250578655e-11,4.607775162544068e-11,-1.3652044362492982e-10,1.2812607956577887e-10,-0.020715982573864363,0.0018452182400307308,0.15816894987216018
2454.0,1.7229111187647406e+18,-1.791159272,-0.282904983,0.1762407273054123,-0.014011741,-0.022550305,0.3434023261070251,-0.93881315,0.0,0.0,0.0,1.4957967485839988e-19,-6.133249212296463e-19,-7.127531154907426e-19,4.156987605894613e-12,2.602034653987081e-12,5.731697529492611e-12,-4.150435208200298e-26,-4.88151522319341e-26,-1.0815347996400874e-25,-1.3513301554121879e-10,-1.6059466365825857e-10,3.6391782254451346e-11,4.666667403066049e-11,-5.9048941110283094e-12,4.083392436556903e-11,-0.020452516690114168,0.0016747653790083843,0.15811049538744876
2456.0,1.7229111187757683e+18,-1.791098118,-0.282914579,0.1762831956148147,-0.014180679,-0.022770438,0.3433145880699157,-0.938837409,0.0,0.0,0.0,-3.105940987188635e-19,-7.080239885877508e-19,-1.459618335636495e-18,2.6185933603511996e-12,-1.2718731241952817e-11,-2.225525572459237e-11,-2.098089581315717e-26,7.572021158754282e-26,1.124582398157723e-25,1.4633788288984486e-11,4.8125988803415724e-11,1.6581023673272553e-11,2.7561872611220894e-10,-2.3487419726752347e-11,1.0815088104666013e-10,-0.020661276683882318,0.0017087776180778607,0.15810546715334362
2458.0,1.7229111187843218e+18,-1.791095138,-0.283101976,0.1759196370840072,-0.015571209,-0.021310678,0.3423522114753723,-0.939200997,0.0,0.0,0.0,-3.5240405076696456e-19,4.989741320311781e-19,6.976997995651387e-19,-1.1731484276017011e-12,-1.425498053125001e-11,-2.7586511182981464e-11,7.893194787623537e-27,8.688239601146523e-26,1.5787913078162202e-25,4.161044366831991e-10,-2.0756950311176326e-10,2.526935443477716e-10,4.6665772535306225e-11,-5.575124636023232e-11,6.656503670972393e-12,-0.020095373867148922,0.0031637474712547667,0.15708339174408553
2460.0,1.722911118795923e+18,-1.791132689,-0.283146918,0.1758343279361724,-0.016037228,-0.020748299,0.3422082960605621,-0.939258099,0.0,0.0,0.0,-5.972394860120912e-20,6.536197867543902e-19,1.0449207332362819e-18,-3.831239235033005e-12,2.2109713888913746e-12,1.2929819508233165e-12,2.8208789325875214e-26,-4.2327555264539137e-26,-6.888190973368638e-26,1.0796533335959694e-10,-6.337650391704891e-11,2.989403101521734e-11,-2.6658065020682625e-10,9.218376064778295e-11,-1.7327692965140409e-10,-0.019864982351721246,0.00367962681733503,0.15689731812076826
2462.0,1.7229111188069821e+18,-1.791181326,-0.283058316,0.1759397834539413,-0.015374589,-0.020857615,0.3426842987537384,-0.939093232,0.0,0.0,0.0,2.836621908065343e-19,-4.0126462225876215e-19,-7.585877071259702e-19,-2.70583768278086e-12,1.366852525924829e-12,-2.3791711166900738e-12,1.4062375678692568e-26,-2.597423757645346e-26,-2.0487382063775882e-26,-1.170568637304534e-10,-2.3201981816197377e-11,-9.386031495503659e-11,-3.624652724360037e-11,-2.4826615884283053e-11,4.432971901608777e-12,-0.01972909427394201,0.0031978974178249226,0.15730592820654243
2464.0,1.7229111188147976e+18,-1.791193128,-0.283084333,0.1758553832769394,-0.01535656,-0.020392997,0.3425517082214355,-0.939152122,0.0,0.0,0.0,2.997426109905219e-19,-2.209017638750084e-19,-1.3116770399203307e-19,5.157543913411963e-13,-3.5638556408625684e-12,-1.0663684912792642e-11,-1.0167534301326773e-26,2.777659817168004e-26,7.713912519670445e-26,3.5472278872396196e-11,-1.1302973568561501e-10,3.875997481843489e-11,9.816557386301642e-11,3.677635148614266e-11,7.314506964901256e-11,-0.019395229885152597,0.0033484013705352817,0.157108908559399
2466.0,1.7229111188274191e+18,-1.791145325,-0.283134103,0.1757235527038574,-0.015941992,-0.020514956,0.3422462046146393,-0.939251065,0.0,0.0,0.0,-7.777439984674823e-20,2.254592062310845e-19,7.784335089409324e-19,2.0065318619907207e-12,2.005015015674555e-12,6.613850773531154e-12,-1.6627059792603714e-26,-8.293207319885159e-27,-4.4153696715698235e-26,7.927428399557944e-11,5.035072115608794e-11,5.242982434298852e-11,-7.393286441471157e-11,6.730905729706883e-11,-6.679145159338941e-11,-0.019669118865631458,0.0037022590658608726,0.15680966475504174
2468.0,1.7229111188357773e+18,-1.791138411,-0.283084422,0.1758732497692108,-0.01552357,-0.020766761,0.3426072597503662,-0.939120889,0.0,0.0,0.0,-1.4322399579052368e-19,-8.549819621197235e-20,-2.338755283475164e-19,2.7227080386530683e-13,2.695238144519625e-12,9.85201913812932e-12,-8.004349940177388e-28,-2.200389076535595e-26,-8.176103228475245e-26,-1.1239344995702696e-10,2.1588378908522634e-11,-9.482292836834394e-11,-2.480237599420508e-11,-7.458850068873915e-11,-2.6238460800958038e-11,-0.01971400177453372,0.003332346237338812,0.1571945798885558
2470.0,1.7229111188452076e+18,-1.791141748,-0.283093572,0.175880417227745,-0.015495295,-0.020281222,0.3426175713539123,-0.93912822,0.0,0.0,0.0,-7.597148401890919e-20,-1.312715507658559e-19,-5.861651955080854e-19,-3.945470484732032e-13,1.0061773108855855e-13,1.0358995550588914e-12,4.9182402961991844e-27,1.1480084868392366e-27,-2.4499241312612347e-27,2.966953200716928e-11,-9.882628022139036e-11,-4.7097258927560213e-14,5.996699406431655e-11,4.237305227175786e-12,4.2201806600675997e-11,-0.019370861502885993,0.003483788153118525,0.15717957083803188
2472.0,1.7229111188577016e+18,-1.791147351,-0.283074588,0.1758979260921478,-0.015602558,-0.020442463,0.3426767289638519,-0.939101338,0.0,0.0,0.0,-5.116025293216437e-20,-1.7577330189443326e-20,-3.8942505543254786e-20,-1.4308298963582398e-12,8.419535313824833e-13,-5.154109302939897e-13,5.573321540750352e-27,-5.076094468127498e-27,1.417926452364337e-26,7.540538171606144e-12,3.0062989362874206e-11,-1.0419315166991952e-11,-3.6451662462926683e-11,5.374461736838854e-11,1.5987136862885035e-11,-0.019522572464345134,0.003501700542236453,0.1572524768549
2474.0,1.722911118864256e+18,-1.791160107,-0.283071399,0.1758879572153091,-0.015481369,-0.020516044,0.3425751328468323,-0.93913883,0.0,0.0,0.0,-2.2954251984957015e-21,-9.959058765165023e-20,-4.7849592948325786e-20,-1.6568747322333732e-12,4.622894187801803e-13,-4.776294349632341e-13,6.486027332849113e-27,-6.821579815534399e-27,1.578702407465464e-27,-4.3233792918684095e-11,8.662954515386715e-12,3.192717646684251e-11,-1.8433002162345242e-11,-1.163900713532716e-11,1.8363044614770986e-12,-0.019525863985359864,0.0033900204382030725,0.15716778380543317
2476.0,1.7229111188791944e+18,-1.791175008,-0.283065319,0.1759163439273834,-0.01529199,-0.020639455,0.3426171839237213,-0.939123929,0.0,0.0,0.0,6.159441786676605e-20,-7.72762340578675e-21,7.575127195347016e-20,-5.951240034407929e-13,-2.4439965145039627e-12,-3.0178031238665854e-12,7.368843157239589e-29,1.7848017005957157e-26,2.3993275811459218e-26,-2.932546615308434e-11,6.784975092219885e-12,-6.746706244037755e-12,4.0681520973203123e-11,-4.010430579792861e-11,4.5506226171586765e-12,-0.019546394115711123,0.0032169677209385604,0.15722009509373314
2478.0,1.7229111188844508e+18,-1.791177392,-0.283083439,0.1758913844823837,-0.015323901,-0.020426879,0.3425208330154419,-0.939163148,0.0,0.0,0.0,5.4207437399493755e-20,1.0772738058317868e-19,2.309452037710397e-19,-2.888923564750488e-13,-2.139063420741839e-12,-2.1649943785370766e-12,4.0834053392272354e-27,1.3167800510008803e-26,1.1570238150383012e-26,3.812924902772215e-11,-7.15456570804705e-11,4.1028421701159865e-11,1.174420131861353e-11,2.5416678128432643e-11,-1.4718282070362082e-11,-0.01940682357112137,0.0033116926685931797,0.15711815465126625
2480.0,1.7229111188951035e+18,-1.791176915,-0.283077985,0.1759240925312042,-0.015395883,-0.020728705,0.3426964879035949,-0.939091325,0.0,0.0,0.0,2.1620053608095138e-19,5.809211988905445e-20,-3.340817616871746e-20,2.0110950830175977e-13,8.182342847597743e-14,1.7784284029522625e-12,-1.5699642806859414e-26,9.709550943229972e-26,1.6794121344205313e-25,-5.837063515857281e-12,5.761833134908517e-11,-3.618327038476192e-11,-1.8967301045845293e-11,2.8141650416747127e-11,-1.5082106604961092e-11,-0.019647996074439077,0.00325887859997468,0.1572949556510369
2482.0,1.7229111189225452e+18,-1.791160345,-0.283106148,0.1758815646171569,-0.015329715,-0.020528836,0.3425597548484802,-0.939146638,0.0,0.0,0.0,-2.3994224087359534e-18,9.91568236260752e-18,1.8201299929428977e-17,1.8165747999268102e-11,-8.955175876365238e-12,-2.7668391913084122e-11,-3.4827101694907054e-25,7.985590609311099e-27,1.8013160123310028e-25,1.9464693603156484e-13,-1.5262356246976247e-11,1.0864208491237679e-11,2.8967164208695793e-10,2.5085283517640245e-10,-1.0210608137803776e-10,-0.01948024827922635,0.0032814051225132754,0.15714380301275016
2484.0,1.7229111189231555e+18,-1.79114902,-0.283111721,0.1758643239736557,-0.015551033,-0.020630302,0.342629611,-0.939115286,0.0,0.0,0.0,-2.6154070137737995e-18,9.91578863057338e-18,1.8304660678263055e-17,1.6659917417719018e-11,-2.7645379285814015e-12,-1.6298451041529535e-11,-3.065063927940289e-25,-1.6733532205231332e-25,-1.3992415465334997e-25,5.735062206580586e-10,5.593240017018901e-10,-2.4039543314083744e-10,-1.9695043210746135e-10,1.9124763422350674e-10,-1.4609490977333154e-10,-0.019630534457911283,0.0034002270976472037,0.15719675766053742
2486.0,1.7229111189266747e+18,-1.791128874,-0.282992244,0.1760494858026504,-0.015111623,-0.021482199,0.3430699706077575,-0.938942611,0.0,0.0,0.0,-2.7323741423412276e-18,5.92760162289696e-18,1.1535894916947493e-17,4.451049868806098e-12,2.750979800230462e-11,4.151848825708348e-11,3.163346627948277e-26,-1.0187551781309026e-24,-1.7523279562119667e-24,-3.9370621727889114e-10,3.6723291220003725e-10,-2.8132561105542537e-10,-3.582419623801271e-10,-2.3927684207793096e-10,1.035120959766538e-10,-0.020085595853012075,0.0028048316188084696,0.1577033733915188
2488.0,1.7229111189375514e+18,-1.791123271,-0.282909513,0.1761280745267868,-0.014528329,-0.022164127,0.3432168960571289,-0.938882291,0.0,0.0,0.0,-2.0764623952223324e-19,-1.3040572620522047e-18,-1.774063073672881e-18,-4.995537358351015e-13,2.062017118412312e-12,2.5097188032787425e-12,1.1699556352795492e-25,-2.2177377470300237e-25,-4.366394289865092e-25,-1.4297770410219558e-10,8.077031754602817e-11,-3.337124118752982e-11,1.49643795292533e-10,-2.302933880064982e-10,1.4050496848053003e-10,-0.020357685395646256,0.0021652876363800304,0.1578847440147959
2490.0,1.7229111189459848e+18,-1.791134119,-0.282928377,0.176118404,-0.014019388,-0.021931201,0.3432149589061737,-0.93889612,0.0,0.0,0.0,2.6207458233983468e-20,-2.769157317409296e-19,-3.097411499947491e-19,-6.322444657949721e-13,-2.163801434455148e-12,-6.004344325406086e-13,1.605992513816857e-26,7.792875377705744e-26,9.048996176461712e-26,-9.441862669382514e-11,-9.335386381295917e-11,-3.1567409436531155e-13,6.656564225970627e-11,-6.205690051773817e-11,2.1969828735036137e-11,-0.020016830407904865,0.001898352256967865,0.15783350957655304
2492.0,1.7229111189544973e+18,-1.791133881,-0.282946169,0.1761179864406585,-0.01391771,-0.021771746,0.343174397945404,-0.938916206,0.0,0.0,0.0,6.264909757644873e-20,9.544727797096702e-21,-2.5384308054319536e-19,-4.877766077888674e-14,-2.5949436898634654e-12,-2.729744193760345e-12,-5.573135069799698e-28,2.609594467742436e-26,1.7935813197200186e-26,-9.846419582783054e-12,-4.334348348944816e-11,1.0568416282542452e-11,8.592257872060832e-11,5.2086682399425596e-11,1.505885104798059e-11,-0.019869252003493133,0.001883612480263919,0.15778937302231993
2494.0,1.722911118964151e+18,-1.791135192,-0.282976747,0.1760622859001159,-0.014289663,-0.021690523,0.3430467247962951,-0.938959181,0.0,0.0,0.0,4.2995591812763286e-21,1.7874826810710658e-19,4.3775482863229374e-20,4.915032868546153e-13,-1.8438097777136983e-12,-5.220838589418132e-12,-5.789120037272e-27,7.976347826720523e-27,3.004575006020535e-26,7.742653074739148e-11,1.0819500985892014e-11,2.980202800159587e-11,3.789204515981638e-11,4.0263931601656927e-11,6.879009805841078e-12,-0.019937731430452185,0.0021662797519951607,0.15766381274425323
2496.0,1.722911118974301e+18,-1.791123509,-0.282981336,0.1760151535272598,-0.01467128,-0.021751154,0.3429353535175323,-0.93899262,0.0,0.0,0.0,-5.173695969432809e-20,1.577850863076577e-19,3.4037492767349076e-19,-1.6214239122007085e-14,1.047656980562907e-12,-1.555652269815449e-12,-9.312465384886627e-28,-2.0847347278520017e-26,-1.7898429943096355e-26,6.59376707368497e-11,3.718437971386569e-11,2.4326435894224608e-11,-4.882543754920071e-11,-8.300180144371251e-12,-2.827185977245788e-11,-0.02010819100667156,0.0024055380852851063,0.1575659195093377
2498.0,1.7229111189845637e+18,-1.791135788,-0.282955021,0.176031232,-0.014560673,-0.0217609,0.3430623412132263,-0.938947618,0.0,0.0,0.0,-1.3667600515970863e-20,-2.510662013096038e-19,-3.3227787045314905e-19,-5.649756832042227e-13,1.348149569768919e-12,1.7224162040014738e-12,6.251338372258701e-27,-3.481585396866269e-27,-1.186208382665088e-26,-2.0224344351009937e-11,-5.780859302850487e-12,-2.6741691543319895e-11,-3.000863422160021e-11,-1.5600847166943686e-11,-1.5401354697374548e-11,-0.020081794911121307,0.0023292431713513775,0.1576668491968434
2500.0,1.722911118997375e+18,-1.791132927,-0.282957196,0.1760557889938354,-0.014608526,-0.021784477,0.3431015610694885,-0.938932002,0.0,0.0,0.0,1.070712044595434e-19,2.857673745667781e-19,3.7424933497345095e-19,-1.0351532940862475e-13,-6.351784668208834e-12,-1.295671036362441e-11,-2.221498167515689e-27,2.1281247937624976e-26,3.50472238801218e-26,5.920402293649295e-12,5.982685379978322e-12,-6.47627350052449e-12,1.0198014484920449e-10,-7.0031975981727e-11,7.521199458944126e-11,-0.020117377078479496,0.002353851752573959,0.15772089536302147
2502.0,1.722911119008651e+18,-1.791137338,-0.283090174,0.1757620722055435,-0.015314222,-0.020646784,0.3424810171127319,-0.939172983,0.0,0.0,0.0,-3.3561639827090335e-20,3.2106671823895997e-19,5.6993829554011225e-19,1.8089911984782759e-12,5.6717854558336265e-12,6.349467692536255e-12,-2.052406063345556e-26,-9.053430211437308e-26,-1.4268695057230534e-25,1.8373594534739904e-10,-1.458448112663045e-10,1.2368229763556263e-10,-8.82675586087135e-11,1.1058167245140261e-10,-8.611699459260247e-11,-0.019548931045025114,0.003231823199150722,0.15698798232402145
2504.0,1.7229111190149632e+18,-1.791118145,-0.282992661,0.1759166270494461,-0.015042369,-0.021513117,0.3429884612560272,-0.938972771,0.0,0.0,0.0,-1.9156591472644807e-19,-5.813669137629657e-19,-8.962340096199806e-19,8.792450004408338e-13,5.065164132704161e-12,5.9110569359399975e-12,-1.418708121196436e-26,-9.283335963214027e-26,-1.485627864328498e-25,-1.706147149237777e-10,2.2714603028278354e-10,-1.7871026268572942e-10,-1.3038580522559276e-11,-2.3000218653541373e-11,-1.2624461358864031e-11,-0.020074880660411545,0.0027496914989686675,0.15752555726824832
2506.0,1.7229111190243315e+18,-1.79113996,-0.283089578,0.1757137477397918,-0.015437485,-0.020409074,0.3425846397876739,-0.939138353,0.0,0.0,0.0,-1.7369161479144832e-19,-7.53999173659534e-19,-1.1240563848871396e-18,-1.5309714040370084e-12,-7.128428962014467e-12,-1.3980782959039444e-11,5.63796615175359e-27,4.223500735554366e-27,3.8630654488759234e-27,1.5765878430228049e-10,-1.9184524857338724e-10,9.843337491783457e-11,8.69794157576663e-11,-1.1385407183489034e-10,8.826033245235752e-11,-0.01943183398533993,0.0034049872945594727,0.15701408001898584
2508.0,1.7229111190429156e+18,-1.791139007,-0.283103466,0.1757368743419647,-0.015464464,-0.020393839,0.3426044881343841,-0.939131081,0.0,0.0,0.0,6.859341937096239e-20,1.595205483028423e-19,-1.3342916192086362e-20,-1.6775987876497647e-12,-9.54076103706407e-13,1.967596251202786e-12,1.1980706844552265e-26,-3.065868850849559e-27,-3.7749733341045355e-26,3.3441165915549066e-12,-5.621133869971522e-13,-2.1895977810143892e-12,-7.201556856723382e-11,1.2041582837380897e-10,-5.000220671833883e-11,-0.019432410223237825,0.003428497219359762,0.15704925361480682
2510.0,1.7229111190455227e+18,-1.791144013,-0.283106029,0.1757422685623169,-0.015502982,-0.020447753,0.3426057696342468,-0.939128757,0.0,0.0,0.0,9.944194591502322e-20,1.324276975581737e-19,-1.474264537131047e-19,-1.4707953519454168e-12,-6.013600480679175e-13,1.6140583045649658e-12,2.3503369533724206e-26,8.109734842872799e-26,7.489288011149313e-26,1.3627647167812838e-11,4.8986408174230705e-11,-1.5710385188431058e-12,-5.70716195381714e-12,5.0100370080933025e-12,3.34925849986109e-13,-0.019483290019824174,0.00343575992056446,0.15705992874973007
2512.0,1.7229111190551355e+18,-1.791142225,-0.28309828,0.1757416576147079,-0.015481981,-0.020503849,0.342611164,-0.939126015,0.0,0.0,0.0,7.390366548804868e-19,4.154736901653752e-18,5.0498813190356136e-18,1.9821231766593028e-13,5.701767822228576e-13,-2.2209921859005423e-13,-2.3946689519753783e-25,-1.348148428141569e-24,-1.6680311254064253e-24,-8.070207316079374e-12,9.457960629189453e-12,-1.5197460810421713e-12,-3.513222511930719e-12,-2.185571266164575e-11,4.988930821007039e-12,-0.019514642062857662,0.003401844802720043,0.1570653575639759
2514.0,1.7229111190831734e+18,-1.791135669,-0.283101588,0.1757224649190902,-0.01559664,-0.020539764,0.3425011932849884,-0.939163327,0.0,0.0,0.0,-3.099963447875047e-17,-1.7811336128190216e-16,-2.223427154339507e-16,6.715804622501052e-11,4.4686299297585683e-10,5.699598053806526e-10,-2.2642624634648438e-24,-1.6258594322488292e-23,-2.1037129072530272e-23,6.6012021439514e-12,5.2749828509392004e-12,8.406823123170972e-12,-2.362293368439399e-09,2.6078484658179136e-09,-1.7832880770658132e-09,-0.01957468992282611,0.003465146639071082,0.1569768363038622
2516.0,1.7229111190834668e+18,-1.791115761,-0.282969117,0.1758914291858673,-0.015196406,-0.021505525,0.3429663181304931,-0.938978553,0.0,0.0,0.0,-3.166739053669907e-17,-1.829131967645245e-16,-2.285541867628801e-16,5.7961004979419234e-11,3.94013180107912e-10,5.039848240596177e-10,-1.7444113630415346e-24,-1.327219677176812e-23,-1.730788873707749e-23,-4.732656944194877e-09,5.225154892265017e-09,-3.5680959002126686e-09,-3.7770984641041074e-10,8.724379208564294e-11,-1.6382200488634233e-10,-0.020122370451593274,0.0028584396665505773,0.15749541143574758
2518.0,1.7229111190852877e+18,-1.791122079,-0.282901824,0.1759960055351257,-0.014606114,-0.021897441,0.3432219922542572,-0.93888545,0.0,0.0,0.0,-2.883450128214338e-17,-1.7217424070145869e-16,-2.1639343401724776e-16,-3.3016446381998504e-12,2.9639184776837736e-11,4.630049799243006e-11,1.7101783546726316e-24,7.270541511851714e-24,8.505140308384755e-24,-7.488184906768701e-10,1.7976256702222507e-10,-3.192371866495137e-10,2.4487609002615094e-09,-2.7097552090598893e-09,1.8453872021477878e-09,-0.020197846468939733,0.0023185568747762036,0.15776231676311145
2520.0,1.7229111190962872e+18,-1.791147232,-0.283061922,0.1757657825946808,-0.015105302,-0.020572767,0.3426235616207123,-0.939126015,0.0,0.0,0.0,2.382771962476753e-19,-9.720771271074358e-19,-1.4595163027254491e-18,-9.286320602912325e-13,-8.465005342005323e-12,-1.1484764698333512e-11,1.3055560273548494e-24,7.79965939870194e-24,9.793809869036885e-24,1.6486485632814167e-10,-1.9435552585476172e-10,1.226785040829069e-10,4.064067149550441e-10,-1.0836502891631194e-10,1.6149991446433342e-10,-0.019430291591770368,0.0031188928139054472,0.1570795391438546
2522.0,1.7229111191071775e+18,-1.791142702,-0.283088446,0.1757425516843795,-0.015364004,-0.020264028,0.3426145315170288,-0.939131916,0.0,0.0,0.0,3.481208637065404e-20,2.478193709529368e-19,1.1124325935013788e-19,1.9092903282351805e-12,7.8184971028388e-12,1.3526672799009938e-11,-2.364966316357981e-26,-3.7126960677115856e-26,-7.438760002007207e-26,6.399493923321815e-11,-3.696749081039881e-11,3.762642279153129e-12,-1.9824923394463845e-10,1.7208137667253075e-10,-1.3605298272805673e-10,-0.01930829546638889,0.003405364670843687,0.15704905187854457
2524.0,1.7229111191147725e+18,-1.791120291,-0.28297475,0.1759282350540161,-0.014721316,-0.02110837,0.3431206047534942,-0.938938737,0.0,0.0,0.0,-1.7111370540518297e-19,-8.241580098388942e-19,-1.6117486847045908e-18,9.77756054061943e-13,3.093276504876088e-12,2.7955797798622044e-12,-1.0504179522971128e-26,-5.385791799327484e-26,-7.235736884680827e-26,-2.3163361156113524e-10,1.4980722749029979e-10,-1.4942746137320657e-10,7.321673910013876e-11,-3.674084424816377e-11,6.12009882294392e-11,-0.019688761482612283,0.002675260330586805,0.15759203936010174
2526.0,1.72291111912431e+18,-1.791134596,-0.283087492,0.1756955683231353,-0.01549549,-0.020260634,0.3425843417644501,-0.939140737,0.0,0.0,0.0,-7.237195157149952e-20,-2.92433435560766e-19,-4.514165656927152e-19,-1.2346813342871692e-12,-7.186609856883948e-12,-1.495795311078256e-11,1.0889716723462344e-26,5.712011996498214e-26,1.1269623268484658e-25,2.1042841743349566e-10,-1.1044917930672635e-10,1.2616461873803153e-10,1.4362326348205162e-10,-8.010728987732177e-11,7.49502565683451e-11,-0.01934969559850445,0.0034976244047894853,0.15699267963737917
2528.0,1.7229111191357568e+18,-1.791145086,-0.283106089,0.1756539940834045,-0.015774062,-0.020095609,0.3425891697406769,-0.939137936,0.0,0.0,0.0,5.965433475179156e-20,3.802212631236888e-19,7.154530671790119e-19,1.2950911822357226e-13,2.55989761875258e-13,-7.540207792406796e-13,2.1659570435375234e-27,3.600372418683922e-27,5.85713436980134e-27,5.561291540296798e-11,-1.0407352264343755e-11,4.730517634836273e-13,-1.0946877540326644e-10,5.736797448942135e-11,-7.073495506441649e-11,-0.019333460079688253,0.0037483064164128017,0.15696489980246908
2530.0,1.7229111191453524e+18,-1.79113543,-0.283088505,0.1756699085235595,-0.015741291,-0.020130068,0.3426569700241089,-0.939112961,0.0,0.0,0.0,5.0834083295308516e-21,-2.895707422516246e-20,-1.2112537410699507e-21,2.23140495543384e-13,1.7328546819405277e-12,1.884855754666046e-12,-3.5676777519945975e-27,-2.3558904560478006e-26,-4.4964518406952765e-26,-8.509133373037215e-12,4.286769672116352e-12,-1.5305291390801444e-11,-3.569514586375493e-11,1.593778504551593e-11,-6.356005950521485e-12,-0.019348816584201355,0.0037152402953003587,0.15702825244050395
2532.0,1.7229111191588221e+18,-1.791147232,-0.283067048,0.1756995767354965,-0.015689386,-0.020303557,0.3427299559116363,-0.939083457,0.0,0.0,0.0,-2.8994409339784472e-21,1.4532637572095154e-20,-4.489405729929428e-20,2.0323198336711816e-13,-2.1148021122478657e-12,-3.354154479900672e-12,-2.4703153592734984e-27,1.9601279679738892e-26,3.6722392716160434e-26,-1.5777376324541887e-11,2.1468217826688104e-11,-1.2238960137559343e-11,3.4177939695041616e-11,-2.852456677374698e-11,4.6689441863652656e-11,-0.01945367641897885,0.0036198003068790307,0.15711427982931622
2534.0,1.7229111191644618e+18,-1.791143537,-0.28308773,0.1756675392389297,-0.015801342,-0.020102546,0.3425289690494537,-0.939159274,0.0,0.0,0.0,-2.126495395315272e-20,1.6373813342977516e-19,2.565788619521406e-19,1.8352366897641798e-13,-1.3240147993416475e-12,-2.7949282803241673e-12,-4.532994896299612e-28,2.170875665763763e-26,4.5378987206154387e-26,5.984674601704602e-11,-5.2762363875377604e-11,7.807359233650387e-11,-2.4033876478737373e-11,5.484884344268844e-13,-6.228410196500629e-12,-0.01934586020868763,0.0037621140677095988,0.15693488632061983
2536.0,1.7229111191742374e+18,-1.791149735,-0.283060968,0.1756891161203384,-0.015543618,-0.020314928,0.3426343202590942,-0.93912065,0.0,0.0,0.0,2.180283210499731e-20,2.9550762784788467e-19,5.633293344893029e-19,-3.2546795108191655e-13,6.751598493877705e-13,2.380716477025413e-12,2.587302883128477e-27,-3.874853330294065e-27,-1.2263016227425174e-26,-6.384512928201664e-11,2.2565194695541872e-11,-2.46957805305606e-11,-2.66123591703179e-11,3.9196251195031693e-11,-4.0163866931301845e-11,-0.01940583342627391,0.0035133377146915,0.1570288209856
