seq,timestamp,px,py,pz,ox,oy,oz,ow,lx,ly,lz,ax,ay,az,vx,vy,vz,jx,jy,jz,wx,wy,wz,aa_x,aa_y,aa_z,roll,pitch,yaw
136.0,1.722910391140293e+18,-1.927093387,-0.354124069,0.1265809088945388,-0.002008745,0.001542128,0.3505429923534393,-0.936543286,0.0,0.0,0.0,2.7734611606934203e-20,-1.0001630131080389e-19,-3.57296332452796e-20,-6.199093536524823e-13,2.3042016990666454e-12,1.370311723032353e-12,-3.330041420919124e-27,-3.880006611271414e-26,-5.067825418362295e-26,0.0,0.0,0.0,-3.015317566996762e-11,-2.0378086250269732e-11,-4.025766195659847e-12,0.0005726340740104961,0.0017987118640080094,0.11711454996407024
138.0,1.7229103911476006e+18,-1.927097917,-0.354107231,0.1265909224748611,-0.001879486,0.00157321,0.3505570590496063,-0.93653816,0.0,0.0,0.0,3.400267322739284e-21,-3.835485604307847e-19,-4.0606198925718797e-19,-4.172381246425785e-13,1.5733305769119198e-12,1.1092167134998074e-12,-3.1166168032834313e-27,-2.807867235452415e-26,-3.7851284894861574e-26,-3.015317566996762e-11,-2.0378086250269732e-11,-4.025766195659847e-12,-2.215517403702422e-11,2.2670804229335367e-12,-7.471953187283288e-12,0.0006271554616929198,0.0017160432218982996,0.11713182185128955
140.0,1.722910391158174e+18,-1.927099228,-0.354101777,0.1265986561775207,-0.001668626,0.001468493,0.3506313860416412,-0.93651098,0.0,0.0,0.0,-2.6287593712455677e-20,-5.164106607872621e-19,-6.100405840927102e-19,-7.535677737467821e-13,-6.8196985647341976e-12,-8.849775099432027e-12,-2.388379027908302e-28,1.7838095133226107e-26,1.9954017656316596e-26,-4.431034807404844e-11,4.5341608458670735e-12,-1.4943906374566576e-11,4.140128126783966e-11,-1.340795745118076e-10,7.057762131855517e-11,0.0006073137799876162,0.0015419643861853667,0.11718079776547213
142.0,1.7229103911672814e+18,-1.92711103,-0.354221433,0.1264428943395614,-0.001431535,0.002784098,0.3500480353832245,-0.93672657,0.0,0.0,0.0,-8.309662234989645e-21,-1.154378542192745e-19,-1.204334991314531e-19,-9.496640748610803e-13,-9.346864746726568e-12,-1.1802322681821388e-11,4.4569145979776995e-27,4.723784487910569e-26,5.670960682204189e-26,5.2649386865711695e-11,-2.8853723527388494e-10,1.371294764414505e-10,2.045910342111864e-11,3.68266358712218e-11,-7.110606812948233e-12,0.0015871509899813454,0.0017062716750838754,0.11671729169111371
144.0,1.7229103911955886e+18,-1.927107453,-0.354152441,0.1265751421451568,-0.001775085,0.001730086,0.3504330217838287,-0.936584592,0.0,0.0,0.0,3.3630817231148513e-19,1.5042429125815343e-18,1.7444649183033248e-18,-2.1604383911930758e-14,1.6425835508079427e-12,2.7155806861371408e-12,-2.15141190383566e-25,-1.388854880821817e-24,-1.8408798216556264e-24,-3.392141231811161e-12,7.818743258831067e-11,-2.916512000046304e-11,-2.5140174020736866e-11,1.479720003023277e-10,-7.278262351895359e-11,0.0007632044877265639,0.0016820693568887493,0.11704940696741747
146.0,1.722910391225978e+18,-1.927112937,-0.35412845,0.1265938431024551,-0.00184846,0.001637066,0.3505527973175049,-0.936539769,0.0,0.0,0.0,-1.361788728723612e-17,-8.788047226934809e-17,-1.164069920263948e-16,2.0101063491014166e-11,8.376597822467632e-11,9.59097809427156e-11,8.051720960058978e-25,5.0866340464027074e-24,1.6914190742573734e-23,2.369038824237962e-12,7.406765330770449e-12,-8.435770596456673e-12,-2.42987068947482e-10,3.3490603937566023e-10,-3.9377479200318485e-10,0.0006797570049180259,0.0017104514341923292,0.11713205108181106
148.0,1.7229103912263299e+18,-1.927105784,-0.354098648,0.126627966761589,-0.001814207,0.001483426,0.3506872057914734,-0.936489761,0.0,0.0,0.0,-1.3329525323807056e-17,-8.605859537639132e-17,-1.103728359994396e-16,1.525291543927983e-11,5.2485762319850594e-11,5.4477910589586214e-11,3.5606055428850474e-24,2.706871681041072e-23,4.762174698375893e-23,-4.893662791267751e-10,7.479995113396311e-10,-8.167147040068327e-10,-1.421196449878802e-10,-3.8435605797244635e-10,1.809767531579589e-10,0.0005809846665382055,0.0016481255496959178,0.11723761574241288
150.0,1.7229103912271265e+18,-1.927102804,-0.354115009,0.1265946179628372,-0.001602502,0.001728302,0.3505560159683227,-0.936538815,0.0,0.0,0.0,-5.547397173960144e-18,-2.499693769179153e-17,-1.7459714065176843e-17,5.452215130570315e-12,-1.0895492520623643e-11,-2.0069803529025724e-11,8.358292546038166e-24,6.834048261974464e-23,9.579240626000996e-23,-2.8187025115152243e-10,-7.613053506141223e-10,3.5351773571946115e-10,1.983548679946097e-10,-2.9895892753851136e-10,3.9128994509107405e-10,0.0008060058503235819,0.0015611215303329353,0.11713528705065657
152.0,1.7229103912276518e+18,-1.927099347,-0.354117393,0.1265916228294372,-0.001593544,0.001682838,0.3505643904209137,-0.936535776,0.0,0.0,0.0,-1.6450854665633742e-18,8.026285699640912e-18,2.5644611262132753e-17,4.877790431727034e-12,-5.127887325573159e-12,-2.8770270847724324e-12,5.3368255539163006e-24,4.53761375738475e-23,5.74906766190846e-23,-9.265654313755574e-11,1.5008165626260843e-10,-3.413481382468464e-11,1.9275942474426578e-10,4.726136642139225e-10,-1.5520145598368917e-10,0.0007764356982291783,0.0015433465613834737,0.11713730308554009
154.0,1.7229103912291804e+18,-1.927099466,-0.354127854,0.1265997886657714,-0.001716957,0.001579013,0.3505331575870514,-0.936547399,0.0,0.0,0.0,-2.791204825957435e-18,-3.9749692614364455e-19,4.26466603864915e-18,-9.028817888494964e-14,-5.994263720922111e-12,4.81328633527771e-12,-6.021679253448229e-25,-4.723871321311722e-24,-1.2086655081675125e-23,1.0364859833700913e-10,1.8392197781372271e-10,4.3114823752082836e-11,5.176115486527525e-11,-6.270869426269313e-11,2.5496786891799334e-11,0.0006722672534637174,0.0016035068286685578,0.11712752797035354
156.0,1.7229103912385075e+18,-1.927101016,-0.354135424,0.1266145855188369,-0.00180461,0.001489186,0.3504592478275299,-0.936575055,0.0,0.0,0.0,-5.855621538377033e-21,3.32379774730154e-19,-3.2491414363220986e-19,-5.336753093797458e-15,-6.708381522519897e-14,9.74624080999934e-13,1.5288330150571127e-25,2.5671683387530076e-26,-2.4632661405597047e-25,1.0865766592994762e-11,2.4664267737222175e-11,1.6858759958914025e-11,-5.6740956923312886e-11,-1.0394283540244535e-10,-2.2863241813671554e-11,0.0005868244740620788,0.0016419906005824306,0.11710065459065995
158.0,1.7229103912485012e+18,-1.927099347,-0.354128122,0.1266177743673324,-0.001716645,0.001584091,0.3504717648029327,-0.936570406,0.0,0.0,0.0,-3.863222960715249e-20,2.589177752360319e-20,-1.5522499523266785e-19,-2.2408683947734405e-13,9.042368384095448e-15,-1.3446767121039727e-12,-4.398663520109987e-29,-1.6344679925754978e-26,1.904442104621432e-26,-9.83331550961665e-12,-2.396369299116799e-11,-2.6116598752602684e-12,1.3356510769603258e-11,-2.2349843365257664e-11,-3.23168159218031e-12,0.000675650068371472,0.001604420047350787,0.11711042723200488
160.0,1.7229103912611208e+18,-1.927108407,-0.354139507,0.1265742927789688,-0.001894308,0.001785705,0.3504101634025574,-0.936592758,0.0,0.0,0.0,1.2374778823435316e-20,4.787561600786601e-20,1.1801040796099028e-19,-9.78418319344899e-13,6.269905189465007e-13,-2.0789095215363595e-12,6.312058170974309e-27,-7.1467311580569e-27,1.3301642311937136e-26,3.757878813220128e-11,-2.0035418993293153e-11,1.0395396774553405e-11,-1.3743418841758134e-12,2.183200412367084e-11,-2.90453093918642e-12,0.0007719272804717134,0.0017796191859586416,0.11703538244543008
162.0,1.7229103912672684e+18,-1.927115202,-0.354131073,0.1265656054019928,-0.001879351,0.001715389,0.3504343628883362,-0.936583877,0.0,0.0,0.0,5.797728897412777e-20,-2.2679531520345444e-20,1.74776399063435e-19,-6.862701018003474e-13,9.180395003158967e-13,-8.257707643271512e-13,4.136408036070517e-27,-9.585104650168435e-27,1.00786504207252e-27,-1.2581999277968276e-11,1.9700315256173688e-11,-8.420721753633108e-12,-2.4912726715310624e-11,-3.996951686583806e-12,-1.1857181410106447e-11,0.0007265493887616062,0.0017513977305979673,0.11704098545808604
164.0,1.7229103912773363e+18,-1.927115202,-0.354129314,0.1265669763088226,-0.00177228,0.00182581,0.3504975140094757,-0.936560214,0.0,0.0,0.0,4.551494740469448e-20,-8.798949107726889e-20,4.928968465533272e-20,6.982731571314228e-14,-4.648690711189765e-13,4.546185543553009e-13,-2.2202469702670777e-27,2.4142617497189403e-27,-9.824441812199033e-27,-1.2246665298419969e-11,-2.8029322366460765e-11,-1.3318966045659488e-11,1.4432509979154193e-11,7.769703411612572e-12,2.7566424406048637e-12,0.0008312700633059541,0.0017045347956897384,0.11707684599879842
166.0,1.7229103912896315e+18,-1.927113295,-0.354144633,0.1265773475170135,-0.001941995,0.001657968,0.3505136966705322,-0.936554193,0.0,0.0,0.0,3.465450823169216e-21,7.534583797546393e-20,-3.1871004407540344e-20,1.852302725599676e-13,-8.05454463019409e-13,-1.0880254360844847e-13,8.049007192121687e-28,7.644957842869718e-27,4.406994993831638e-27,1.6283020680340107e-11,3.523972207939883e-11,-2.9074368724233806e-12,-1.6616179295288972e-11,-6.75919463499563e-12,2.040233284378057e-11,0.0006706644784850493,0.0017811150178735913,0.11709506203729717
168.0,1.7229103912972347e+18,-1.927111745,-0.354148686,0.1265720427036285,-0.001724535,0.001745496,0.3504163920879364,-0.936590791,0.0,0.0,0.0,2.944965377700937e-20,1.0695627070318749e-19,5.339306983108334e-20,1.8374172621344848e-13,2.519130071198909e-13,-2.855180451907548e-13,1.2150286312533136e-27,5.030872235683761e-29,6.603251386249363e-27,-4.547902388899791e-11,-4.1547711636452026e-11,2.7485699641901654e-11,-1.5361656691441614e-11,-1.0105757178912809e-11,-4.130409994074206e-12,0.0007867542975377138,0.0016504734032927674,0.1170376547460244
170.0,1.7229103913109924e+18,-1.927109718,-0.354125679,0.1265783756971359,-0.00166786,0.001613734,0.3504883348941803,-0.936564207,0.0,0.0,0.0,-8.663588082953456e-21,5.4034868939946795e-21,2.9452676187231906e-20,1.3268950516875772e-12,9.239763837255735e-13,2.356808711575244e-12,-9.355701216929696e-27,-5.661911328286544e-27,-1.4784897151255728e-26,-1.444029270254312e-11,1.5028207721573214e-11,-1.1168256860571792e-11,1.7666788142486245e-11,3.7933305710854765e-11,-2.200669116565467e-11,0.0007089673839281032,0.0015776592599955656,0.1170834766121349
172.0,1.7229103913173084e+18,-1.927097917,-0.354122013,0.1265987604856491,-0.001675923,0.001500913,0.3505370914936065,-0.936546147,0.0,0.0,0.0,-8.684967616292461e-20,-2.5371077382160076e-20,-1.0175419089158929e-19,1.0061183241728832e-12,8.321260808464469e-13,2.0713263149340534e-12,-5.768440621307442e-27,-2.0484412248961214e-27,-1.0865868660053676e-26,-1.014544760402542e-11,3.431889978525751e-11,-1.6527682689407684e-11,1.961784137157938e-11,4.07331602586908e-12,5.311597788277359e-12,0.0006279180801081621,0.0015549744254085569,0.11712917443004879
174.0,1.7229103913285005e+18,-1.927103758,-0.354107708,0.1265990138053894,-0.001851339,0.001428089,0.3505395352840423,-0.936545074,0.0,0.0,0.0,-2.0307167219205893e-20,7.70965336562857e-21,-2.6870792225510683e-20,-6.811056564169324e-13,3.334124373077642e-13,-1.891275031299143e-13,7.621584886516633e-27,4.370357532491391e-27,9.113327073911393e-27,2.479539004061564e-11,2.3174839773311374e-11,-5.450612840170738e-13,1.3283621052915611e-11,-1.9160420904274862e-11,7.575419231868283e-12,0.0005324536969881782,0.0016595251052075356,0.11713034149341495
176.0,1.722910391343656e+18,-1.927117348,-0.354122043,0.1265918016433715,-0.001957267,0.001500092,0.3505491614341736,-0.93654108,0.0,0.0,0.0,1.295985170567889e-19,1.0297592459187069e-19,1.6096271783550115e-19,1.6881652845917127e-12,1.5229450307835253e-12,2.9970732723956418e-12,-1.1603235194060235e-27,2.9463491042356486e-27,-6.023230004705034e-28,1.6421794501805802e-11,-4.0019420232922135e-12,-1.3768442256711188e-12,-4.049788361079668e-11,-3.873742627272419e-11,-1.0533988091636438e-11,0.0005561707806869291,0.001752036205277776,0.11712829399702399
178.0,1.72291039134948e+18,-1.927101731,-0.354107648,0.1266170293092727,-0.001748662,0.001590687,0.3506086766719818,-0.936519146,0.0,0.0,0.0,9.810670069435624e-20,1.1266122490987295e-19,1.2836857839794696e-19,2.383117377161639e-12,2.1774808639347595e-12,3.824246271941754e-12,2.4451378965625062e-26,1.4259245360556026e-26,3.0562848172051156e-27,-5.620037718097772e-11,-5.4300012772137006e-11,-2.161303746728995e-11,-9.449139619629152e-12,5.280559072631948e-13,3.291043707706283e-12,0.0006726039684616865,0.0016290089850102777,0.11718447276762146
180.0,1.7229103914008852e+18,-1.927114606,-0.354129195,0.126583382487297,-0.001662291,0.001639513,0.3504835963249206,-0.936565995,0.0,0.0,0.0,1.4902703290835263e-17,6.560919826762531e-18,4.2114896462786664e-18,-2.2012490618227487e-12,8.093761240555768e-12,4.2252744158051794e-12,-1.603670886358057e-23,-2.834742835093293e-23,-6.359465517430727e-24,-2.476484737452502e-12,-2.945830208765824e-12,5.205243189741447e-12,8.428703121146269e-11,-5.927375030086274e-12,1.8924728978760904e-11,0.000728415802679169,0.0015802823157185894,0.11708541267386106
182.0,1.7229103914022605e+18,-1.927117705,-0.354117751,0.1265893727540969,-0.001718698,0.001709217,0.3504731059074402,-0.93656975,0.0,0.0,0.0,-7.752097427025348e-18,-3.3470921702428756e-17,-4.771145519255028e-18,1.8844994778109968e-11,1.7353697911634983e-11,1.0171708478814589e-11,-4.01832681056459e-23,-4.557485284624294e-23,-3.531082446337135e-23,1.1237368524194765e-10,-6.615476283230955e-11,1.6236420490231855e-11,-2.439047751851096e-10,1.467854274163234e-10,-3.0508411663417634e-10,0.0007629401948182745,0.0016374529999524361,0.11708468504599186
184.0,1.7229103914028142e+18,-1.927102566,-0.354106128,0.1265963017940521,-0.001620052,0.001585995,0.3506300151348114,-0.936511278,0.0,0.0,0.0,-3.5288920385032395e-17,-6.237810164277758e-17,-3.074017899118668e-17,9.412021450946526e-12,-1.0143830521946447e-11,5.501995655965317e-12,-1.9585447350538068e-23,1.3501452156443374e-24,-3.338269580093867e-23,-4.902860351076717e-10,2.90625024623881e-10,-6.049629900786112e-10,3.72880306142654e-10,3.7241381670274756e-10,1.8923894385315814e-10,0.000702016819216859,0.001537640523803091,0.11717768743094198
186.0,1.722910391403279e+18,-1.927105188,-0.354122996,0.1265961229801178,-0.001862028,0.001508344,0.3505435287952423,-0.936543405,0.0,0.0,0.0,-3.262829804359569e-17,-4.0847187342017355e-17,-4.0984226221583245e-17,-1.4118280799224533e-11,-4.410765086071352e-11,-1.7495727180897123e-11,2.3788789924259547e-23,5.910219212746014e-23,8.28320041121873e-25,8.581342975272556e-10,6.786728705731856e-10,3.9471430819654815e-10,2.236394870191323e-10,-4.637058472546686e-10,6.122253490341461e-10,0.0005860360686762134,0.0016873455373950389,0.11712951680635122
188.0,1.7229103914037123e+18,-1.927114725,-0.354145259,0.1265816390514373,-0.001804758,0.00163449,0.3504181504249573,-0.936590254,0.0,0.0,0.0,-1.5033244713931175e-17,-1.0085710813468444e-17,-3.1398305519242046e-17,-2.0992655235106118e-11,-4.8801674448937025e-11,-3.18240682755854e-11,3.883733985111472e-23,6.781792949880266e-23,2.1280572038225615e-23,-4.300706106940708e-11,-6.367866698854561e-10,6.194877079896811e-10,-4.2856613391892984e-10,-3.104563940621232e-10,-2.1589749432156994e-10,0.0006886195303175988,0.0016786335554207878,0.11704745125654462
190.0,1.7229103914127176e+18,-1.927111864,-0.354098707,0.1265973001718521,-0.001900391,0.001392187,0.3505740165710449,-0.93653208,0.0,0.0,0.0,7.745266707888957e-19,1.5603570198499617e-18,1.0927837611697492e-18,3.964078544709749e-13,1.0120288946876876e-12,1.334650320095186e-13,5.048210834376602e-25,1.9375176469086632e-25,1.1053597516381473e-24,1.002029689395891e-12,5.7760082448939215e-11,-3.708068044659172e-11,6.460283215575725e-12,2.9277504724371686e-10,-3.219526243427084e-10,0.0004949658904491874,0.0016849504401981836,0.11714759280523977
192.0,1.7229103914176046e+18,-1.927109718,-0.354104787,0.1265936940908432,-0.001787732,0.001483552,0.3506302237510681,-0.936511099,0.0,0.0,0.0,-7.50315851613489e-20,-4.0875533890693906e-19,-1.4255641781182713e-19,-6.352138730933821e-14,-1.8946295832742947e-12,-1.0395520640634618e-12,-1.1643682380250118e-25,-2.6280384037318916e-25,-1.687205096381515e-25,-3.008649463825563e-11,-5.1236575398022466e-11,-2.4417540695735732e-11,5.972808608275852e-12,-5.953356806738467e-11,3.653576617999613e-11,0.0005877314197613682,0.0016292831192847557,0.11717509634359875
194.0,1.7229103914284884e+18,-1.927122593,-0.354141176,0.1265750676393509,-0.001736448,0.001821054,0.3504472970962524,-0.936579168,0.0,0.0,0.0,4.9072416011942536e-20,1.2736423770899293e-19,5.86231912210119e-20,-4.1765837310427645e-13,-1.8346407164990628e-12,-2.2852580041599837e-13,6.090269308347593e-27,2.3317776869625317e-26,3.271351646804117e-27,1.2947646905947595e-11,-6.130705368583013e-11,3.5990851913400546e-11,1.963981509516738e-11,3.8077880965589904e-11,1.56725125329284e-11,0.0008367952592357804,0.00167806787029461,0.1170570015216564
196.0,1.7229103914399173e+18,-1.927118182,-0.354144037,0.1265902519226074,-0.001835481,0.001706165,0.3504098653793335,-0.936593175,0.0,0.0,0.0,5.492311450813671e-20,8.254289541066359e-20,-8.656170874399211e-20,1.1226034146980322e-12,1.0833617309633572e-12,2.5073154420394845e-13,-5.8997066644836516e-27,-1.3002271852246425e-26,-5.825547944306068e-27,9.193135552079127e-12,2.491918653315735e-11,6.92748437012107e-12,-1.6414554891452175e-11,3.816607806625638e-11,-3.594308945319913e-11,0.0007310151428739503,0.0017183098601526625,0.11705041375852607
198.0,1.722910391447185e+18,-1.927106619,-0.35413,0.1265870928764343,-0.001787171,0.001629474,0.350532054901123,-0.936547697,0.0,0.0,0.0,-1.7584443130407213e-20,-5.3917190099606584e-20,-9.71140211637851e-20,1.1527569088500723e-12,8.847767287698158e-13,-9.721975350569124e-13,-7.974269555942166e-27,-1.1311543011699548e-26,4.4473881819632744e-27,-1.9881462876956753e-11,1.5025102446682622e-11,-3.589532699299772e-11,-4.087046782488918e-12,-1.8090042431232606e-11,-6.669020989050153e-12,0.0006899081378457864,0.0016654629692690961,0.11711480951415355
200.0,1.7229103914582863e+18,-1.927101254,-0.354137927,0.1265671849250793,-0.001770616,0.001689933,0.3505654633045196,-0.93653506,0.0,0.0,0.0,-7.215112094021968e-20,-5.29019443882548e-20,5.229830869918647e-20,5.889930093766884e-13,-1.6472982859401751e-13,-8.436270803291382e-13,-2.774590661173491e-27,2.448604413611828e-27,8.651053460847176e-27,1.0190419871012909e-12,-1.1260898329307862e-11,-6.410557607979236e-12,1.2899613462679823e-11,-5.93636057741538e-12,1.6233103667492216e-11,0.000736669218236855,0.00166921453694173,0.11711467692481707
202.0,1.7229103914698767e+18,-1.927093148,-0.354133189,0.1265688985586166,-0.001809172,0.001684811,0.3505839705467224,-0.936528027,0.0,0.0,0.0,-7.84054861682223e-20,4.0020201559229836e-21,9.438914389116472e-20,-5.058413300122389e-13,-2.740524426201864e-13,2.552420601905606e-13,6.58115374372092e-27,5.919006153981288e-27,-9.114648181634815e-28,5.9177640484028935e-12,3.152381291851863e-12,-3.4291196580132868e-12,2.3673584542747463e-12,1.0674469857965734e-11,1.0212669912250651e-11,0.0007233743612252153,0.0016950235630860875,0.11712621725583637
204.0,1.722910391479034e+18,-1.9271065,-0.354140639,0.1265720129013061,-0.00184993,0.001650905,0.3505237698554992,-0.936550617,0.0,0.0,0.0,3.337999120097358e-20,6.550788925960311e-20,5.3173593102812953e-20,-1.1076708486173817e-12,-1.4020693033591727e-13,1.116564425524712e-12,9.065583341190661e-27,3.526607540783161e-27,-6.589885842062315e-27,5.753758895650783e-12,1.0088041386623604e-11,1.4014782216522067e-11,-8.140011621700142e-12,6.042365941443316e-12,-3.701552871841793e-12,0.0006890725242942072,0.0017148064534706511,0.11709610499310094
206.0,1.7229103914884388e+18,-1.927113533,-0.354135454,0.1265900135040283,-0.001829494,0.001566627,0.3505714237689972,-0.936532974,0.0,0.0,0.0,8.829553221478448e-20,6.786406105785849e-20,-2.897982822069705e-20,1.6343591744196797e-13,9.67418661193633e-13,1.2217588258465935e-12,-1.86469548257901e-27,-5.056061302651213e-27,-9.111001118833725e-27,-1.036225919499739e-11,1.5237113174738493e-11,-1.0832225401696872e-11,-1.3000209944659071e-11,-1.303296246892063e-11,-1.3363364548931536e-11,0.0006352452606152105,0.0016793760882769775,0.11713907538316116
208.0,1.72291039149952e+18,-1.927099824,-0.354119301,0.1265945136547088,-0.00169351,0.00161008,0.3506377041339874,-0.936508298,0.0,0.0,0.0,-3.2954189882863023e-20,-5.744948673879957e-20,-1.348450943408662e-19,5.300054854682884e-13,1.0677795843234543e-12,3.7620531499193106e-13,-6.167308984724319e-27,-7.035516547232227e-27,-4.10935569196078e-27,-2.024666099366736e-11,-1.597788355121766e-11,-1.2711946881341004e-11,8.44006486042665e-12,-7.792005714165718e-12,6.122663657648385e-12,0.0007003388933752447,0.0015952721823790836,0.11717986626337716
210.0,1.7229103915116692e+18,-1.927102804,-0.354111522,0.1265986859798431,-0.001729837,0.001625951,0.350629598,-0.936511219,0.0,0.0,0.0,-4.4283558918800644e-20,-8.600670221203635e-20,-1.1225243514705163e-19,-7.499565663549244e-13,-5.160674805728588e-13,-2.041826479311907e-12,6.468773907719339e-26,6.843910600259058e-27,7.049779311806098e-26,6.517870525855907e-12,-3.4689825359294165e-13,1.4131019135998976e-12,1.1063380598421662e-11,1.4829671357669323e-12,2.1517961508087416e-11,0.0007022307088667459,0.001624751338807192,0.11717904924337576
212.0,1.7229103915221345e+18,-1.927115202,-0.354127347,0.1265558153390884,-0.001714919,0.001693439,0.3504810929298401,-0.93656671,0.0,0.0,0.0,1.2242400589771533e-18,6.850209093606435e-20,1.244280956100186e-18,-6.628706879165266e-13,-1.0162663272256352e-12,-2.434328588196271e-12,-8.127540654242191e-27,7.780665004070226e-27,3.08408520918359e-27,1.8801002031759633e-12,-1.3011949279683794e-11,3.0323976134833826e-11,8.395948930560935e-14,3.695122291917724e-12,-2.269200787847871e-12,0.0007529793638196988,0.0016307232003085503,0.11705836429377585
214.0,1.7229103915390938e+18,-1.927112103,-0.354130954,0.1265602111816406,-0.001788993,0.001657327,0.3505057096481323,-0.936557412,0.0,0.0,0.0,-2.4682298925957662e-18,8.53593706404734e-21,-2.1810433275234245e-18,5.3516190556737037e-11,3.3416784703694933e-12,5.389483579127915e-11,-6.509559437661446e-25,-4.750388765393891e-26,-6.570629244506149e-25,6.685789504467126e-12,7.043346330242507e-12,-3.125299662095845e-12,9.695651476623262e-11,2.4684313153199865e-10,-1.9672343802467601e-10,0.0007089828029186259,0.0016736086135617884,0.1170756525581445
216.0,1.7229103915393656e+18,-1.927097321,-0.35413003,0.1265750974416732,-0.001836904,0.001605372,0.3505517840385437,-0.936540186,0.0,0.0,0.0,-2.6470947565370525e-18,-4.570668057489769e-21,-2.361663778743071e-18,5.28204670437616e-11,3.3429164061044394e-12,5.3277889370162043e-11,-6.415918502316698e-25,-4.7470777646673084e-26,-6.488337497601137e-25,1.957931297356412e-10,4.806743137843135e-10,-3.631228999145182e-10,-1.4469266420954428e-11,-6.026531893503264e-12,1.2168850991281077e-12,0.000660527197818459,0.0016942609938436592,0.11711447955852847
218.0,1.7229103915487946e+18,-1.92710638,-0.354116738,0.12659452855587,-0.001730377,0.001590709,0.3505550622940063,-0.936539233,0.0,0.0,0.0,-3.3633385485404047e-18,-2.1085012452386888e-19,-3.402732305351782e-18,-9.434808663012839e-13,3.161311312366773e-13,7.902661101018138e-13,5.31596813385541e-26,-7.461291236488586e-27,3.446991380641378e-26,-2.225274333744173e-11,-5.0097174567640206e-12,-6.915294638396298e-13,-8.849079787877603e-11,-2.4096456627395196e-10,1.832123138705537e-10,0.0006771570425839801,0.0016159356491714265,0.11713458762960387
220.0,1.7229103915626898e+18,-1.927119136,-0.354134738,0.1265794932842254,-0.001849685,0.001644729,0.3505333662033081,-0.936546981,0.0,0.0,0.0,1.932169073522599e-20,-1.933522874809392e-20,4.294101368274338e-20,2.1033795743154705e-13,-3.579772904659725e-13,-2.181733091137698e-12,6.362113043583066e-26,5.0892599952974426e-27,8.582035379341444e-26,1.881153397808916e-11,-1.2548187635904016e-12,3.301727826589201e-12,3.137722575992959e-11,-4.965092669750568e-12,7.1168871818915026e-12,0.0006848086895220206,0.0017131313837062789,0.11710823437496583
222.0,1.722910391568156e+18,-1.92711556,-0.354134679,0.1265652030706405,-0.001938981,0.00172184,0.350498616695404,-0.936559737,0.0,0.0,0.0,-1.9580610644304265e-20,-1.0210321699560889e-20,1.633652585226042e-19,1.7894639358845088e-13,-4.0092381528794243e-13,-1.3947622778463783e-12,-2.9786924488383094e-27,6.187537000280953e-28,9.4801459430177e-27,4.050170818241744e-11,-1.4939902796265158e-11,1.3542244899943375e-11,-1.1589568887123711e-11,1.5140427626923007e-11,5.115182860589767e-12,0.0007161995378529341,0.0017950713391449023,0.11707544108193928
224.0,1.7229103915772774e+18,-1.927121162,-0.354144603,0.1265710443258285,-0.001966618,0.001590995,0.3504405617713928,-0.936581552,0.0,0.0,0.0,1.624033434271621e-20,-2.0558135742685625e-20,5.879501427898914e-20,-2.1028891334378086e-13,-5.298807135049862e-13,3.905638716170459e-13,1.910832143028539e-27,1.202651691757935e-27,-7.867323257564835e-27,-4.367603796158264e-12,2.9026036490255614e-11,1.3532093547768734e-11,-2.9623037325188085e-11,1.4097798458824654e-11,-5.418052356334111e-12,0.0006172723963219536,0.0017811141724785034,0.11704947909828513
226.0,1.7229103915912658e+18,-1.92711544,-0.354140043,0.1265711486339569,-0.001876291,0.001458256,0.3504228591918945,-0.936588585,0.0,0.0,0.0,-2.8242398529127046e-22,4.639991333486247e-20,2.590181134075407e-20,1.2806688955502104e-12,-9.551870048007587e-13,-1.724426619867002e-12,-7.631817491760952e-27,8.573394061894754e-29,1.380964333424961e-26,-1.8744366467958724e-11,1.325569412138415e-11,2.7061401872751516e-12,5.63629203230564e-13,-4.4457099677391955e-11,-3.222080773836491e-12,0.0005470499836132058,0.0016841375837619943,0.11704080316752881
228.0,1.7229103915974252e+18,-1.927105188,-0.354149401,0.1265558302402496,-0.001802282,0.001627541,0.3504027724266052,-0.936595976,0.0,0.0,0.0,-6.478426667197594e-20,3.4178520145136113e-20,1.5479082564836908e-19,9.890931157158738e-13,-4.610929962615008e-13,-1.084580775335302e-12,-5.269710615391501e-27,-3.903627666166284e-27,1.1214762222596245e-26,-3.2403453896971357e-12,-5.98881628645283e-11,7.087932000095753e-12,8.827142199386689e-12,-7.818250905068146e-13,-1.080382130592196e-11,0.0006844191329256645,0.0016749996072355443,0.11701543648804318
230.0,1.722910391610948e+18,-1.927111864,-0.354124218,0.1265828013420105,-0.001823288,0.001550685,0.3505223393440246,-0.936551332,0.0,0.0,0.0,1.841347433594046e-20,-7.559743731313456e-20,1.8131409791152743e-20,-4.0493736944426503e-13,-1.3658124911306339e-12,2.520122298977105e-12,4.074885913348361e-27,5.576783611922411e-27,-1.4388770715670295e-26,-1.0900820691853447e-12,1.1692043940370522e-11,-1.890150242456877e-11,-2.205815626854416e-11,1.0493613600477321e-11,1.092466205233944e-12,0.0006255127477340336,0.0016707872300558422,0.11710570749840342
232.0,1.7229103916171686e+18,-1.927114129,-0.354141951,0.126599982,-0.001642886,0.001612424,0.3504957556724548,-0.936561465,0.0,0.0,0.0,3.781696149795249e-20,-1.7206308182881896e-21,-8.363021800122322e-20,5.726949118356161e-14,-1.8609496104344563e-12,1.9220389135581518e-12,-9.096269129151268e-28,3.750180087652202e-27,-1.9446014994913752e-26,-4.735665792678546e-11,-3.890093566357365e-11,9.27286441056364e-12,-2.1052508415314915e-12,-5.871798623862187e-12,7.339280070571302e-12,0.000714324309525518,0.0015599154714932037,0.11710744830636696
234.0,1.7229103916312233e+18,-1.927099943,-0.354136676,0.1266003251075744,-0.001607921,0.001599659,0.3505236208438873,-0.936551154,0.0,0.0,0.0,-1.0290478787688273e-19,-2.0705682591747365e-19,-4.549667047313307e-19,-5.698492482025103e-13,5.878338181399203e-13,1.1440987071654258e-12,3.381637731016579e-27,3.2508842059888606e-28,9.395525920875092e-27,-5.3005837522483276e-12,-5.1553307353852877e-14,-4.222942283426165e-12,3.9352591589137e-11,3.303404783632543e-11,-8.425513543544608e-12,0.0007143171147544819,0.001532263880407474,0.11712318822028357
236.0,1.7229103916371226e+18,-1.927107215,-0.354132682,0.1266098469495773,-0.001722645,0.001556986,0.350544274,-0.936543286,0.0,0.0,0.0,-4.9789922048079967e-20,-1.6815806291554645e-19,-3.108535121333298e-19,-1.3212331376536938e-12,-1.5777763330623784e-12,-2.529374824318623e-12,1.0675931692356602e-26,1.8348093502424404e-26,3.6664411280518363e-26,3.1348525251488544e-11,2.716716000907721e-11,-7.578162676525576e-12,1.303815746867482e-11,-1.0456951524802309e-10,3.98933885110523e-11,0.0006553843878516363,0.0016019868853076806,0.11714288366937256
238.0,1.7229103916501673e+18,-1.927127004,-0.354218304,0.1264573335647583,-0.001370495,0.002883171,0.3500844538211822,-0.936712682,0.0,0.0,0.0,1.3771220741934647e-19,4.1024133840648925e-19,5.203559369623019e-19,2.6705298825275684e-13,1.96710830153174e-12,2.4108899516424313e-12,-1.873606691856071e-27,-6.654875105755209e-27,-9.760213802228122e-27,2.077573118510131e-11,-2.0919058380340003e-10,7.556383473867844e-11,-1.772442478115607e-11,1.1765037674687178e-10,-4.4066074508117106e-11,0.001672120925448089,0.0016887750235417898,0.11675061278079056
240.0,1.7229103916582474e+18,-1.927115917,-0.354159713,0.1265473961830139,-0.001727317,0.001883562,0.3504450619220733,-0.936579883,0.0,0.0,0.0,4.125561095652936e-20,1.012430557832324e-19,7.372657452000535e-20,1.4596412210126368e-12,5.975063939445528e-12,7.32433010961548e-12,-1.4079468464213185e-26,-5.157440649269342e-26,-6.664514500881823e-26,-4.100324310823596e-12,2.6246791350282076e-10,-9.571031169275979e-11,-6.753186473918747e-12,1.3022966574679275e-10,-5.3003318631769856e-11,0.0008830063710806127,0.001687379960078942,0.11703025310092832
242.0,1.7229103916673513e+18,-1.927101731,-0.354118407,0.1265748739242553,-0.001840353,0.001676347,0.3505743443965912,-0.936531603,0.0,0.0,0.0,-1.0889284394601184e-19,-5.0504104728432e-19,-6.49629184013912e-19,7.444673173800655e-13,2.847348835267068e-12,2.5143951713736866e-12,-7.276768876917207e-27,-2.658086733101489e-26,-2.7519638396228315e-26,7.2693582372638175e-12,5.126874769018546e-11,-3.0442802524861275e-11,-6.40715570094657e-12,-1.1761311972239934e-10,3.9244951492491194e-11,0.0007094922775654979,0.0017147287535243937,0.11712632701011542
244.0,1.7229103916774047e+18,-1.927103281,-0.354108542,0.1265945583581924,-0.001808876,0.001518136,0.3506553173065185,-0.936501682,0.0,0.0,0.0,-7.973324805390971e-20,-3.280208697821871e-19,-3.4970345917442947e-19,-6.870579432646844e-13,-4.022780396509574e-12,-5.363118746099566e-12,5.67519145839763e-27,3.555453395316409e-26,4.9513121023817044e-26,-1.6914635712716736e-11,2.7241674058022088e-11,-1.7220408707777404e-11,-4.355992041880351e-12,-1.5741800082660657e-10,6.820809083577516e-11,0.0006067038973551161,0.0016529602411158968,0.11718940465143664
246.0,1.7229103916877356e+18,-1.927116036,-0.354203224,0.1264614313840866,-0.001323668,0.002791503,0.3501447737216949,-0.936690569,0.0,0.0,0.0,8.35295395671978e-21,2.298095958161328e-19,3.707321358909626e-19,-8.455792736777361e-13,-3.639171569844071e-12,-4.36992741748211e-12,8.170437431118555e-27,3.8660452153529334e-26,5.053703233821766e-26,-1.4426258464968846e-12,-2.635672539630277e-10,1.0597337914668906e-10,4.019744267890538e-12,4.783259821740282e-11,-1.337126914365711e-11,0.0016201039816623826,0.0016329865206370277,0.1167877598787354
248.0,1.7229103917019459e+18,-1.927120447,-0.354146928,0.1265657991170883,-0.001571244,0.001951023,0.3504362404346466,-0.93658334,0.0,0.0,0.0,1.1749765760150645e-19,4.794217225764437e-19,7.136031976998118e-19,-2.6368015312024243e-13,3.392663989553084e-12,6.265646119678923e-12,-1.0920225202902152e-25,-1.2280257333902462e-25,-2.1774778877889054e-25,-8.87514717693566e-12,1.2290687049282773e-10,-4.3962946995091624e-11,1.6133244729984947e-12,1.3585959427818673e-10,-5.3101044542727816e-11,0.0009696986916673718,0.0015951079269364834,0.11704286855307976
250.0,1.7229103917778322e+18,-1.92712152,-0.354120046,0.1266040652990341,-0.001743053,0.001685036,0.3504437208175659,-0.936580718,0.0,0.0,0.0,-5.553635133638636e-17,-6.572390846452444e-17,-1.1383095553310268e-16,3.967414611035213e-11,3.352570491115148e-11,4.630035060808843e-11,9.438573289756902e-23,-1.8765673821101203e-22,-1.0437575712710844e-22,1.7840230995001051e-12,8.151934593345774e-12,-2.2870993876657054e-13,1.3215696462255951e-10,7.00284978071029e-10,-3.810135276093763e-10,0.0007396739395307316,0.001648349519797817,0.11708206300947067
252.0,1.722910391778304e+18,-1.927102685,-0.354104131,0.126626044511795,-0.001925758,0.00136922,0.3506210148334503,-0.936514437,0.0,0.0,0.0,-1.0725387794984393e-17,-1.5480976659226085e-16,-1.6337801788964295e-16,1.3307198739436474e-11,2.322681702550694e-12,-7.741460834756042e-12,-2.951608965469004e-23,8.718321146783637e-23,-3.8783535639472914e-23,2.554387820681834e-10,1.5234768266348857e-09,-8.059900022138442e-10,3.233267736218663e-10,-7.243456168510388e-10,-1.3169193803011008e-10,0.0004724576160057114,0.0016971810886667908,0.11719966882338995
254.0,1.7229103917785715e+18,-1.927103162,-0.354108274,0.1266157329082489,-0.001939475,0.001580017,0.3506543040275574,-0.936501682,0.0,0.0,0.0,-3.750548305879021e-17,-8.962082418444107e-17,-1.6370691714495692e-16,1.728803720510685e-11,-5.254280036070407e-11,-5.885612417968328e-11,-2.0986247803399812e-22,6.116098525664425e-22,4.50020040032624e-22,6.484375703432327e-10,-1.4405392991087318e-09,-2.636125859989867e-10,-1.3889311581891392e-10,-2.104416857405926e-09,9.322745466694132e-10,0.000616951069314077,0.0017602814425978395,0.11720750017570898
256.0,1.7229103917788063e+18,-1.927095175,-0.354128242,0.1265977323055267,-0.001826297,0.00187452,0.3505385220050812,-0.936544657,0.0,0.0,0.0,-1.0938090186085819e-16,1.2974876594118932e-16,3.4892536497178284e-17,-2.307846821193195e-12,-4.9795234774558484e-11,-9.165021355039908e-11,2.086757250506056e-23,4.252586268478388e-22,7.789823385932677e-22,-2.234744956964445e-11,-2.6853568881769666e-09,1.0585590911249822e-09,-6.429646984632725e-10,8.532693593358261e-10,1.068244400338358e-10,0.0008517842851656695,0.0017549957654679918,0.11712702730355216
258.0,1.7229103917790472e+18,-1.927104712,-0.35413152,0.1265719532966613,-0.001765627,0.001817587,0.3505442440509796,-0.936542749,0.0,0.0,0.0,-2.350856355698288e-17,1.06313472157024e-16,2.0598022375834877e-16,-3.506126953945908e-11,1.0641455158614204e-11,-4.008613152376878e-11,4.13455691872511e-22,-3.938017714129754e-22,1.8823605571209943e-22,-6.374918265833123e-10,2.659994195629205e-10,-4.996370593131513e-11,-1.8277762242589025e-10,2.4366724684782438e-09,-6.319408858844684e-10,0.0008273420415168166,0.001697972653642428,0.1171070167805052
260.0,1.722910391779308e+18,-1.927112579,-0.354121894,0.1265804022550583,-0.001818331,0.00153253,0.3505689203739166,-0.936533988,0.0,0.0,0.0,1.0044470265133375e-16,-8.017773410733173e-17,1.0763219670628051e-16,-9.426310548636165e-12,-2.464197442789029e-12,1.1366741554995004e-11,1.4895279112824574e-22,-2.5091306814472057e-22,-2.886413728848725e-22,-3.8790269442142494e-10,2.187988048779521e-09,-2.053226806439545e-10,-1.2937252360624773e-10,-2.948977740949208e-10,2.78706222825454e-10,0.0006141915055019527,0.0016628779651954371,0.11712906857773674
262.0,1.7229103917795377e+18,-1.927110553,-0.354130417,0.1265787631273269,-0.001708837,0.001531379,0.3505145609378814,-0.936554492,0.0,0.0,0.0,6.870887275248753e-17,-4.4005791730761614e-17,5.92134297973727e-17,1.4078713548212185e-11,-2.6927282162772393e-11,1.7969238546302883e-11,-1.4273935751174356e-22,2.0239692190877615e-22,-7.537760068269664e-23,-8.962368737958078e-10,-3.23796128626921e-10,5.074487397195928e-10,-1.63940253585594e-11,-1.0304693118364742e-09,2.84823344725467e-10,0.000640942989613746,0.0015856252853688978,0.11709828483353532
264.0,1.7229103917798682e+18,-1.9271034,-0.35413447,0.1265966445207595,-0.001650996,0.001487452,0.3504582345485687,-0.936575711,0.0,0.0,0.0,1.937630257430515e-17,4.4231262353364865e-17,9.874251736721019e-17,2.0780324088664208e-11,-1.1729721051109689e-11,5.202819268446028e-11,-1.4349157678354408e-22,2.562570643313508e-22,1.143933905996694e-22,-4.2069074513854374e-10,1.270494251065726e-10,3.6432400880697955e-10,4.6390208001004066e-10,1.8532197237550057e-10,-2.609601168697044e-10,0.0006245645837237526,0.001533823752401018,0.11708426214807935
266.0,1.722910391787929e+18,-1.927105546,-0.354124099,0.1266077756881714,-0.001836417,0.001355102,0.3505123555660248,-0.936555326,0.0,0.0,0.0,-1.545439424999876e-18,9.400987809561017e-19,-3.858561898073336e-18,-1.9927055011927287e-13,1.9126171666488742e-13,2.95771823002326e-13,-1.5353123357222758e-24,-3.3048234950667762e-24,-7.649264026119172e-24,3.1567286224273594e-11,4.6847816124080095e-11,-1.4471494019816012e-11,2.1397583208866016e-10,-7.338777164022862e-11,-1.801274945479827e-10,0.0004849556588803951,0.0016305073195093988,0.11712385430639415
268.0,1.7229103918005478e+18,-1.927106738,-0.354143322,0.1265900731086731,-0.001835663,0.00148777,0.3504884839057922,-0.936564088,0.0,0.0,0.0,2.2459020996895394e-20,4.191710240012953e-20,-5.516852461424921e-20,1.1825600109887008e-12,1.411627374476955e-12,2.1574204873417353e-12,4.7018514250764104e-26,-4.015658335299157e-26,1.228981057717371e-25,7.260919038776555e-12,-1.9726118173884642e-11,4.069019711014159e-12,-1.3548069200318807e-11,-2.2901633987559074e-11,-1.0547499325293177e-11,0.0005781454679495124,0.001663432076922757,0.11709405641638025
270.0,1.722910391810244e+18,-1.927085757,-0.354107767,0.1266375184059143,-0.001857996,0.001490308,0.3506499230861664,-0.936503589,0.0,0.0,0.0,-9.706991829278259e-20,-1.1632053097972544e-19,-1.9352469436280504e-19,7.517745814525758e-13,1.4098222713510283e-12,1.1226253794402597e-13,-4.4222400145770254e-27,-6.776653054825956e-27,5.3335255423141185e-27,4.471147823635981e-12,1.0445481489619442e-12,-3.556649267040237e-11,-9.622765699095325e-12,-1.1224139141502165e-11,5.541677272718267e-12,0.0005745752219468804,0.0016804709134864001,0.11722577416096693
272.0,1.7229103918182643e+18,-1.927089095,-0.354111433,0.1266067028045654,-0.001753594,0.001631954,0.3505933880805969,-0.936524689,0.0,0.0,0.0,-8.009570266784325e-20,-1.0736479867083395e-19,-2.0707229554622523e-20,-3.759690155620032e-13,-2.9351821760669597e-13,-1.3244339720946635e-12,5.413547323958788e-27,7.177731801609444e-27,1.6264840591554556e-26,-1.1984612359414096e-11,-4.217439645688897e-11,1.5152374256450693e-11,4.9927314171552496e-12,2.527032059112631e-11,1.7246916677158673e-11,0.0007002789777526687,0.0016428302926630397,0.11716646942077862
274.0,1.7229103918276966e+18,-1.927092195,-0.354112387,0.1266221404075622,-0.001902748,0.001428007,0.3505975902080536,-0.936523199,0.0,0.0,0.0,7.541697727870989e-21,2.757375389358679e-20,7.410486789982523e-20,-4.601423061684012e-13,-1.4127224017635937e-13,2.376855710208895e-13,4.613977342828074e-27,6.642562424181252e-27,2.166468341623464e-27,1.445661065794648e-11,5.158518933121457e-11,-1.0726593160850204e-12,7.64513741695542e-12,4.5191039501334045e-12,-2.6254277318323886e-12,0.0005194574103441632,0.0016958331456872085,0.11718311169517874
276.0,1.7229103918381297e+18,-1.927098513,-0.354114324,0.1266084760427475,-0.001858221,0.001596034,0.3505495190620422,-0.936541021,0.0,0.0,0.0,1.704981505963826e-21,8.440762049978609e-21,5.711407513726162e-21,-1.9144805388454562e-13,2.783395298077627e-13,-4.517665937469163e-14,4.804273171560368e-28,-2.8299534430974386e-27,-3.688062565802371e-27,3.305662474496745e-12,-3.313618855662216e-11,9.901518792785916e-12,-8.649092019100977e-12,-2.553127241704428e-11,-1.1320266131980342e-12,0.000648452535235954,0.0017069406495302487,0.11714379149433984
278.0,1.7229103918478817e+18,-1.927096605,-0.35410738,0.1266195625066757,-0.001846164,0.00158876,0.3505647778511047,-0.936535358,0.0,0.0,0.0,1.5869159039126456e-20,-2.8236814383352096e-20,-4.116744866023641e-21,-3.9404287684074167e-13,7.097304069107478e-14,3.097265862295501e-13,1.6992407164994322e-27,-6.822869275520529e-28,-1.0890204051449679e-27,-2.8415733802554738e-12,5.226444971260141e-13,-3.336712542481089e-12,-9.24606852444709e-12,1.4796686927757154e-11,-1.811111238261527e-12,0.0006464132165595164,0.0016967371514570691,0.11716238129290238
280.0,1.7229103918614364e+18,-1.927113056,-0.354118496,0.1266081780195236,-0.001741287,0.001575244,0.3505251109600067,-0.936550379,0.0,0.0,0.0,4.355179261690312e-20,2.051829158742008e-20,-2.0408231744279884e-20,5.114288180006692e-13,-4.431391825470093e-13,-5.092740355783445e-13,-3.44052345093756e-27,3.459729078825103e-27,4.30745060271818e-27,-1.5186474574397434e-11,-3.542814701107855e-12,6.279296316262862e-12,-1.3275269718313065e-12,-1.7732133825148773e-11,-1.0898890935199266e-11,0.0006634100248839145,0.0016196078914023138,0.11713073170451935
282.0,1.7229103918682606e+18,-1.927103639,-0.354120225,0.1266058385372162,-0.001682066,0.00168018,0.3506056666374206,-0.936520159,0.0,0.0,0.0,1.2357894202614295e-21,4.365680839744146e-20,2.791504165478066e-20,7.287564686548274e-13,-1.0231301518353579e-13,-5.110693340389994e-13,-2.8367623840174432e-27,3.0568766850149327e-27,4.9198276521817386e-27,-5.496627323918087e-12,-3.494162315317153e-11,-2.513449441287962e-11,1.485039591748504e-11,2.1665410738374485e-12,-1.5078630968597406e-12,0.0007522508672101697,0.0016049256270940088,0.11717253630651114
284.0,1.7229103918796326e+18,-1.927107692,-0.354118526,0.1265968382358551,-0.0017609,0.001704938,0.3505881428718567,-0.936526537,0.0,0.0,0.0,3.2728390331906314e-20,7.209428002374692e-20,4.2904534475046603e-20,1.6271314400308275e-13,2.7501056907361036e-13,3.4037608782329673e-13,-3.043925529457672e-28,-1.847579663744017e-27,-5.5179061508876205e-27,1.4514317260572641e-11,7.902674465670418e-13,3.2635701225433807e-12,-1.6395614855171422e-12,2.0960400506953787e-11,1.4516792499228215e-11,0.000749622215787784,0.0016663816131514207,0.1171542616035375
286.0,1.7229103918891873e+18,-1.92710197,-0.35411489,0.1266091763973236,-0.001733294,0.001659047,0.3505707383155823,-0.936533272,0.0,0.0,0.0,5.145093041066336e-21,1.9534643187735838e-20,-6.46952378952623e-20,1.1377412885552004e-12,1.2762441385194563e-12,4.936890111555838e-13,-1.0339608361133128e-26,-2.435721607133878e-26,-3.2186963261190545e-26,-8.775750294952371e-12,6.979177860736043e-12,3.89909058557681e-12,-1.3921339120721955e-11,1.5278195855450249e-12,-1.603114746503114e-11,0.0007243330247183981,0.001635386192114865,0.11715633897903394
288.0,1.7229103918979523e+18,-1.927087665,-0.354096502,0.1266070902347564,-0.001684708,0.001622566,0.3506889641284942,-0.936489046,0.0,0.0,0.0,-1.4540404732936292e-19,-3.455675992708329e-19,-5.150620241730051e-19,4.0370225179537903e-13,7.619745378849157e-13,-7.225543914633665e-13,-3.0417634341799197e-27,-1.0468609698189545e-26,-5.525470468081563e-27,-1.3328360980871269e-11,3.845906617657092e-12,-2.8798724807518895e-11,-1.892168137992798e-12,-1.2721594441929021e-11,1.1657479415149143e-11,0.0007114476885619339,0.0015924743997847196,0.11721944756015217
290.0,1.722910391911183e+18,-1.927106857,-0.354113102,0.1265878528356552,-0.001563767,0.00170812,0.3505207002162933,-0.936552107,0.0,0.0,0.0,9.664959500094784e-20,1.3878432150863943e-19,3.2770595034790147e-19,-2.7515406487689737e-12,-9.540097335868362e-12,-1.5052809969241052e-11,2.315591708151655e-26,7.067337139351486e-26,1.1254082181118073e-25,-1.2560086570937967e-11,-1.8464011023122e-11,2.7214049415875096e-11,2.9889885265851084e-11,-2.019737247463343e-10,8.98477066149456e-11,0.0008015634491445156,0.0015287204894346227,0.11711000872800516
292.0,1.7229103919175977e+18,-1.927128553,-0.354200065,0.1264490038156509,-0.001252666,0.002962922,0.3500688672065735,-0.936718464,0.0,0.0,0.0,2.6030356963023496e-19,6.980667281078122e-19,1.2015095735895757e-18,-1.0893555593442498e-12,-5.796727514022233e-12,-8.56322228686539e-12,7.056928058472853e-27,3.7763447785159207e-26,5.435621280140538e-26,4.6451409550830896e-11,-4.001015428750115e-10,1.508966884223723e-10,2.041932280044247e-11,1.243715103463493e-10,-5.775443389968903e-11,0.0017576913280709613,0.0016263565227450367,0.11673526536032824
294.0,1.7229103919279734e+18,-1.927101374,-0.35412997,0.1265797168016433,-0.001809653,0.001894651,0.35049569606781,-0.936560631,0.0,0.0,0.0,2.3783613985446107e-20,2.6038820506423064e-19,3.915690142717469e-19,1.6312403641810152e-12,3.3677470891355695e-12,7.088934349225719e-12,-1.7752818952040694e-26,-4.4234597661041314e-26,-7.829822406699878e-26,2.8278559029946972e-11,2.302790096695766e-10,-8.829481838350296e-11,-3.231019223863165e-11,2.3456537015715615e-10,-8.877654058601658e-11,0.0008700150386104094,0.0017482008402652004,0.11708710531362689
296.0,1.722910391937396e+18,-1.92709446,-0.354127228,0.126599371433258,-0.001843709,0.001559836,0.3506128787994385,-0.936517358,0.0,0.0,0.0,-1.0034252664338783e-19,-1.7397098928823912e-19,-3.4822934820427824e-19,-1.84874303721336e-13,4.912897041319944e-13,1.2205265181120503e-12,-2.912829063452059e-27,-1.774097331976109e-26,-2.756978204677299e-26,-1.81689749264324e-11,6.902919743930075e-11,-2.665639274966086e-11,-1.0625061534761918e-11,-1.0396842915222417e-10,5.5399798163799465e-11,0.0006269796111939251,0.0016878055559331466,0.11717030071057544
298.0,1.722910391948031e+18,-1.927107453,-0.354119599,0.1266019642353058,-0.001920178,0.001461898,0.3505005538463592,-0.936559498,0.0,0.0,0.0,-8.160298161436346e-21,-2.226928003656425e-20,-2.9937950067632486e-20,-1.4292609180526854e-13,2.1717388021515867e-13,8.129157233884491e-13,2.6206436684169575e-27,9.7470685628058e-27,1.6863348033415008e-26,7.0284359604231365e-12,2.2342151365128264e-11,2.250477794409597e-11,1.719974599469315e-12,-2.878140663693117e-11,6.296867572400755e-12,0.0005386017261701345,0.0017162060640654412,0.11711133307117091
300.0,1.722910391962423e+18,-1.927088499,-0.354126215,0.1266247481107711,-0.00184998,0.001347276,0.3505952954292297,-0.936524272,0.0,0.0,0.0,-8.822076367708163e-20,3.003041735505604e-20,-4.1704349770927124e-20,-4.961244415800399e-13,-3.505103330616898e-14,5.454403997295689e-13,4.8612338846607286e-27,4.584187904838311e-28,-5.580357797236257e-27,-1.472902572749377e-11,1.146638416543841e-11,-1.406265760485935e-11,-4.4264893187793325e-12,-9.709550758852704e-12,-4.840995635083872e-12,0.000476195703700322,0.0016383862705369333,0.1171847663377518
302.0,1.72291039196916e+18,-1.927097559,-0.354125112,0.1266251504421234,-0.001847618,0.00133598,0.3505548238754272,-0.936539412,0.0,0.0,0.0,-2.2598596458731662e-20,2.310468777593574e-20,-9.43182478704651e-20,-1.2912738359162676e-12,3.172289500990646e-13,1.9157477050480014e-13,1.1088896301745905e-26,-1.4300228251937437e-27,-2.755761132485398e-27,-1.824542677135528e-12,2.9230498474228575e-12,1.2822786673928225e-11,1.4013066766096385e-11,-1.8276402920320672e-11,3.6512901628530805e-12,0.00046876349221483673,0.0016337208688788243,0.11716304770562345
304.0,1.7229103919780472e+18,-1.927108407,-0.354120493,0.1266283988952636,-0.001863918,0.001461039,0.3505831062793731,-0.936528683,0.0,0.0,0.0,9.175794631283219e-20,5.682645476047791e-21,-5.955531217216157e-20,-3.7327831478018277e-13,1.8038229767440493e-13,-1.136629865041698e-12,3.982163711554895e-27,-1.1554084949766132e-27,6.4162349156230354e-27,1.3297107804699e-11,-2.5086421675202935e-11,-6.7600772791531895e-12,5.161736544572184e-12,-1.9056915553170478e-11,-3.971283981214206e-12,0.0005523874183124723,0.0016769351691218327,0.11718093986719096
306.0,1.722910391987594e+18,-1.927103281,-0.354122251,0.1266021430492401,-0.001842987,0.001632622,0.3505615293979645,-0.936536491,0.0,0.0,0.0,3.865515123166934e-20,2.9068414268500296e-21,2.7384981025578485e-20,3.8441837654864847e-13,4.5081817602483846e-13,-7.833089814310231e-13,-5.7962934124670616e-27,-2.2312115583791642e-27,5.592211691664913e-28,8.49893041200884e-12,-3.51907812589181e-11,4.880218711499813e-12,-1.1639891385278544e-11,1.2695359932411018e-11,6.339899445628364e-12,0.0006780248394236393,0.0017055483976166487,0.11714447741749408
308.0,1.7229103919979008e+18,-1.927101016,-0.354110539,0.1266159564256668,-0.001795307,0.001613175,0.3505330383777618,-0.936547279,0.0,0.0,0.0,-2.3688870129884718e-20,-4.1682022714258984e-20,-6.196341420618578e-20,3.2981362611570373e-13,1.979125073598558e-13,-6.081532465146327e-13,-4.952540032681881e-27,-4.514247687512467e-28,2.3225116886514794e-27,-9.98267496585809e-12,3.0429818961910116e-13,5.91972161210354e-12,6.502423168653378e-13,1.2364104565166152e-11,-1.1131362721015491e-12,0.0006763210192503701,0.0016671369983339323,0.11714183488777667
310.0,1.7229103920084165e+18,-1.927096367,-0.354118526,0.1265886574983596,-0.001824256,0.001682781,0.350519984960556,-0.936551988,0.0,0.0,0.0,-6.40065959685206e-20,-4.857727926910679e-21,8.038419075889592e-20,-1.1660523881352477e-13,-4.243422519568067e-13,-2.106866048522253e-12,4.123073003295439e-28,3.621039389361251e-27,1.1719591545878351e-26,9.799415045739515e-12,-1.0462572128585794e-11,2.6539461672967144e-12,-1.4367781118594912e-12,3.523293716918788e-12,-1.876515545430542e-12,0.0007178452257440514,0.0017049191726379081,0.117109286059899
312.0,1.7229103920173153e+18,-1.927101612,-0.354119778,0.1265735924243927,-0.001782131,0.001632116,0.3505109846591949,-0.936555505,0.0,0.0,0.0,-2.836023983199092e-20,2.8262903405424113e-20,1.7099119317745342e-19,-8.485015799621086e-13,-5.85411679523563e-14,2.870553375124561e-13,5.0271311933931785e-27,1.7291727558237086e-27,-2.815288707487972e-27,-1.2856231189577072e-11,7.350885623456677e-12,2.166690521242456e-12,-3.8172799216388554e-12,2.419931044578838e-12,6.819336577391925e-13,0.0006930157099878436,0.0016624793197536837,0.11709092453315345
314.0,1.7229103920279245e+18,-1.927113891,-0.35411936,0.1266016811132431,-0.001782397,0.001664113,0.3504910767078399,-0.936562955,0.0,0.0,0.0,3.7892112497911806e-20,2.140334249961998e-20,-2.3268033343810318e-20,-4.678150471831946e-13,7.885303874342568e-14,8.612919674094783e-13,2.1833825650841402e-27,-1.2376961141677562e-27,-9.285351025860558e-27,2.164855202461804e-12,-5.622710039428118e-12,4.017813482775099e-12,5.7477456582503725e-12,-1.0660287078192409e-11,-1.1316578426617656e-12,0.0007152129847100142,0.0016707882713699008,0.11710567031851116
316.0,1.7229103920377382e+18,-1.927112222,-0.354118228,0.1265939176082611,-0.001752119,0.001725971,0.3504916429519653,-0.936562657,0.0,0.0,0.0,2.2449482424599516e-20,3.890648104928499e-21,-3.246163599681909e-20,-7.771079767817969e-14,3.656348838780737e-13,-6.964283820312343e-14,-2.414407457202697e-27,-3.441428628671215e-27,-1.3112790415700485e-27,-1.3607398730763271e-12,-1.396968853292814e-11,-9.662516408107524e-14,-8.556972172882214e-12,1.6168736966753093e-11,-1.5452607605022165e-12,0.0007662707265128809,0.001665201764623238,0.11709877654695101
318.0,1.7229103920481994e+18,-1.927115798,-0.354111612,0.1266012340784073,-0.001727854,0.001567704,0.3504869937896728,-0.936564744,0.0,0.0,0.0,-1.2184534522726357e-20,-5.058766501268829e-20,-5.03550205293494e-20,-3.579450881262025e-14,1.2385296178696003e-13,2.865958324179441e-13,-2.5312687186415684e-27,-6.212855387949396e-29,1.951407220487375e-27,-1.4949089143302626e-11,2.6714763894078066e-11,9.272919617706663e-13,4.373392654837746e-12,1.1626411605621399e-11,-1.8780725307101778e-12,0.0006614299309123654,0.0016081279235974928,0.11710360535191866
320.0,1.7229103920641966e+18,-1.927108884,-0.354122072,0.1265957206487655,-0.001809257,0.001518815,0.3505156338214874,-0.936553955,0.0,0.0,0.0,-3.3610221732402694e-20,7.429263666890803e-20,7.044141848189826e-20,-6.267991704450072e-13,-1.3575319341621417e-12,-2.5838088636966365e-12,9.537293617970302e-27,1.6727340982384627e-26,3.105509021129155e-26,7.386045436599165e-12,9.28313467831466e-12,-3.852770225501431e-12,4.375151215118929e-12,-1.3929352029566519e-11,9.095312154411688e-12,0.0006066551133615583,0.0016528974397547024,0.11711406227130847
322.0,1.722910392067106e+18,-1.927111268,-0.354126394,0.1265870183706283,-0.001800186,0.001517263,0.3504895865917206,-0.936563671,0.0,0.0,0.0,-1.067136657818396e-22,1.2768031299103795e-19,1.7323137207763446e-19,-7.228218842001029e-13,-1.0530699341691804e-12,-2.2466444052917914e-12,9.863664909755988e-27,1.290853874986525e-26,2.7088198881559376e-26,-6.198786713064768e-12,-1.1439401650549716e-12,1.9117916270594043e-11,-2.0986103544479035e-12,-6.423551833578256e-12,-1.5306103380093783e-12,0.0006078160698400726,0.0016460252356543304,0.11709188569615149
324.0,1.7229103920778355e+18,-1.927115202,-0.354120582,0.1265923678874969,-0.001809563,0.001541099,0.3505243360996246,-0.936550617,0.0,0.0,0.0,4.036692703505045e-20,5.088024270406473e-20,1.3776709393311728e-19,5.777165042455914e-13,1.228290727202226e-12,1.881080251154627e-12,-2.3531665593189078e-27,-1.2110667513888035e-26,-1.6148521558085385e-26,3.188824727703358e-12,-3.5639689888418526e-12,-6.913990901520188e-12,2.3440845811767603e-11,1.771898009357408e-11,-2.3850093622762546e-11,0.0006222386280286817,0.0016587752422253326,0.11711566142084989
326.0,1.722910392087718e+18,-1.927100897,-0.354102194,0.1266235411167144,-0.002057445,0.001452605,0.3506559729576111,-0.936500967,0.0,0.0,0.0,-3.86418358420009e-20,-1.1388298667046763e-19,-1.3871925759657163e-19,2.4077586265531825e-13,2.5887830140956386e-13,9.948444462550928e-13,-3.3252671226185e-27,-7.008988264314103e-27,-1.1689030027616725e-26,4.068290491047044e-11,3.429402002209319e-11,-2.8582270974931053e-11,-4.754431984396468e-12,-6.775193943962479e-12,1.320271771047515e-11,0.0004976935688794045,0.001810779724019016,0.11721565516464663
328.0,1.7229103920974853e+18,-1.927110195,-0.354115129,0.1266124099493026,-0.001999093,0.001520252,0.3505670428276062,-0.936534286,0.0,0.0,0.0,-2.6041134881253605e-20,-8.905351193487789e-20,-9.564271740955088e-20,-1.805483785643507e-13,-1.0058779476491254e-12,-8.335159867370628e-13,-2.806283842551886e-27,-4.186421536461236e-27,-1.0074226016690398e-26,-6.320039241089577e-12,-1.711435687676681e-11,1.9491444519430113e-11,-2.8536624172337092e-11,-2.055736633684376e-11,1.5363539309253027e-11,0.0005596875331617923,0.0017865987320462575,0.11715671901167232
330.0,1.722910392111447e+18,-1.927097321,-0.354122818,0.1266068816184997,-0.001875221,0.001524763,0.3505532741546631,-0.93653965,0.0,0.0,0.0,-1.4697329623667313e-19,-2.817846370548796e-19,-5.253645438960469e-19,-2.0296986936569745e-13,-1.442278360771393e-12,-3.4183914168011966e-13,1.1451293108833448e-27,1.6167075479993514e-26,1.3800225425166164e-26,-1.6390343434203746e-11,-6.82071265159433e-12,2.144807643575e-12,-3.009165078292148e-11,-1.7343604774162285e-11,-4.848297999160646e-12,0.0005941964295044358,0.0017008215199225845,0.1171445935721224
332.0,1.7229103921171817e+18,-1.927101135,-0.354133189,0.1266050487756729,-0.001644524,0.001597076,0.3505275547504425,-0.936549664,0.0,0.0,0.0,-1.1730681139429133e-19,-1.184757988377107e-19,-3.412215015501138e-19,-1.3882180631851992e-12,-3.648324148422901e-12,-4.675048732301149e-12,1.2303488810192129e-26,3.2844780969163664e-26,5.023903676776453e-26,-6.650334080693253e-11,-5.180156642509138e-11,9.79484852110882e-12,1.2913051820096548e-11,-1.060416713167987e-10,4.384897318146173e-11,0.0007032354828317958,0.001557298352107995,0.11712952543526042
334.0,1.7229103921287424e+18,-1.927134037,-0.354218245,0.1264494955539703,-0.001251237,0.002802103,0.350042849779129,-0.936728716,0.0,0.0,0.0,1.9110633829789582e-19,3.6301460812234857e-19,6.620729302378705e-19,-6.614286939383058e-13,1.1862294728796e-12,1.0379708118832334e-12,7.203601097791765e-27,-6.4541818742382636e-27,4.753172327607416e-27,9.43576020598935e-12,-2.1890405528519172e-10,8.984275400649846e-11,2.222292596933945e-11,1.3513238146741193e-10,-5.26269748898003e-11,0.0016453051683614187,0.001584622815311057,0.11672178819027527
336.0,1.7229103921383493e+18,-1.927122951,-0.354138643,0.1265751719474792,-0.0015206,0.001781457,0.3504711389541626,-0.936570704,0.0,0.0,0.0,1.0484269828342573e-19,-8.301213635753725e-20,5.285107439125706e-20,2.19828650788115e-12,4.233208122198395e-12,8.738823525300905e-12,-1.6713772003911586e-26,-3.3986908216264824e-26,-6.569938042895859e-26,-2.2057488868253633e-11,2.1846319650973247e-10,-9.545910125849177e-11,2.3550778129830452e-11,1.54448282182161e-10,-5.760073128898129e-11,0.0008637673767674128,0.0015168298616182352,0.11707126992365695
338.0,1.722910392147383e+18,-1.927094221,-0.354134828,0.1266172230243683,-0.001902438,0.001490082,0.3505772948265075,-0.936530769,0.0,0.0,0.0,-1.1184705729360678e-19,-2.8435937482488487e-19,-5.60064895574207e-19,1.5073659629346777e-12,8.389529419789446e-14,2.855878993154495e-12,-9.999412298715398e-27,-5.0816951165154e-27,-3.1053161196648674e-26,5.653731646565026e-11,8.999250907913028e-11,-2.5358708571464118e-11,2.057471775507231e-11,-9.985728756021742e-11,5.220382252264553e-11,0.0005630215163540874,0.0017112440602560757,0.11716724702905382
340.0,1.7229103921626778e+18,-1.927114487,-0.354142308,0.1266143172979354,-0.002089337,0.00140712,0.350512683391571,-0.936554611,0.0,0.0,0.0,9.741689875633188e-20,8.348498376563735e-20,-8.222428541549057e-20,-1.1190734219104182e-12,2.6513562814811544e-13,-3.3496940701612894e-12,1.5323659867557324e-26,6.745871080055069e-27,3.481721928900228e-26,1.909194664189099e-11,1.8748621389297636e-11,8.948543786799283e-12,-3.752881333228426e-11,-9.309005402521035e-11,1.7367903309831754e-11,0.00045735263059303667,0.0018210023194932539,0.11712889393347492
342.0,1.7229103921680292e+18,-1.92712009,-0.354139477,0.1265904754400253,-0.001952679,0.001630844,0.3504897654056549,-0.936563075,0.0,0.0,0.0,1.824939381818704e-19,8.718408007698074e-20,1.107912725788932e-19,-9.382035183941693e-14,8.460283298805171e-13,-3.183975321549515e-12,9.146713600958945e-27,-1.4500183565831516e-27,2.7618322785266375e-26,-1.852031019891826e-11,-9.618759897129043e-11,9.377098048199389e-12,-3.079790338073187e-11,-3.10545363108495e-11,-1.2876299235953426e-11,0.0006488154439773193,0.0017816875865366499,0.1170940771387716
344.0,1.7229103921771456e+18,-1.927106142,-0.354126841,0.1265811920166015,-0.00170208,0.001747898,0.3505622148513794,-0.936536312,0.0,0.0,0.0,1.6102961548235852e-19,4.071086057106682e-20,2.313445010295384e-19,1.4286822337863314e-12,1.3090289349314607e-12,-9.342672552094573e-13,-2.2045888375453535e-26,-4.7339594588607367e-29,-1.4037710196719988e-26,-4.250386011957275e-11,-4.3360451232401364e-11,-1.680405468510757e-11,8.757632768741707e-12,5.0212707367291785e-11,-5.3266901216303665e-12,0.0007946006498626661,0.0016358726236560363,0.11712585031620826
346.0,1.7229103923074412e+18,-1.927108645,-0.354099751,0.1266159862279892,-0.001737689,0.00146624,0.3506397306919098,-0.936507761,0.0,0.0,0.0,-3.938154850645214e-17,9.439607897877351e-18,-5.236502214960579e-17,1.1279367640825753e-11,-1.2151750042942196e-11,4.727190040280322e-13,3.945827990773057e-23,-6.408152325346173e-23,3.546474259306303e-23,-1.0050446614348464e-12,4.237815763293142e-12,-1.2762821950613446e-12,-2.279691617867975e-11,5.6307968873353395e-11,9.142726045824178e-11,0.0005882115980649285,0.0015899051230929351,0.11720100209886666
348.0,1.7229103923087905e+18,-1.927093267,-0.354116321,0.1266166269779205,-0.001698244,0.001401834,0.3505347967147827,-0.93654716,0.0,0.0,0.0,1.4418158289503908e-17,-7.792697711992661e-17,-4.008506411180886e-18,-4.241254283557659e-11,7.191878333288919e-13,-7.09193111886536e-11,1.7452411465605462e-22,1.4106368392099565e-22,3.5530002904296438e-22,-8.809769247693225e-11,6.925548651430543e-11,1.66050466231376e-10,-1.0559692469394193e-11,-2.1185152314150341e-10,8.06617498851311e-11,0.000552736642644273,0.0015455788313000964,0.11714456344794857
350.0,1.722910392309089e+18,-1.92710948,-0.354115248,0.1265907436609268,-0.001673173,0.001459349,0.3505125343799591,-0.936555445,0.0,0.0,0.0,7.540417177110299e-17,-2.2230337713158118e-17,1.2314146102225226e-16,-3.452938116334269e-11,-2.831708102475351e-11,-6.888701724719143e-11,1.3982361151520726e-22,2.8218853078977733e-22,3.0659511632113543e-22,-2.2124429600223234e-11,-4.194652305197137e-10,1.6004721757520084e-10,8.767663569038328e-10,-3.4822282914435083e-10,2.675426398988065e-11,0.0005994296420148258,0.0015424169792950468,0.11710855132377564
352.0,1.7229103923094052e+18,-1.927113771,-0.354134887,0.1265749335289001,-0.001884939,0.001644543,0.350479781627655,-0.936566949,0.0,0.0,0.0,9.80159614696612e-17,9.899909719526943e-17,1.801000088744899e-16,5.717177657841102e-12,-1.0215192268217612e-11,9.001741948227236e-12,-7.390559323314016e-23,1.4125717101621344e-22,-1.4904674691029063e-22,1.6654350213307334e-09,-6.271901717743962e-10,2.195589942111373e-10,3.800107984045177e-12,7.262759131532856e-10,-4.9884216476914e-10,0.000675594438074052,0.0017375827343734291,0.11707460883502556
