seq,timestamp,px,py,pz,ox,oy,oz,ow,lx,ly,lz,ax,ay,az,vx,vy,vz,jx,jy,jz,wx,wy,wz,aa_x,aa_y,aa_z,roll,pitch,yaw
164.0,1.7229107410963812e+18,-1.526024699,-0.469045401,0.2087081670761108,-0.03670853,0.032770108,0.3014349639415741,-0.952216148,0.0,0.0,0.0,1.4904376059313144e-18,2.7839429382881676e-19,5.2969353604038615e-19,2.5033766472302535e-11,5.3672458491660265e-12,1.3151011123024441e-11,-5.769448529153587e-26,-1.7285888206187684e-26,-2.0464037231451627e-26,0.0,0.0,0.0,1.7874868695545564e-12,-6.1378627595465664e-12,-6.963044834061393e-11,0.004454917533617224,0.035816904650363794,0.1500869532294868
166.0,1.7229107411100575e+18,-1.52568233,-0.468971997,0.2088880240917205,-0.036723115,0.032796275,0.3018894493579864,-0.952070653,0.0,0.0,0.0,7.013912090725057e-19,4.198750838519062e-20,2.4982146922033104e-19,4.54174204170497e-11,9.174646389125547e-12,2.0395252473651142e-11,-1.2192892834280751e-25,-3.087277356679294e-26,-5.657963884744667e-26,1.7874868695545564e-12,-6.1378627595465664e-12,-6.963044834061393e-11,6.238251576473571e-12,-7.886990732933112e-11,-4.913506482901559e-11,0.004481358349864834,0.03588183928399931,0.15054108772290087
168.0,1.7229107411161326e+18,-1.525351405,-0.468905985,0.2090314775705337,-0.036624335,0.0332529321312904,0.3021899759769439,-0.951963365,0.0,0.0,0.0,-2.126887786439348e-19,-1.8223480226651658e-19,-1.9137027354413254e-19,4.754912102719755e-11,8.791751141415843e-12,2.115767997568085e-11,-1.0481748147998041e-25,-2.3331363233635233e-26,-5.478896068312584e-26,1.2476503152947142e-11,-1.5773981465866223e-10,-9.827012965803118e-11,-1.2578977307286477e-11,-5.38757803067685e-11,-2.0456908800760617e-11,0.004809630184871031,0.036044637355440966,0.1508402790240103
170.0,1.7229107411260664e+18,-1.524991512,-0.468852341,0.209201768040657,-0.036361136,0.03373624,0.302737146615982,-0.951782584,0.0,0.0,0.0,-5.124973692971178e-19,-1.9347054259902388e-19,-4.459563902358102e-19,3.628188337235611e-11,5.04511648811028e-12,1.4109596534481683e-11,1.544292670188444e-26,1.2598315309434952e-26,-4.205217474982955e-28,-2.3370467745018398e-11,-1.1388942337308356e-10,-1.1054426594213517e-10,3.444525406029843e-11,9.505242483244493e-11,-9.016150688453867e-12,0.005238526848440337,0.03613896111196115,0.15134990993018765
172.0,1.722910741135847e+18,-1.524636149,-0.468806416,0.2093105614185333,-0.036806945,0.033685368,0.3032591938972473,-0.951600969,0.0,0.0,0.0,7.787358587796042e-20,6.195408014498648e-20,-2.0733179308553745e-19,3.7256385966131093e-11,4.921713705349336e-12,1.2285757218234095e-11,3.456313436403843e-26,1.552580493687169e-26,5.522315754214006e-27,8.1367011273544e-11,3.236503500622764e-11,-1.1630243103493891e-10,3.226723364476041e-11,7.12600908457856e-11,-2.483965359745204e-11,0.005047719934908585,0.036433555322326276,0.15177442684043757
174.0,1.7229107411459187e+18,-1.524251342,-0.4687545,0.2094463557004928,-0.037075102,0.03358132,0.3040146231651306,-0.951353192,0.0,0.0,0.0,1.5840409175503484e-19,1.084900139608378e-19,-3.474876425027241e-19,3.781498249000984e-11,6.3191432712746705e-12,9.981254211801419e-12,6.953010522678445e-28,-6.5831741823961275e-28,-1.7161120296150374e-26,4.116399954450242e-11,2.8630758318487655e-11,-1.6022357313703925e-10,-6.594655490337149e-11,-8.893503040365971e-11,2.941361475691646e-11,0.004912480054419309,0.0366178992757221,0.15240742164022156
176.0,1.7229107411564966e+18,-1.523855686,-0.468674719,0.2095130383968353,-0.036597107,0.03422093,0.3043412268161773,-0.951244533,0.0,0.0,0.0,8.465612534185224e-20,4.2882494402408695e-20,-5.650719323843995e-19,4.063420651374229e-11,7.130607000525415e-12,4.987082491378897e-12,-1.6458637858973218e-26,6.566139082896923e-27,1.6932480250922712e-26,-5.0526098533198964e-11,-1.455050258010918e-10,-5.7475201521105995e-11,7.07082918010117e-12,-4.9541036035964787e-11,5.048953601240907e-11,0.005522207742827486,0.03662366555465054,0.15269246702260508
178.0,1.722910741165898e+18,-1.523446679,-0.468611121,0.2095489203929901,-0.03675314,0.034604874,0.3046092987060547,-0.951138735,0.0,0.0,0.0,-1.4934512198759132e-19,2.1130154810011907e-19,-9.252950038915014e-20,3.991050172963991e-11,7.251084823697749e-12,-1.1019277646999473e-12,-1.7404015521679984e-26,1.571876008670471e-26,7.186827088991947e-26,5.530565790470476e-11,-7.045131375344192e-11,-5.924450111222111e-11,6.163694760216953e-11,-1.0542437040806785e-11,1.9480118149470235e-11,0.005707799781251728,0.03690189899954909,0.152877317633313
180.0,1.7229107411763692e+18,-1.523070693,-0.468529522,0.2094800174236297,-0.036853068,0.035546895,0.3047202527523041,-0.951064646,0.0,0.0,0.0,-2.442762316816286e-19,3.5028864040521996e-19,9.11988408002514e-19,3.750269556914621e-11,1.1778554824704721e-11,4.403687222973741e-12,1.8233604102247462e-26,-1.8952348073396685e-27,4.95292195089154e-26,7.27477966711401e-11,-1.6658989988270536e-10,-1.8514965222165522e-11,-3.907255500274488e-11,4.782740953929396e-11,-2.1329581772886593e-11,0.006256479401661897,0.03736117196258467,0.15284044539913705
182.0,1.7229107411856387e+18,-1.522709966,-0.468387634,0.2096109688282013,-0.036804773,0.0353861339390277,0.305168867111206,-0.950928688,0.0,0.0,0.0,1.487533546371521e-19,2.0825156044650054e-19,9.90332164044645e-19,3.5120788199029885e-11,1.4351978268630935e-11,1.602642797986821e-11,2.643779002995457e-26,-2.2728321739048497e-26,-3.1307921253716885e-26,-2.283945210078499e-11,2.5203505325146005e-11,-1.019036646579943e-10,-6.954430694623405e-11,8.653314875343555e-11,-6.279776378774103e-11,0.006200371396963138,0.03730663860038422,0.1532786190569139
184.0,1.7229107411996713e+18,-1.52229774,-0.468206525,0.2098762094974517,-0.036411766,0.035163637,0.3061449527740478,-0.950638175,0.0,0.0,0.0,1.806491069577347e-19,-2.679992948116923e-19,-2.9362832753862076e-19,4.5826922517959257e-11,1.58006274793015e-11,2.4325013695353244e-11,-1.7480184060941607e-26,-2.970304228264214e-26,-5.716315594940408e-26,-6.634081722132799e-11,6.476397624165736e-12,-1.4411049279764758e-10,-6.865069211328458e-11,-1.255149909886886e-10,-4.864215197699516e-11,0.006278505848596132,0.03706306328069755,0.15423714978410788
186.0,1.7229107412067615e+18,-1.521913886,-0.468084127,0.2100681066513061,-0.035651788,0.035725154,0.3068651258945465,-0.950413823,0.0,0.0,0.0,-1.4052262359146967e-20,-4.634249212699556e-19,-5.759233469116539e-19,4.5021736469288135e-11,1.2570556472664572e-11,1.9072688595739528e-11,-1.4836036308079032e-26,-5.806361802487138e-27,6.332158303000408e-27,-1.6014083632735416e-10,-2.2582647665223118e-10,-1.9918796861198462e-10,4.1070498306595286e-11,-8.87179860591871e-11,5.438605186379232e-11,0.006982461008878389,0.036898383978580654,0.154940760972404
188.0,1.7229107412192205e+18,-1.521552563,-0.468030244,0.2101307511329651,-0.035426371,0.036759675,0.3071086406707763,-0.95030421,0.0,0.0,0.0,7.750069045645743e-20,-5.944602667535532e-20,5.132785427833216e-19,4.7025284618249094e-11,6.624770581229701e-12,1.550669948071407e-11,-5.0563966947346923e-26,2.2816716022776254e-26,2.9752830303739645e-26,1.5800179391862575e-11,-1.7095957449420846e-10,-3.533838907006294e-11,1.6040221177791386e-10,1.791629389764085e-10,2.484845337374321e-11,0.007730229182505942,0.03721675633401772,0.1551263245516986
190.0,1.7229107412257516e+18,-1.521183729,-0.467979103,0.2102679014205932,-0.036075763,0.036492314,0.3075378239154815,-0.950151265,0.0,0.0,0.0,-4.510058953896331e-19,5.667770108379928e-20,5.101562484680602e-19,4.724622369770158e-11,7.666850335199707e-12,2.159612958280891e-11,-4.199242903702022e-26,1.0163518766323564e-26,-2.1854556600219997e-26,1.6066358722847357e-10,1.3249940130058585e-10,-1.494910618644982e-10,-1.3402621160963526e-11,1.3426850075910438e-10,-1.8098076808198438e-11,0.007312765258678447,0.03754446760798831,0.1555039318993555
192.0,1.722910741236973e+18,-1.520831466,-0.467896223,0.2105217427015304,-0.036200102,0.035938643,0.3079015910625458,-0.950049758,0.0,0.0,0.0,-1.71646023971442e-19,2.3874570917136056e-20,-1.4723354620396435e-19,3.2837415163711684e-11,6.31929349882466e-12,1.918020857933822e-11,3.439584059678879e-26,9.05336929751838e-27,-2.3620533320211188e-26,-1.1005062930064475e-11,9.757742702400028e-11,-7.153454268645982e-11,-4.385186924894905e-11,-2.447604860530824e-11,3.6548947180327796e-11,0.006925242894700763,0.03743261066627498,0.15598467649029965
194.0,1.7229107412489859e+18,-1.520418406,-0.467834026,0.2107079029083252,-0.036787428,0.035580199,0.3083035051822662,-0.949910343,0.0,0.0,0.0,3.6372353636914544e-19,2.866488023510829e-19,1.8631851634566378e-20,4.5080676626644286e-11,8.457424736822351e-12,1.8286770034355944e-11,-3.606448150205838e-26,8.486270428231736e-27,-9.876082578582283e-27,7.295984873057547e-11,8.354730408996937e-11,-7.63931675038426e-11,3.922656607938972e-11,-4.0493321978540704e-11,-4.932038828714182e-11,0.00647000000500364,0.03768636434954428,0.1563931925698213
196.0,1.7229107412563318e+18,-1.520039201,-0.467757165,0.2108547687530517,-0.037063774,0.035575692,0.3088861405849457,-0.949710548,0.0,0.0,0.0,-2.6340504426777648e-19,2.888470873707415e-19,-1.6030526984585235e-19,4.48081723550017e-11,1.1051238790908465e-11,1.884142794765682e-11,-5.205084768273595e-26,-4.877279548386965e-27,-2.893397281376348e-26,6.744806922871496e-11,1.6590783066918867e-11,-1.7017531926074345e-10,-9.908502555749434e-11,-2.2967380339627644e-11,-1.2686722283079454e-11,0.00638112735231843,0.03790865972419686,0.1569135692368759
198.0,1.722910741267874e+18,-1.519645572,-0.467618942,0.2110513597726822,-0.036465432,0.035124552,0.3094614148139953,-0.949563146,0.0,0.0,0.0,-2.5990278014600813e-19,1.3867171559112896e-19,-5.77245080795425e-19,3.766358704596321e-11,1.3219988080690176e-11,1.2714525586444838e-11,1.0108612350094919e-26,-1.1971367592613811e-26,-1.1339966375174344e-26,-1.2521020238441322e-10,3.761254341071408e-11,-1.0176661207000151e-10,-3.7105536093565394e-11,-1.9282484607922216e-11,2.936607686226627e-11,0.006379851995202613,0.037404178528993665,0.15756979654925568
200.0,1.7229107412773494e+18,-1.519261003,-0.467483997,0.2111382484436035,-0.036421333,0.0351942367851734,0.3099676668643951,-0.949397206,0.0,0.0,0.0,-8.785051043503224e-20,3.3325125764815776e-20,-4.919206903655726e-19,3.799411470126581e-11,1.4151054070035003e-11,6.8838431024848425e-12,-5.007406179112395e-27,-1.2780339760981709e-26,7.656909157703938e-27,-6.7630029584158295e-12,-2.197418614892556e-11,-1.1144316553621092e-10,3.5927188094062453e-11,-5.40417059888672e-11,-2.836933088557724e-11,0.006471388274159161,0.037449323113113185,0.15801397873432693
202.0,1.7229107412879363e+18,-1.518889427,-0.467335254,0.2111840844154358,-0.036067072,0.035430271,0.3107876181602478,-0.949133813,0.0,0.0,0.0,-4.1488201233985756e-19,-1.2164246270091338e-19,-4.2680307582316207e-19,3.561225852980452e-11,1.3735734406249468e-11,3.136011081894609e-12,3.1747612516884613e-26,2.230545251264797e-26,1.1900799689773936e-26,-5.335582619628831e-11,-7.047086856702032e-11,-1.58505273841156e-10,1.1340389304799074e-11,-7.720262517389382e-11,-7.074262195251401e-12,0.006823775560699274,0.037391730030910175,0.15868099141079994
204.0,1.722910741297055e+18,-1.518560648,-0.467212468,0.2112033069133758,-0.035906296,0.036195427,0.3113573789596557,-0.948924243,0.0,0.0,0.0,3.665834987391091e-19,3.719121726777053e-19,-2.7312147152248076e-19,3.0337559517068806e-11,1.1979227442259811e-11,-1.3276369481757223e-12,6.870131618448734e-26,4.046225525189707e-26,2.5364505308362013e-26,1.5917775651182318e-11,-1.7637943649671322e-10,-1.2559168992671372e-10,1.8534149586680813e-11,-4.7465427841681524e-11,6.136392899572484e-11,0.007410761327761135,0.03765746779307825,0.1590936170935179
206.0,1.7229107413125783e+18,-1.518240809,-0.467065781,0.2110919058322906,-0.035396636,0.037364285,0.3116712868213653,-0.948795021,0.0,0.0,0.0,9.83870320942994e-19,6.389543708520699e-19,3.4553630044637163e-19,6.100178997600722e-11,3.2671190269125465e-11,1.5078546631265458e-13,7.456087891177765e-25,3.512263124305868e-25,1.8150840088712764e-25,-1.628752702292668e-11,-1.6540172425038336e-10,-3.577741584970632e-11,-9.898743578823942e-11,1.628926110809546e-10,-4.422809885739081e-11,0.008391123329841169,0.0378478617254854,0.15922432549246576
208.0,1.7229107413172513e+18,-1.517898917,-0.466880441,0.2111029177904129,-0.035120517,0.0368827804923057,0.3121492564678192,-0.94866699,0.0,0.0,0.0,5.461050573145058e-18,2.7501249569474965e-18,1.3929999214281471e-18,6.420467363398575e-11,3.468076098147606e-11,2.1175863153330665e-12,-3.2910517794253876e-25,-1.6597536346491853e-25,-4.0394570752974954e-26,-1.820570959252965e-10,1.4940578566519597e-10,-2.1404788764149534e-10,4.949071900311859e-12,7.46696211594908e-11,1.2151291963094976e-12,0.008240339660342886,0.0375066047817294,0.15964636259924492
210.0,1.7229107413440579e+18,-1.517555356,-0.466716707,0.2111229449510574,-0.034988556,0.037044588,0.3125839829444885,-0.948522508,0.0,0.0,0.0,-2.0129845298135289e-16,-9.669358818769417e-17,-4.037010907703795e-17,9.449679585825531e-10,4.651715249020916e-10,1.889453104600628e-10,-1.9968848937509406e-23,-9.858261483581608e-24,-3.9076700778292235e-24,-6.389383222302963e-12,-1.606248193140177e-11,-3.334715745708733e-11,1.8573748466471434e-09,-5.837227855767095e-10,-1.6714451360160563e-09,0.00842888840689676,0.03752445505873098,0.1599937526529857
212.0,1.722910741344424e+18,-1.517204762,-0.466544122,0.2111930549144745,-0.035567746,0.0374006628990173,0.3131839334964752,-0.948288977,0.0,0.0,0.0,-2.0866992004144967e-16,-1.0033323930000776e-16,-4.181237597790342e-17,8.701060050305894e-10,4.292102483356118e-10,1.7392995487076497e-10,-1.7053994164916106e-23,-8.459413429376225e-24,-3.3227167956652705e-24,3.53269259736899e-09,-1.018039785488223e-09,-3.556938159673608e-09,4.488323027219582e-11,-4.920136561581039e-11,-1.7882020828751108e-10,0.008448060803732081,0.0380852200352882,0.16043018195647177
214.0,1.7229107413476268e+18,-1.516872406,-0.466352791,0.2112573534250259,-0.035660364,0.037594028,0.3137791454792022,-0.948081076,0.0,0.0,0.0,-1.769228383918966e-16,-8.58767992161682e-17,-3.5164119519636777e-17,8.482049230274141e-11,4.902066038791291e-11,1.7713843806264638e-11,1.3267910886320908e-23,6.2064570324706394e-24,2.719044808197202e-24,8.337707732208869e-11,-1.1446521316302254e-10,-3.9098757403210947e-10,-1.766198336577683e-09,4.4288334966772166e-10,1.7201278994152657e-09,0.008571233998246358,0.03827232948995121,0.1609129780127888
216.0,1.7229107413556244e+18,-1.516572475,-0.466174781,0.2113518565893173,-0.035513047,0.038079228,0.3142402470111847,-0.947914481,0.0,0.0,0.0,-3.79433337487818e-18,-2.432859938261778e-18,-5.709142793047297e-19,3.312186803010643e-11,1.780880685097535e-11,8.295809808469442e-12,1.3671558773274248e-23,6.605184014426414e-24,2.7348789601845755e-24,2.959242136242002e-13,-1.3227308615277965e-10,-1.1668236084307667e-10,-2.998989530046439e-11,-1.2166105830884969e-11,1.7571879897658032e-10,0.008968949299487697,0.03842494328148334,0.1613232931460024
218.0,1.7229107413690363e+18,-1.516226768,-0.466035992,0.2113839387893676,-0.035379376,0.0390013828873634,0.3145186007022857,-0.947789729,0.0,0.0,0.0,1.8281668313559983e-19,5.1609482524796317e-20,3.362648523220787e-19,4.2281039419598035e-11,1.8235962907311888e-11,1.428371531633308e-11,7.58616381135549e-26,6.480137317308539e-26,2.0328653961543293e-26,2.339728672115991e-11,-1.3879742482479248e-10,-3.9549976078948846e-11,-1.9868691440181528e-11,7.42791011566195e-11,1.7011798390352352e-12,0.009629160702453544,0.03875317477896271,0.16152184192867242
220.0,1.7229107413760911e+18,-1.515867233,-0.465878069,0.2115288376808166,-0.035281159,0.038889036,0.314900666,-0.947671056,0.0,0.0,0.0,-1.0092169384593655e-19,6.181303740533265e-20,3.0410899711803113e-19,4.17149287249169e-11,1.8673389783674386e-11,1.6247066971957093e-11,-1.1720357720177573e-26,2.990372898689045e-27,3.636052316937034e-27,-3.9441458666738855e-11,1.6285116160459343e-11,-1.132800011650062e-10,-2.1614573103232496e-11,7.621027894155306e-11,-8.571091955732802e-12,0.009619148750051702,0.038682072059696475,0.1619412625512918
222.0,1.7229107413896486e+18,-1.515542626,-0.465721607,0.2116372883319854,-0.035197783,0.038745627,0.3152668178081512,-0.947558343,0.0,0.0,0.0,4.826766631230342e-19,1.4258359205114893e-19,5.668908337628921e-19,3.9807954466431054e-11,1.9506452062804993e-11,2.1042495842546538e-11,-2.470265703185434e-26,-3.104382190243292e-26,-4.8552766682009577e-26,-1.983185948530508e-11,1.362313305831365e-11,-5.669215999041445e-11,-7.047890958490657e-11,6.988566258362392e-11,-7.989018433818201e-11,0.009584326656831264,0.03860301188558462,0.16232148707377927
224.0,1.722910741396949e+18,-1.515189648,-0.465547889,0.2118421792984008,-0.034792002,0.0379631519317626,0.3162164688110351,-0.947288573,0.0,0.0,0.0,3.6015055415417497e-20,-2.2950154494179996e-19,-5.461896814961678e-20,4.5782020576722445e-11,2.0866315598858886e-11,2.6019020428956486e-11,-8.113701489996632e-26,-4.9492658452954923e-26,-9.020651229345939e-26,-1.8039927783655198e-10,1.5605644132770718e-10,-2.730603698413702e-10,-3.9931447526498405e-11,3.7385059743831584e-11,-8.72105279862645e-11,0.009317466392912657,0.038097216741920105,0.16329161959478336
226.0,1.7229107414058363e+18,-1.514810562,-0.465394139,0.2120512723922729,-0.034535512,0.037415221,0.3171922266483307,-0.946993411,0.0,0.0,0.0,-9.00954077667348e-19,-6.533942426160677e-19,-9.11189089287472e-19,3.7638114416297793e-11,1.4328308447528825e-11,1.7567402877827495e-11,-3.725559131946648e-26,-1.5709944110064908e-26,-3.7247331974676784e-26,-9.969475453830188e-11,8.839325254597682e-11,-2.3111321596294343e-10,9.163937446851288e-11,-9.389662916292605e-11,7.881153569971637e-11,0.009136155909768724,0.037785673157853535,0.1642619176364806
228.0,1.7229107414157514e+18,-1.514492869,-0.465284944,0.2121595293283462,-0.034520529,0.037548974,0.3177390098571777,-0.946805298,0.0,0.0,0.0,-5.162363591042946e-19,-4.553303086681836e-19,-6.263692373828411e-19,2.8875379982602844e-11,8.759800846821e-12,8.972971286385397e-12,5.026172570986444e-26,1.7954279927712202e-26,3.2137747131422483e-26,2.879471100473783e-12,-3.1736816998144915e-11,-1.1543729844193746e-10,3.419564940513937e-11,-8.111623818092074e-11,8.020385161064949e-11,0.009261756444021482,0.03787884019437677,0.16476485124821516
230.0,1.7229107414276785e+18,-1.514193892,-0.465212792,0.2122386395931244,-0.034219693,0.037892014,0.3181603848934173,-0.946661055,0.0,0.0,0.0,2.476656353982921e-19,-2.70193693626822e-19,-1.9410868412430495e-19,2.7991331343816482e-11,4.853970856526647e-12,4.951732790078264e-12,1.955319612642612e-26,1.3451468448887326e-26,2.2978046954604612e-26,-3.1303455728023146e-11,-7.383922381586465e-11,-7.070551274164445e-11,3.2158775141583205e-11,-2.260790297982723e-11,3.996404099599149e-11,0.009635934401375322,0.0378680501443092,0.16516397388231066
232.0,1.7229107414377265e+18,-1.513887882,-0.465174139,0.2122741639614105,-0.034423035,0.0383593030273914,0.3183296620845794,-0.946577966,0.0,0.0,0.0,6.748872428751322e-20,-1.5256399242170625e-19,-7.550507740426492e-20,3.320380029829438e-11,2.623966467099859e-12,4.212198628193133e-12,-3.790514237523264e-27,2.4813006384393313e-26,5.236821950609028e-27,6.71970213836402e-11,-7.695262295779938e-11,-3.550921644995448e-11,8.103870274096743e-11,-2.3730721902704918e-11,3.865563691887701e-12,0.009859630059445278,0.038210421581295936,0.16527994327052625
234.0,1.722910741446156e+18,-1.513588548,-0.465160668,0.2123144567012787,-0.034792196,0.039009556,0.3185772597789764,-0.946454585,0.0,0.0,0.0,1.3553963344431176e-19,1.4928378307098233e-19,-7.780071063006257e-20,3.058141542215815e-11,1.828498047875799e-12,3.56225204369842e-12,1.3240601882267846e-26,2.4047273191993598e-26,1.617568025813482e-27,1.3077394975391172e-10,-1.2130066762127449e-10,-6.297438535786905e-11,-5.045689019030094e-11,-2.8826181264620666e-12,-6.904950980207221e-12,0.010136387386930465,0.03874228137331608,0.1654350892929746
236.0,1.72291074146073e+18,-1.51326704,-0.465128213,0.2123356908559799,-0.034381639,0.039489262,0.3189478814601898,-0.946324885,0.0,0.0,0.0,4.587227000027136e-19,2.0340468194096975e-19,-6.6054644677999775e-21,4.381081015868733e-11,1.0143541927848828e-11,2.41080251013007e-12,-7.283104221868703e-26,-3.288614495864744e-26,4.250110281771251e-26,-3.3716758996961686e-11,-8.271785921072351e-11,-4.931911841036892e-11,-2.3439092256567264e-10,-7.978622700111928e-11,-1.1334638373373092e-11,0.010647112732285455,0.03871152930897727,0.1657556444781852
238.0,1.7229107414667402e+18,-1.512949824,-0.465047628,0.2123525440692901,-0.033161353,0.039955147,0.3192602694034576,-0.946243525,0.0,0.0,0.0,-2.1447030043283965e-19,-8.495592930980213e-20,3.4206122638692815e-19,4.545492196218706e-11,1.0456101112077726e-11,2.5505472756309453e-12,-7.987796094678863e-26,-2.898818770900748e-26,5.430476999179542e-26,-3.380078953774335e-10,-2.8087312162351305e-10,-8.564366210461523e-11,-5.73201202224569e-11,-3.410222760681217e-11,-3.1920175881374755e-11,0.011489838985380403,0.038152614503845425,0.16610892214820847
240.0,1.7229107414757476e+18,-1.512639284,-0.464993298,0.2123720943927765,-0.032332458,0.040368076,0.3197915554046631,-0.946075261,0.0,0.0,0.0,-5.001977922443691e-19,-8.969632354573108e-20,7.811405540161357e-19,3.6935057129968234e-11,7.84198314155791e-12,9.935334732010925e-12,-9.217461819877997e-27,3.1755248823305257e-27,3.1819433751267663e-27,-1.483569994418755e-10,-1.5092231442434785e-10,-1.1315947017311844e-10,1.5029139277131946e-10,1.9866093524444205e-10,-3.9682160114380543e-11,0.012150123673054805,0.037834425423811456,0.16660324135508828
242.0,1.722910741486783e+18,-1.512198448,-0.464882284,0.2125867158174514,-0.032379303,0.039664697,0.3206402957439422,-0.945816159,0.0,0.0,0.0,-2.976597947028298e-19,-4.60460661907268e-21,2.0021679016669703e-19,3.744079485768663e-11,9.563240308380041e-12,1.803201851163458e-11,1.6477218426825692e-25,2.3629567279185032e-26,-5.372363881695835e-26,-3.7425109834794604e-11,1.1644874886537102e-10,-1.6500798233337632e-10,5.5201620259768205e-11,1.5841933422885988e-10,-3.8488602012876096e-13,0.011730352844700498,0.037637479371184786,0.16746812345003467
244.0,1.7229107414989228e+18,-1.511777401,-0.46477282,0.2127867043018341,-0.03251173,0.038615882,0.3212706446647644,-0.9456411,0.0,0.0,0.0,3.658012803066788e-18,4.948431172933622e-19,-4.664227182588251e-19,2.924009161325405e-11,7.362837281131462e-12,1.3338086199499184e-11,2.267559208299464e-25,1.1472092674758616e-25,-1.6729411801485785e-25,-3.795375892233908e-11,1.6591635403337194e-10,-1.1392924221337596e-10,1.652058575818432e-11,-6.772936107226337e-11,7.78998543107371e-11,0.011031948768753715,0.03733269278589187,0.16816068902504538
246.0,1.7229107415459666e+18,-1.511394143,-0.464727998,0.2128425240516662,-0.032278918,0.0389985479414463,0.321493924,-0.945557415,0.0,0.0,0.0,-3.738606670111023e-18,1.930555145510312e-17,-2.882392446970131e-17,9.913456095218577e-10,1.538972869039951e-10,-2.314574987657034e-11,5.638847768046685e-22,2.353751559650715e-22,-3.1022111311308935e-22,-4.383938318425965e-12,-1.9009973279155712e-11,-9.208273711902121e-12,-2.1973322937967112e-10,-1.9336588311462284e-09,-1.9231320872696925e-10,0.011392844750229239,0.037364744473666195,0.16838576988603013
248.0,1.7229107415463736e+18,-1.510987163,-0.464664817,0.2128330171108245,-0.031948809,0.0396763235330581,0.3216179013252258,-0.945498347,0.0,0.0,0.0,2.2777152677802905e-16,1.159402037706738e-16,-1.5618675705303074e-16,9.89738653892402e-10,1.6181243986789346e-10,-3.497702246366706e-11,3.140316493092561e-22,1.721606038376316e-22,-2.178183890811533e-22,-4.774202176816813e-10,-3.701401308259085e-09,-4.985556596673145e-10,-6.94279882753132e-10,-1.814793976686636e-09,-8.263710136882958e-10,0.011983330305601569,0.037448233192132516,0.16847722581876937
250.0,1.7229107415468495e+18,-1.51052177,-0.464584142,0.2128099054098129,-0.031371869,0.0403779409825801,0.3220325410366058,-0.945346832,0.0,0.0,0.0,2.3548203846615706e-16,1.6156712381978806e-16,-2.0694220246028582e-16,1.2270690313740214e-09,2.706802148450037e-10,-1.8003893658394173e-10,-4.537283204576436e-22,-9.882829373614953e-23,1.4505113921475765e-22,-1.3929437038246899e-09,-3.648597926652428e-09,-1.6619503010884937e-09,-1.0188023600033873e-09,-3.3307239364827094e-09,-7.320591868151545e-10,0.012719361926991081,0.03739989523887631,0.16881367422839572
252.0,1.7229107415471654e+18,-1.510081887,-0.46447742,0.2127254605293274,-0.030481685,0.041787602,0.3223925232887268,-0.945191979,0.0,0.0,0.0,-6.395193812960942e-18,8.951846390408871e-17,-1.0833902924964175e-16,1.2462641991119305e-09,3.076298244782592e-10,-2.2488957305816984e-10,-6.910629838277115e-22,-2.0930750210754218e-22,2.848510742394149e-22,-2.515024937688456e-09,-1.0362849181224504e-08,-1.9626740332976235e-09,5.717498643184654e-10,1.911648856822738e-09,4.2945819496160125e-10,0.014049816333086888,0.037441455791899565,0.16906414249951152
254.0,1.7229107415493862e+18,-1.509596586,-0.464265734,0.2128883302211761,-0.03031967,0.04148775,0.3232408463954925,-0.944920599,0.0,0.0,0.0,-3.763777055456151e-16,-8.23665122196574e-17,9.837166772169865e-17,1.835806934166421e-10,7.793697486445664e-11,5.965041741935542e-11,-1.193945644349426e-22,-5.809910816711197e-23,6.959094409174011e-23,-2.494439751877592e-10,1.7469978699304829e-10,-8.030339111652912e-10,1.2707997439956644e-09,5.2076305935804174e-09,9.134610902897311e-10,0.01398460926503604,0.03727425792232279,0.16989852162509825
256.0,1.7229107415572078e+18,-1.509123325,-0.464134991,0.2129778265953064,-0.030506147,0.041311555,0.3237318992614746,-0.944754124,0.0,0.0,0.0,-9.884958371154312e-18,-5.16752905775207e-18,-4.3598972041042316e-18,5.3285817618413344e-11,1.3887048409927801e-11,9.448832683158595e-12,2.942465363847658e-23,6.283902612687955e-24,-8.051697123006409e-24,2.6574550302872448e-11,5.2412005936331906e-11,-1.357518527181613e-10,1.1075172781342395e-10,-8.198204239279134e-11,3.545898354821939e-10,0.01382551747158549,0.03735720464433269,0.17035062848471605
258.0,1.7229107415700577e+18,-1.508591056,-0.464016259,0.2130571603775024,-0.030383786,0.0411698743700981,0.3243068754673004,-0.944567144,0.0,0.0,0.0,2.1338617789567593e-19,-1.259630713275796e-19,-5.231633364669635e-19,6.925861438130112e-11,1.1268311867967613e-11,-3.1196149293247857e-12,1.382512501228511e-25,1.3210663561058751e-25,1.5715361222565168e-25,-2.7940519560911295e-11,1.0735702207465598e-11,-9.385424020090341e-11,-7.804738252451859e-11,-1.6783765313257544e-10,3.361458397330796e-11,0.013827910121122071,0.03725903457954076,0.1708931923051113
260.0,1.7229107415761114e+18,-1.508092403,-0.46394226,0.2130117714405059,-0.029743949,0.041846268,0.3245447874069214,-0.944475949,0.0,0.0,0.0,-7.966192293020627e-19,-6.839935752171905e-20,2.4854321407858456e-20,6.761396142649716e-11,1.0727742430312357e-11,-4.989240516184614e-12,-5.257868858744029e-26,2.985864065063653e-26,9.714696536475628e-26,-1.2952021474616475e-10,-2.8326330032881895e-10,-6.852268477154537e-11,1.2409213246993937e-11,-6.524841005752888e-11,2.733201945487811e-11,0.014566116048223277,0.03714252206962817,0.17108722502221962
262.0,1.7229107415917686e+18,-1.507631421,-0.463834882,0.2130352407693863,-0.029429408,0.042714696,0.3248633146286011,-0.944337428,0.0,0.0,0.0,3.0073976781887675e-18,1.2231864881870863e-18,1.8139846032275913e-18,3.388315177791271e-11,1.050306004610901e-11,8.91336986191837e-12,2.487583836386696e-25,6.314454406313507e-26,5.827408811938368e-26,-3.1220930669234196e-12,-1.1976111790759216e-10,-3.9190201291147196e-11,3.320621416002167e-11,1.793442764825849e-10,-2.817335186128227e-11,0.015294993532923616,0.037329210072285623,0.17136297283065127
264.0,1.7229107416049846e+18,-1.50713408,-0.463655412,0.2132357507944107,-0.02923275,0.042084251,0.3256455063819885,-0.944102466,0.0,0.0,0.0,6.359714776826593e-18,1.8418825554935955e-18,1.9594917251327192e-18,1.3121010508040315e-10,4.0473919913092325e-11,4.3217438457435494e-11,-2.5256421165134525e-26,-2.4581497438799566e-26,-4.59835710573438e-26,-6.310778642612141e-11,7.542525263635089e-11,-1.2486938849410992e-10,-7.529243947045256e-11,1.5294132541957007e-10,-2.9819834492682464e-10,0.015019909698303689,0.03699519937417892,0.1721985525679189
266.0,1.7229107416084132e+18,-1.506600976,-0.463492721,0.2134088724851608,-0.029133715,0.041665327,0.3266757130622864,-0.943768084,0.0,0.0,0.0,6.025033742651795e-18,1.6940972989687511e-18,1.751137577913287e-18,1.5212149217519052e-10,4.641019451557067e-11,4.93699209288106e-11,-9.34492971314908e-26,-4.5668246638113255e-26,-7.085482214498138e-26,-1.5370697200782853e-10,1.8612153293154799e-10,-6.355868911447964e-10,3.256398112611724e-11,-4.820825252729332e-11,5.922611336332008e-11,0.014863060639538878,0.03682637847226198,0.17319835578750012
268.0,1.722910741759964e+18,-1.506091833,-0.463431627,0.213365688920021,-0.028778791,0.043202288,0.3271741569042206,-0.943537235,0.0,0.0,0.0,1.9763056188271724e-17,-2.2407237545703194e-17,-7.654796190974705e-17,5.691335762462444e-10,5.3301636280893476e-11,2.4581138883245007e-11,5.003213559566511e-24,4.634016792387607e-23,-8.547157821926998e-24,2.0201758261130765e-12,-2.0991252418235742e-11,-6.417161767469751e-12,1.7511102076866823e-10,-3.088208422523625e-10,-2.1967644357412772e-10,0.016073780815077824,0.03727575698126471,0.17355222108304166
270.0,1.7229107417608384e+18,-1.505591273,-0.463384748,0.2133873105049133,-0.028818436,0.0433948971331119,0.3276193141937256,-0.943372726,0.0,0.0,0.0,2.4163135824533057e-17,1.8351694524498215e-17,-8.406294013568016e-17,5.865021315245205e-10,3.3593297585218154e-11,-4.274519250292524e-11,3.7156829755224155e-24,6.491200279705882e-23,3.5228448954543693e-23,1.9651506952950793e-10,-4.31520151573177e-10,-1.0749397782930519e-09,7.929389187336072e-11,-1.003595168149877e-09,-4.389263390281536e-11,0.01622165929706084,0.03741151964037261,0.1739216863269269
272.0,1.7229107417616412e+18,-1.505110025,-0.463372529,0.21330326795578,-0.02861416,0.044182938,0.3276755213737488,-0.943322778,0.0,0.0,0.0,2.6176328730017398e-17,8.395399179094651e-17,-2.348370393386346e-17,6.090712464476458e-10,7.846161624851128e-11,-1.1544604368739311e-10,4.2688760490876145e-22,2.0775021978065334e-22,-6.589823832509706e-23,1.606079595728345e-10,-2.0281815887179898e-09,-9.420242957310048e-11,-1.5789304643246881e-10,2.0671458433518637e-10,5.88526843444823e-10,0.016840088043947144,0.03760991566655073,0.17389528590508
274.0,1.722910741762423e+18,-1.504626513,-0.463263035,0.2132048159837722,-0.028566096,0.044175472,0.3276401162147522,-0.943336844,0.0,0.0,0.0,6.830420839179052e-16,3.4233873029950134e-16,-1.826307964737788e-16,6.280624119631401e-10,1.6546726167330784e-10,-8.273761049625746e-11,6.492853334125263e-22,6.722417586242065e-22,3.8478640812755004e-22,-1.1927102333542967e-10,-1.8090982902804266e-11,1.0211390859659428e-10,3.776956792803961e-10,1.7602987823020754e-09,-2.2132823178094687e-10,0.016858176526401748,0.03756447863774478,0.17379183798069775
276.0,1.7229107417631388e+18,-1.504170656,-0.463127941,0.213173896074295,-0.029058827,0.0437735319137573,0.3277915716171264,-0.943287969,0.0,0.0,0.0,1.0226961778950743e-15,1.0474660347295177e-15,4.783371683565732e-16,1.548652297670027e-09,5.6191609270073e-10,-3.605552072954182e-10,-2.665060329552074e-21,9.772009062974479e-23,2.6048596787764136e-21,9.159993181336267e-10,1.4924159758861611e-09,-5.368588931349942e-10,1.9336593954382125e-10,3.434168373368589e-10,2.0210536259689494e-10,0.016397090901844828,0.03772217139694633,0.17384967713617316
278.0,1.7229107417633746e+18,-1.503734708,-0.462966472,0.2130642384290695,-0.029111797,0.0437112338840961,0.32773157954216,-0.943310022,0.0,0.0,0.0,1.5050481213324506e-16,1.0015864720575875e-15,1.2230879270873807e-15,1.769319113253718e-09,8.472180757059297e-10,-1.8048074472903558e-10,-3.311298270966737e-21,-1.558906250742903e-21,1.3385939860867694e-21,2.6746085575221283e-10,6.687426917709136e-10,5.063246337903842e-10,-7.804006787429735e-09,-1.5072424184438508e-09,2.5561046259657637e-09,0.016334398908807685,0.037717254014717094,0.17370790206872894
280.0,1.7229107417636093e+18,-1.503337979,-0.462729633,0.2130883932113647,-0.027402997,0.0433301553130149,0.3273050487041473,-0.943526924,0.0,0.0,0.0,-5.361551487127956e-16,3.1674504725630585e-16,1.111902646197247e-15,1.6210740575039175e-09,1.0336165891194e-09,2.140032323209563e-10,-2.547938679240354e-22,-2.0083355304647583e-21,-1.6460346771255574e-21,-1.4692014256725844e-08,-1.5220688610015406e-09,4.575350358796533e-09,-1.7532888111950168e-09,7.058400174099769e-10,1.0965052360642038e-09,0.016772441566753383,0.036412630809761946,0.17357718170465827
282.0,1.722910741763883e+18,-1.502916336,-0.462438881,0.2131824046373367,-0.027061976,0.04292661,0.3269678950309753,-0.943672121,0.0,0.0,0.0,2.459961282997424e-16,5.71183909964973e-17,2.8741425128175096e-16,1.5047640476890436e-09,9.680342076187372e-10,3.369164100877701e-10,3.202850993045341e-21,7.727512591713386e-22,-1.6812421653637348e-21,-3.2391167666378208e-09,2.0804227265908674e-09,2.6993351059187916e-09,6.250537832878075e-09,2.5444320958732413e-09,-8.577382266199146e-10,0.01661702981394077,0.036006970555092936,0.1734279267455451
284.0,1.722910741764196e+18,-1.502458096,-0.462169617,0.2132855206727981,-0.026901655,0.042299658,0.3265449106693268,-0.943851411,0.0,0.0,0.0,1.3722673974973847e-15,9.1566872146935e-16,2.37981577573041e-16,1.8221312147089291e-09,1.0922156151541904e-09,3.68973943168675e-10,5.387960990214789e-22,9.73285017569711e-22,-3.9904715303238854e-22,-2.1909385909696943e-09,3.5667953307449425e-09,2.8598739055567036e-09,9.901237259251757e-10,6.406926183564484e-10,4.5972927143796796e-10,0.01623016250696556,0.03562053843305614,0.17320358546001874
286.0,1.7229107417644324e+18,-1.501963615,-0.461870134,0.2133797705173492,-0.026872884,0.041887708,0.3261369168758392,-0.944011629,0.0,0.0,0.0,9.541649776159215e-16,8.301988924871409e-16,1.0068626106347537e-16,2.2103295280592324e-09,1.4011349744544264e-09,4.4938550478888776e-10,-3.1061656096374353e-21,-2.120272395348485e-21,-2.891202769907644e-21,-1.2588693147874691e-09,3.3618079633037643e-09,3.6187936487947275e-09,-1.2008899482920428e-10,7.01341703257391e-10,-1.248603619780913e-09,0.01593157135665618,0.03541185872461512,0.17296426799233058
288.0,1.722910741764661e+18,-1.5014323,-0.461520255,0.213493674993515,-0.02679407,0.0412619560956954,0.3260940909385681,-0.944056213,0.0,0.0,0.0,-5.1578457455214615e-17,-4.346502347025277e-17,-1.071219752120844e-15,2.2761257919809575e-09,1.4853822207448584e-09,4.194034138420386e-10,-2.630682493462006e-21,-2.0495192843038927e-21,-2.714904690853412e-21,-2.431116580628103e-09,4.969478737259725e-09,3.6266666599487776e-10,-1.1723489228009722e-09,-7.127722317673531e-10,-1.7384354845156978e-09,0.01554383206563853,0.03510031609621178,0.17304869534979495
290.0,1.722910741764892e+18,-1.500917912,-0.46118778,0.2135721296072006,-0.026473513,0.040915672,0.3260897696018219,-0.944081843,0.0,0.0,0.0,-2.4649481142708853e-16,-1.0338899662341665e-16,-1.1356991842342188e-15,2.185056400409581e-09,1.3792539206554826e-09,-4.7215063037422187e-11,8.488153845678223e-22,1.0599836868203315e-21,3.509490652111649e-21,-3.6035671603894134e-09,1.936263499769058e-09,1.4192267976333205e-10,-6.058592007539031e-10,-7.112039823813874e-09,1.1569907510597697e-09,0.01544851031284558,0.034749370913574405,0.17315164227119406
292.0,1.7229107417651218e+18,-1.500425339,-0.460884571,0.2134727090597152,-0.025718717,0.041791525,0.3258443772792816,-0.944149077,0.0,0.0,0.0,3.360962373275743e-16,4.422791281928178e-16,5.382114285456505e-16,2.1622387650543254e-09,1.437012658395433e-09,-1.0573536230686125e-10,5.9027425533085785e-22,1.4317855746688015e-22,3.947617893894007e-21,-3.642834982135909e-09,-9.254600910368022e-09,2.676648168114417e-09,-2.4072162654677372e-09,1.9769328865692944e-09,-7.013934784785614e-10,0.016331786650672336,0.03461020808653861,0.1729245493443194
294.0,1.7229107417653957e+18,-1.49982667,-0.460452408,0.2135503888130188,-0.024900235,0.040649712,0.3260345458984375,-0.944155276,0.0,0.0,0.0,-1.366980994608447e-16,-2.464876411395997e-16,5.314380989851131e-16,2.3963948294900647e-09,1.6205118251823408e-09,3.004408205775447e-10,-3.2079884870484746e-21,-3.0690410529159536e-21,-1.888180871763743e-21,-8.417999691324888e-09,5.890129272907647e-09,-1.2608642771937908e-09,-1.6487601461165442e-09,1.0079574457000356e-08,-2.610675863683021e-09,0.01594262305473518,0.033604521599044174,0.17325563634423863
296.0,1.722910741765638e+18,-1.499201179,-0.460050792,0.2136267572641372,-0.024549766,0.0391213186085224,0.3263263404369354,-0.944128215,0.0,0.0,0.0,-1.2308989977320761e-15,-1.108472888056575e-15,-3.24819400805306e-16,2.15099220579952e-09,1.3646098705169593e-09,2.2543962331508963e-10,-3.547542372246282e-21,-2.672757520670378e-21,-2.6367532422722635e-21,-6.940355274368998e-09,1.0904548003632688e-08,-2.544703559251625e-09,3.1604912359206346e-09,-2.990447176491802e-09,7.804284017483967e-10,0.015106966637014482,0.032743041822476934,0.1736293339692601
298.0,1.7229107417663409e+18,-1.498570204,-0.459690928,0.2136017829179763,-0.023839328,0.038913488,0.3262563049793243,-0.944179177,0.0,0.0,0.0,-1.7440377064236567e-15,-1.1782427900859694e-15,-3.4407188147973867e-16,8.417232875729857e-10,4.796885144161177e-10,-3.3758683524797544e-11,-6.700090625351782e-22,-8.488834583601399e-23,-2.3246319676168106e-23,-2.097017219483619e-09,-9.076508007595748e-11,2.999925263030027e-10,3.489413654201098e-09,-5.481996693049514e-09,1.2970912415407234e-09,0.015269714331040537,0.032184999279480354,0.17362630875190815
300.0,1.7229107417762214e+18,-1.498010159,-0.45942679,0.2135137468576431,-0.023913452,0.0392586030066013,0.3260250687599182,-0.944242835,0.0,0.0,0.0,-3.954419638080759e-17,-2.260607690238011e-17,1.2932160061356261e-18,5.635761820221408e-11,2.8348816998886505e-11,-1.0973371246425043e-11,8.790505802665701e-23,5.939020452526683e-23,1.7359878089270214e-23,3.847203403319828e-11,-5.944538246633936e-11,4.947892382982162e-11,1.0136977406679936e-09,1.0909904576657991e-11,-1.300201399211327e-10,0.015450950080424335,0.03236292148250469,0.17335181209199657
302.0,1.7229107417860157e+18,-1.497461319,-0.459133446,0.2133862376213073,-0.023473753,0.03947093,0.3258617520332336,-0.944301426,0.0,0.0,0.0,1.8024441891914268e-20,1.4239264497192881e-19,5.04133913259069e-19,5.683436915543942e-11,3.095286545171178e-11,-8.140814659669716e-12,2.0755800679014615e-24,1.1858623488349419e-24,-4.722470236225867e-26,-6.962173814763178e-11,-6.89452709226415e-11,3.9952246460737274e-11,-8.92215617170321e-11,5.4328428993250645e-11,-3.361873709567783e-11,0.015771401749301212,0.03214904076696106,0.17315427447430157
304.0,1.7229107417964275e+18,-1.496860743,-0.458800077,0.213355466723442,-0.022872789,0.03898938,0.3259716928005218,-0.944298208,0.0,0.0,0.0,-1.0639865352733325e-19,-9.253405618076031e-20,3.814616795665701e-19,5.6682774914785e-11,3.1068715049355945e-11,-5.130084981274521e-13,-3.0317730380230932e-27,-2.0966960986196812e-26,-3.755116362024117e-26,-1.399710894008659e-10,4.921147552016192e-11,-1.7758550361534042e-11,-6.655909846791319e-11,8.71979113295694e-12,-9.102180216983206e-11,0.015721758764473435,0.03155419421833291,0.17328808497342824
306.0,1.7229107418070413e+18,-1.496269941,-0.458480597,0.213376447558403,-0.021797085,0.038879491,0.3267316818237304,-0.944065571,0.0,0.0,0.0,-4.208249481170152e-20,-2.9779771825223934e-19,-2.9591029375594163e-19,5.4559820649576136e-11,2.8965005474415517e-11,-2.636083777626546e-13,3.514175036346009e-27,-2.2301953064304503e-26,-5.034161015442661e-26,-2.0273993508345817e-10,-5.150568865672762e-11,-1.4209135787892686e-10,4.758236405105253e-11,-3.876986920815677e-11,-1.580823413056505e-11,0.01616719031508178,0.030840420476979883,0.1740277549431126
308.0,1.7229107418174697e+18,-1.49571228,-0.458190173,0.2133507430553436,-0.021538269,0.038936988,0.3269869983196258,-0.943980694,0.0,0.0,0.0,-3.151740866301131e-20,-5.60727080356293e-19,-6.827880574352588e-19,5.573923364014533e-11,2.4838998213084923e-11,-6.622238021571925e-12,-2.8659879527980234e-26,-1.57700526443227e-26,3.613146600231235e-27,-4.480636129876085e-11,-2.8328262896151626e-11,-4.937501862266414e-11,1.7621628126693096e-10,8.354682571355556e-11,9.760551355211041e-11,0.016336611062652877,0.030704762927491202,0.1742383849748925
310.0,1.7229107418262963e+18,-1.495203376,-0.457993418,0.2132612317800521,-0.022319568,0.038676493,0.3267288506031036,-0.944062591,0.0,0.0,0.0,-5.061702637492485e-19,-6.293780586761423e-19,-3.4674553568265446e-19,5.438065341534745e-11,1.865640567951277e-11,-1.319467846422938e-11,-1.5269412438136682e-26,1.3600737963623266e-26,4.0118730644458036e-26,1.4969262745040375e-10,1.1558796277038351e-10,5.311966922529397e-11,-8.897542135699848e-12,-8.597135802344656e-11,7.032868359288049e-11,0.015815414538163857,0.03108629317757749,0.17388630514668726
312.0,1.7229107418366845e+18,-1.494678497,-0.457844049,0.2130868285894394,-0.021654373,0.0395628549158573,0.3263168334960937,-0.944183946,0.0,0.0,0.0,-1.9401753977315564e-19,-2.2671540046578724e-19,9.50468808344326e-20,4.4815776943599975e-11,1.2987195664482446e-11,-1.1932351161592677e-11,3.288435603167659e-26,3.6311632371982275e-26,5.25854538910007e-26,-6.260144557016055e-11,-2.0027097894304474e-10,9.128234856309682e-11,-1.177504861533528e-10,-1.4407849760569456e-10,-6.002309300295346e-12,0.016657761254489898,0.030997983384587684,0.17345729577953703
314.0,1.7229107418498022e+18,-1.494185209,-0.457696736,0.2130107432603836,-0.020742951,0.040453684,0.3261086940765381,-0.944238484,0.0,0.0,0.0,2.843200266338581e-19,2.0902991914334398e-19,9.51438611903919e-19,5.430841978483087e-11,1.5297545392235255e-11,-1.1123985285944889e-11,7.693929651703356e-26,3.5868148843821773e-26,1.188003765866886e-25,-8.580834485630183e-11,-1.7256903244100565e-10,4.111505062470328e-11,-6.034892416535753e-11,-8.507845541225043e-11,1.7123188845673237e-11,0.017618665040113796,0.0307679061653982,0.17330164843580637
316.0,1.7229107418568676e+18,-1.493737936,-0.457573175,0.2129118889570236,-0.019686813,0.041487299,0.3257429301738739,-0.944342494,0.0,0.0,0.0,9.819463871992124e-19,4.7253531751487745e-19,1.9944548007319035e-18,5.464537220330254e-11,1.689963387849771e-11,-1.0155757524827894e-12,4.99702365497375e-26,1.2384880656206526e-26,5.420288129639438e-26,-1.832992939008756e-10,-3.704278897675456e-10,1.255287262544433e-10,8.416044796778984e-11,1.600869756282172e-10,-7.645404060596349e-11,0.018722057959548743,0.030496685710059025,0.1730179845727556
318.0,1.7229107418715313e+18,-1.493200183,-0.45734328,0.2132918983697891,-0.02064462,0.0406462028622627,0.3264702260494232,-0.944107533,0.0,0.0,0.0,2.3048141160838e-19,-1.0397477691486172e-19,-5.387588102694911e-20,9.747703321551094e-11,3.130876708543911e-11,4.538743781827986e-11,-3.304736890994107e-25,-1.1960063891879157e-25,-2.5166121129816663e-25,8.251255107927787e-11,1.4760491881542878e-10,-1.1179303058722369e-10,6.890443346059378e-11,7.06284752497045e-11,-1.0239234466264703e-10,0.017805024633453168,0.030823599712108032,0.1738287220673594
320.0,1.7229107418756925e+18,-1.49272275,-0.457194537,0.2135037630796432,-0.020406291,0.041062061,0.3266395330429077,-0.944036067,0.0,0.0,0.0,-1.4744496269390298e-18,-6.964747450133728e-19,-1.2333378970401902e-18,9.525899010207759e-11,2.959292090865778e-11,4.1362700782779193e-11,-2.968788267770223e-25,-1.065696829007583e-25,-2.014469739551985e-25,-4.549042697968804e-11,-2.291709392681366e-10,-7.925596307085074e-11,-3.4513846399978044e-11,-6.149089438379451e-11,4.1869686093330614e-11,0.018185820081854074,0.030869714406940387,0.1741554346289554
322.0,1.7229107418877563e+18,-1.492254615,-0.457052678,0.2136687338352203,-0.020538541,0.040944967,0.3267929255962372,-0.943985283,0.0,0.0,0.0,-1.1097258680723089e-18,-7.295549964343888e-19,-7.960655023313043e-19,4.454663571111003e-11,1.1253548182779973e-11,1.7175847919463802e-11,9.685767605451697e-26,3.1288296072785274e-26,3.4950669515235487e-26,1.3484858279321783e-11,2.462313004783977e-11,-2.8053658400562458e-11,6.573440127664168e-11,1.8254235325893987e-10,2.5831997756848342e-11,0.01805799110044533,0.030925947747120743,0.17440212500917832
324.0,1.722910741898954e+18,-1.491696119,-0.456931919,0.2138974517583847,-0.021247948,0.0403807498514652,0.3269032537937164,-0.9439556,0.0,0.0,0.0,6.6734139532369e-19,-2.5492100216069372e-20,-4.181705184647287e-19,6.427847070348373e-11,1.1302095290210195e-11,2.0826375376886133e-11,-4.236026301333272e-26,3.043961880862121e-26,-5.797290654951291e-27,8.597837557359532e-11,1.3591376724974315e-10,-2.7591967557154058e-11,1.1995081634583115e-10,4.325919896090886e-11,1.9840590366119688e-11,0.01738207139826075,0.031171773578729127,0.17461493777705864
326.0,1.7229107419061243e+18,-1.491169095,-0.456848502,0.2140486240386963,-0.02223403,0.040302459,0.3268186151981354,-0.943965614,0.0,0.0,0.0,-5.595425893864836e-19,4.384177137081002e-20,-6.413056674106248e-19,6.403686756239017e-11,1.0982358523943413e-11,1.4411138401671024e-11,-6.013271817250025e-26,2.4970256969949783e-26,2.797506730707079e-26,2.5338649097098407e-10,1.1114152796965748e-10,1.1627522331676918e-11,1.4323204565795504e-11,-9.03855423588017e-11,9.240229883709934e-12,0.01689484799680684,0.03179171669265312,0.17457121920318977
328.0,1.7229107419171814e+18,-1.490622401,-0.456738174,0.2140942066907882,-0.022753207,0.040742539,0.3268460631370544,-0.943924844,0.0,0.0,0.0,6.677671043172088e-19,5.808329190311508e-19,6.756356886709697e-19,4.8883710086812734e-11,1.2975001490870786e-11,1.1640661446526116e-11,7.322257183949484e-26,6.634681644379843e-27,1.837294021122989e-26,1.1462478470518633e-10,-4.4857317467860233e-11,-9.111507789734189e-12,-1.6865796258600451e-10,-6.862395198913837e-14,-7.322176814219883e-11,0.016962675317674827,0.03232470437544782,0.17456946295723302
330.0,1.7229107419298903e+18,-1.490009308,-0.456529498,0.2143519669771194,-0.022515221,0.039882883,0.3276601135730743,-0.943684936,0.0,0.0,0.0,1.046561437379853e-18,5.26623727829016e-20,-5.622619397183463e-19,8.714298240218441e-11,2.6208706015801756e-11,3.375644513251338e-11,-1.6620182990058105e-25,-8.112332575279457e-26,-1.6616373476164522e-25,-8.392943420102495e-11,1.1100428006567921e-10,-1.3481601395272073e-10,-1.8447381993097342e-10,-2.4633320895817155e-11,-1.038395332557128e-10,0.01655162754189443,0.0318580172662794,0.17548579664398592
332.0,1.7229107419357673e+18,-1.489391446,-0.456348866,0.2145869731903076,-0.02174475,0.039884657,0.3282971382141113,-0.943481505,0.0,0.0,0.0,-4.628969639911925e-19,-5.316226020213797e-19,-1.72567331538174e-18,8.795635888119572e-11,2.3831377404729363e-11,2.4194646067410415e-11,-1.6249811788808354e-25,-5.13067370253141e-26,-8.818345788375027e-26,-2.543228551567605e-10,-9.412395925949454e-11,-2.1679057430115978e-10,1.8691687928172095e-11,-2.904209613672116e-10,7.511551915431182e-11,0.01692399741704776,0.03140009368624026,0.17627619564740926
334.0,1.722910741947569e+18,-1.488760471,-0.456231236,0.2144982367753982,-0.020571727,0.042412039,0.3282813131809234,-0.943403184,0.0,0.0,0.0,-1.44796191162234e-19,3.0808025915128256e-21,-1.6479671913806246e-19,6.824340371340486e-11,1.4545068882301848e-11,1.4902290979394342e-12,4.420408944900422e-26,4.2312000675575113e-26,9.728511184654719e-26,-4.6546058344680755e-11,-4.698376426687439e-10,1.5415024355902918e-11,1.0550729703539217e-10,-1.3058934096732715e-10,1.1996259917653192e-10,0.019103542715835982,0.031706554470767104,0.176269902546401
336.0,1.7229107419563845e+18,-1.488061547,-0.456072867,0.2145707011222839,-0.019873161,0.043828882,0.3282249867916107,-0.943372905,0.0,0.0,0.0,3.5848394177456425e-19,3.563600501967499e-19,4.6251892397612e-19,7.701299337161197e-11,1.9774148614663867e-11,1.1620990425555135e-11,7.361148085491822e-27,-5.33392476531613e-27,-1.1594473327921116e-26,-4.330826108597617e-11,-3.553026411941489e-10,2.3134624051904086e-11,4.193769988847933e-11,2.8338066732114756e-10,-3.86706321294001e-11,0.020334467802997823,0.03185991354280678,0.17634029805309342
338.0,1.7229107419666263e+18,-1.4872998,-0.455848813,0.2147301882505417,-0.020230301,0.043417085,0.3285058438777923,-0.943286598,0.0,0.0,0.0,-1.578284563537197e-19,-2.3856686811101303e-19,-6.4089443811397685e-19,7.311343215998462e-11,2.0606292281163342e-11,8.18760126263931e-12,-1.3542907512911235e-27,-3.1170384387260855e-26,-1.9963495725880877e-26,3.73293414322779e-11,9.692369197355126e-11,-6.192623990289728e-11,4.704470454075523e-12,2.0757546842678367e-10,-2.0256477134159834e-11,0.019926227848786223,0.03194289374444306,0.17666765743394222
340.0,1.7229107419767972e+18,-1.486568928,-0.455652058,0.2147388756275177,-0.020171503,0.043071568,0.3285905122756958,-0.9432742,0.0,0.0,0.0,3.239057307772302e-19,-2.8371515385175196e-19,4.2605430124741086e-20,7.375978669981329e-11,1.4949562043084765e-11,-1.4181775066186644e-12,2.1356631576825538e-26,2.653476724480098e-26,7.717217604702867e-26,-3.3899320177825125e-11,5.984829565941847e-11,-1.737833021641558e-11,4.5229321328740805e-12,-8.744125576484551e-11,5.821307930594818e-11,0.01972931414298084,0.0317599482531988,0.17675497495281325
342.0,1.7229107419862147e+18,-1.485857725,-0.455549598,0.2147057056427002,-0.020245809,0.043494761,0.3283464312553406,-0.943338275,0.0,0.0,0.0,2.982497313050632e-19,2.3626236635838057e-19,8.563139977532083e-19,7.9080432867131e-11,1.4653447164097307e-11,7.589962321121531e-12,-2.782685049240109e-26,3.368985814765482e-26,1.2416266947281387e-26,4.6375205698026063e-11,-7.795881955613977e-11,5.449991870899907e-11,3.0603487638725236e-11,-2.4883502429164693e-11,-5.196683664086468e-11,0.019958154354527597,0.031977874704950476,0.17651369643907688
344.0,1.7229107419964237e+18,-1.485010982,-0.455358237,0.214906170964241,-0.020421127,0.043479435,0.3289233744144439,-0.943134069,0.0,0.0,0.0,-2.6364789037134475e-19,3.4199151897504904e-19,1.6424025319442416e-19,7.917338276033439e-11,2.0028180823334782e-11,1.5222937970976975e-11,8.324877859624905e-28,4.3205361573464456e-27,-3.6059624177467095e-26,2.7307655099625353e-11,1.0081290801089081e-11,-1.2131200349814493e-10,-4.267913525307105e-11,1.3782257725501136e-11,-3.784942920734291e-11,0.019914837849855233,0.03212749637412831,0.17713476721413265
346.0,1.7229107420073295e+18,-1.484191418,-0.455124855,0.2150207757949829,-0.020135283,0.043666326,0.3290472626686096,-0.943088472,0.0,0.0,0.0,3.9635156895918454e-19,3.18790858335105e-19,1.4065060992714617e-19,7.312044085054159e-11,2.1608683207768162e-11,1.0217021433393938e-11,6.239286148792628e-26,-1.4323161215323608e-26,-1.112360859598741e-26,-3.898306480811603e-11,-5.0394304105137496e-11,-2.119893970568675e-11,-6.873469143882253e-11,2.2706278038424344e-12,1.552669745509679e-11,0.020168103944707236,0.032034732948466614,0.1773597261698262
348.0,1.7229107420192899e+18,-1.483343482,-0.454863667,0.2151391506195068,-0.019566325,0.043356199,0.3295831680297851,-0.942927539,0.0,0.0,0.0,1.1671835887502729e-18,-1.2487886456290734e-20,-1.099249297879613e-19,9.033979232733264e-11,2.7702111410577355e-11,1.976486231668441e-11,-3.195172772123272e-26,-3.5570133835192204e-26,-2.655707291268016e-26,-1.1016172777801968e-10,1.462254640877395e-11,-9.025860858795135e-11,7.837301581082182e-11,1.8731713568790887e-10,-8.957602482741882e-11,0.02024885654497575,0.03155793226050969,0.1779655830879102
350.0,1.7229107420273969e+18,-1.482504249,-0.454606861,0.2153536081314087,-0.020484794,0.0422582849860191,0.3303021192550659,-0.942706347,0.0,0.0,0.0,3.7841499482126205e-19,-3.441128602502877e-19,-3.560318169651311e-19,9.830460822816385e-11,2.4732640892275126e-11,1.3882918939269634e-11,-8.522050243232641e-26,-5.569857203514005e-27,2.1828641912985665e-26,1.1776296681352762e-10,3.2423996727068027e-10,-2.003509893605244e-10,1.0249898011166973e-10,-1.496216044757435e-10,6.315680375341558e-11,0.019175291367368202,0.03173861835947998,0.17865408134723224
352.0,1.7229107420363973e+18,-1.481671572,-0.454453647,0.2153529524803161,-0.02045718,0.043610007,0.3301570415496826,-0.942696154,0.0,0.0,0.0,-2.6795848472711273e-19,-4.115331581311603e-20,3.6189597055104636e-19,9.56746774521188e-11,2.1857016727649225e-11,1.437070956186216e-11,-6.508595782671624e-26,5.706499348610997e-27,2.6687789449228702e-27,9.483623244531977e-11,-2.8462066254271307e-10,3.60549989188798e-11,-9.27189963017424e-11,-1.8393595116395188e-10,1.95000250167519e-11,0.020075753263750388,0.03229686603512185,0.17851896051807623
354.0,1.7229107420460902e+18,-1.480711222,-0.454191327,0.2156430184841156,-0.020112269,0.043685049,0.330912709,-0.942435086,0.0,0.0,0.0,-8.285823132474941e-19,-2.77643630933762e-19,-4.1702719344765444e-19,9.333042457573354e-11,2.4363672315888702e-11,2.1090521897227467e-11,4.444663702268919e-26,-1.0061747137995508e-26,-4.5818338813132e-26,-6.767502578995718e-11,-4.363193505722352e-11,-1.613509393270206e-10,-1.2471430568469604e-10,1.2575556072447193e-10,-6.802619312460544e-11,0.020328984361792365,0.032157104375609966,0.179424939058098
356.0,1.7229107420565796e+18,-1.479797482,-0.453966409,0.2157639563083648,-0.019313594,0.043569833,0.3314457237720489,-0.942269802,0.0,0.0,0.0,7.986918289420958e-19,-2.2044847996423244e-19,-5.055429224439602e-19,7.797904680568312e-11,1.536429011250413e-11,4.112982290619803e-12,1.075200458763253e-25,2.1008385810819195e-26,3.5838997952988966e-26,-1.5459237892407228e-10,-3.310954109376923e-11,-9.99973873303311e-11,3.41180214326711e-11,-7.874021507708652e-11,7.981212467090334e-11,0.020638551801675065,0.03160967902520762,0.1800591307334964
358.0,1.7229107420691825e+18,-1.478953004,-0.453864813,0.2157034873962402,-0.018897343,0.044764895,0.3314800262451172,-0.942210138,0.0,0.0,0.0,1.4327410047451279e-18,2.7986637340680565e-19,6.165959621166336e-19,1.2229992793190473e-10,2.223930240066043e-11,1.459516750336307e-11,-2.290140869881531e-25,-2.6389005550910227e-26,1.0452046769888671e-26,5.610170753850138e-13,-2.0111236521139656e-10,-1.7266899852139428e-12,-7.81178517903302e-12,-5.0207321150851505e-11,7.415375197139536e-12,0.021623643654126015,0.03184545375032362,0.18007475504717854
360.0,1.7229107420756296e+18,-1.477982163,-0.453674674,0.2158615440130233,-0.018249961,0.0449833609163761,0.3317713141441345,-0.942110002,0.0,0.0,0.0,-9.64965898796928e-19,-1.0822719823013307e-19,4.2479865327353736e-19,1.2466383343575026e-10,2.3167515399707556e-11,1.7860901338587566e-11,-2.4309250116885736e-25,-4.5768822776367953e-26,-2.671001490279167e-26,-1.7021594928213832e-10,-1.3352418339547225e-10,-8.516663693605203e-11,-4.3592027535797526e-11,1.3401317625592954e-10,3.1540233665757654e-11,0.02206989918627557,0.03153520911297141,0.18052137958483866
362.0,1.7229107420869888e+18,-1.477084875,-0.45353809,0.215931237,-0.017896866,0.04446844,0.3314581513404846,-0.942251503,0.0,0.0,0.0,-1.148270692214926e-18,-3.393692861524674e-19,1.8222304396066352e-19,8.705140784190967e-11,1.689059741457515e-11,2.1050263682675052e-11,4.954988043622752e-26,-1.2373290196761435e-26,-4.2785326580334043e-26,-8.662303799621004e-11,6.69139873004625e-11,6.135377734630136e-11,9.338491455019185e-11,2.794869015828486e-10,-2.733829647202107e-11,0.021846805167764237,0.031073375017088286,0.18035753553257555
364.0,1.7229107420968538e+18,-1.476157069,-0.453329772,0.2162666767835617,-0.018700002,0.042505711,0.3320660591125488,-0.942112327,0.0,0.0,0.0,-9.670620301714399e-20,-3.931065824567045e-19,-4.234521572098836e-19,9.425393140185451e-11,1.5369388826711397e-11,2.200358662107121e-11,7.464069029472127e-26,-2.553248015120284e-28,-3.763743459975065e-26,1.6553879818245392e-11,4.254496197702249e-10,-1.3984322988009417e-10,4.0923878593029707e-11,-5.983679692722809e-11,-2.9759429181465114e-11,0.020225516497836812,0.030809283522357553,0.18107113749779766
366.0,1.7229107421066058e+18,-1.475235939,-0.453235298,0.2163655757904052,-0.018592259,0.0427405126392841,0.3320634365081787,-0.942104816,0.0,0.0,0.0,3.231314698625335e-19,-3.4554359507225795e-19,-5.6144535107195705e-19,8.533994057660835e-11,9.232649957568111e-12,1.2860152632459225e-11,5.855821565715764e-26,2.2521131546592888e-26,2.0698124981028967e-26,-4.775280810150633e-12,-5.275960655399367e-11,1.8349189833711367e-12,-1.239037184001921e-11,-2.2637268691356733e-10,1.534841151816607e-11,0.0204255907484934,0.0308476621802261,0.18116051635237107
368.0,1.7229107421195581e+18,-1.474287391,-0.45312354,0.2165789157152176,-0.018513571,0.042876203,0.3327348232269287,-0.941863239,0.0,0.0,0.0,1.3483606464076533e-18,2.4968155779321197e-19,3.061305749815913e-19,1.1080840702557443e-10,9.638042665541067e-12,1.2058859204455682e-11,-1.3176737723705425e-25,7.349218417024659e-27,6.173463917918665e-26,-8.226863861793028e-12,-2.7295754056909723e-11,-1.0914640684376203e-10,-5.2324979093309145e-11,-2.207108571466442e-10,-3.944987675570237e-11,0.02060047572868065,0.030897298406633026,0.181912031487458
370.0,1.7229107421266555e+18,-1.473354816,-0.453051209,0.2166473418474197,-0.017576015,0.044393599,0.3330409824848175,-0.941702724,0.0,0.0,0.0,-4.0712308061109693e-19,1.517010737677411e-19,7.238741789955498e-19,1.1797488992980569e-10,1.2259421055141682e-11,1.566272787854755e-11,-1.7991729391993161e-25,-2.6806630502957916e-26,3.2281682710937606e-26,-1.0942523899676892e-10,-4.941813208472821e-10,-7.70648345280336e-11,7.634427288379789e-13,-8.90306956583948e-13,2.995088932633507e-11,0.02205116366928542,0.030947516798917177,0.18232297900333982
372.0,1.7229107421360963e+18,-1.472409606,-0.452909499,0.216870829463005,-0.017510841,0.0445082299411296,0.3332636952400207,-0.941619754,0.0,0.0,0.0,-1.2589422755919498e-18,-2.646450288902941e-19,6.9487957078107825e-19,9.633841872677847e-11,1.0958416404221604e-11,2.5210392802768784e-11,-1.6724151928849696e-27,-3.4708294080695786e-26,-4.564755928053156e-26,-6.69997840411707e-12,-2.907636797007762e-11,-4.9244628191091884e-11,9.526284024868822e-11,3.680826276777173e-10,-3.537268039248836e-12,0.022168583722794916,0.030981484684877932,0.18270498638955415
374.0,1.722910742147174e+18,-1.471391559,-0.452840775,0.2171700894832611,-0.018401215,0.043387666,0.3336586952209472,-0.941515207,0.0,0.0,0.0,-1.2639998695203297e-19,-5.270431943655337e-19,-3.642073982428606e-19,9.581787759459833e-11,6.378098478083571e-12,2.8794787707064335e-11,5.724398910357664e-26,-6.578378587127485e-27,-3.8112896381190274e-26,8.110044150060752e-11,2.4198393450815254e-10,-8.413937060653127e-11,-1.2605201520285803e-10,5.291583583043133e-11,-5.555085566497393e-11,0.02105137476539485,0.03112948479089326,0.18319740158071696
376.0,1.7229107421569114e+18,-1.47042501,-0.452777177,0.2174657136201858,-0.017373398,0.0426009744405746,0.3344410955905914,-0.941292942,0.0,0.0,0.0,4.589785308703175e-20,-4.446579256129657e-19,-2.4322257195862854e-19,9.390735847083583e-11,2.739450217628493e-13,1.9361332584890356e-11,-7.271868566559474e-27,2.58909563553043e-26,4.6698255782562444e-26,-2.5880400880983315e-10,7.675530369078504e-11,-1.6034633952103976e-10,-1.379250709054196e-10,-1.9756962371603185e-10,7.465101066475482e-12,0.021024716105793734,0.030153828508415362,0.18422664190166158
378.0,1.722910742167124e+18,-1.469523311,-0.452841401,0.2175456434488296,-0.016190818,0.0429983623325824,0.3348294496536255,-0.941157997,0.0,0.0,0.0,-2.95777823824588e-19,6.451101068029499e-21,6.007903755447425e-19,9.696921777071244e-11,-2.3154848233122528e-12,2.4648774920293223e-11,4.956493982994593e-26,2.7157462403479086e-26,6.131164022543095e-26,-1.9474970031023164e-10,-1.531553129239112e-10,-6.920916847358031e-11,4.327990497477047e-11,-4.7428095574976136e-11,4.065334427747774e-11,0.021838496621245606,0.029554840610703268,0.1847521510012862
380.0,1.7229107421765883e+18,-1.468529463,-0.452828467,0.2179264724254608,-0.015411087,0.042799987,0.3352177441120147,-0.941041827,0.0,0.0,0.0,9.014879396742557e-19,1.142478617097446e-19,9.939583560343438e-19,8.894604963608207e-11,2.6023496910694402e-14,3.1063299113574966e-11,7.883141951924194e-26,9.532666731008514e-28,1.5965103620671532e-26,-1.722441988602922e-10,-1.8100887459167233e-11,-7.903965096608428e-11,1.3101086822948012e-11,2.158199297793237e-12,1.1647673271531452e-11,0.022065417287622558,0.02899070076404858,0.1854887875545578
