seq,timestamp,px,py,pz,ox,oy,oz,ow,lx,ly,lz,ax,ay,az,vx,vy,vz,jx,jy,jz,wx,wy,wz,aa_x,aa_y,aa_z,roll,pitch,yaw
2528.0,1.722911376687249e+18,-1.923363447,-0.895713151,0.1731959134340286,-0.022505702,0.041220586746931,0.3748432695865631,-0.925897896,0.0,0.0,0.0,8.602324097028021e-20,9.617188502125497e-19,1.439649194255564e-17,6.406271806637761e-11,-2.669404853284088e-11,-1.769991372105448e-10,-4.234014932362091e-26,1.3381760652264938e-26,-2.053636355569259e-25,0.0,0.0,0.0,3.0288002038905523e-10,-2.4184039051520174e-09,2.8397568918462027e-10,0.023204943881638677,0.03115573632179325,0.1769849728680577
2530.0,1.722911376694586e+18,-1.922893405,-0.895909011,0.1718972325325012,-0.020164981,0.049873598,0.3740173578262329,-0.925860167,0.0,0.0,0.0,-2.246355800893803e-19,1.0599037185785184e-18,1.2889694589929193e-17,6.469388916639661e-11,-1.9637709597559758e-11,-7.136896618575449e-11,-2.2273409457165405e-26,-1.1617950153204733e-26,-5.106644733164181e-25,3.0288002038905523e-10,-2.4184039051520174e-09,2.8397568918462027e-10,-3.434219999421017e-11,6.091058065633765e-10,-9.986873152488351e-11,0.030541905391835506,0.03223595551922281,0.17515158695400615
2532.0,1.7229113767037432e+18,-1.922293782,-0.896008193,0.1724508851766586,-0.022005247,0.04457261,0.3747612833976745,-0.925787807,0.0,0.0,0.0,-1.9926456629380642e-19,6.678093533755351e-19,4.724370005554126e-18,5.908653215299697e-11,-8.80994533361451e-12,2.944318848861839e-11,2.208841181368368e-26,-4.067778088820665e-26,-7.200556321427895e-25,-6.868439998842035e-11,1.218211613126753e-09,-1.9973746304976703e-10,-1.9425199707202867e-10,1.2026101449544604e-09,-1.7080775658044478e-10,0.02594093419958423,0.03187199709626092,0.17615533206953443
2534.0,1.7229113767159772e+18,-1.921675444,-0.896082938,0.1723041087388992,-0.021505844,0.044443216,0.3751127421855926,-0.925663412,0.0,0.0,0.0,3.867079877102323e-19,2.0514783816526766e-19,-1.2794452333272312e-18,6.34004797882741e-11,-9.051493523293416e-12,-1.5481861842218125e-11,-2.3470063564157986e-26,-5.176620820694765e-27,-8.401932909539235e-26,-8.56239737550021e-11,-1.3183615243096494e-11,-5.763982397626931e-11,1.470064319416986e-11,-5.797192403061306e-10,9.087006361056151e-12,0.026052491965007127,0.03145491639724982,0.17636001356845332
2536.0,1.7229113767240737e+18,-1.921093225,-0.896171987,0.1721600890159607,-0.021480547,0.044147499,0.3757949471473694,-0.92540139,0.0,0.0,0.0,-1.8572529884906341e-19,3.3813652638624784e-19,2.196757694944263e-19,6.671411964767009e-11,-6.18547071478025e-12,-1.3020034838632648e-11,-5.090134860528452e-26,-1.1129689899027576e-26,9.296742838820668e-26,-3.9283113600080624e-11,5.87731325144919e-11,-1.8156345032765472e-10,6.979606215691113e-11,7.791899913610735e-11,-8.343659901645932e-11,0.02590373843691116,0.031350572040773184,0.17678785108222883
2538.0,1.7229113767344983e+18,-1.920467496,-0.896171868,0.1720883548259735,-0.022071926,0.043539941,0.3768491148948669,-0.924987495,0.0,0.0,0.0,-4.505954048194355e-19,-1.477319501032637e-19,-4.8543128053317246e-20,5.6791988309183417e-11,-2.873224994998665e-12,-1.1862619996569771e-11,7.002887135183507e-27,-3.149079931241714e-26,-4.186420782209892e-27,5.396815055882016e-11,1.426543830291182e-10,-2.2451302200918794e-10,1.8415497423114853e-11,-7.208185496654757e-11,1.3214988846005443e-11,0.025334677540538808,0.03162627713563483,0.17753337512109676
2540.0,1.722911376744475e+18,-1.919931769,-0.896228075,0.1719224452972412,-0.021933777,0.043912236,0.3775747120380401,-0.924677253,0.0,0.0,0.0,-7.127469164338722e-20,-3.1756600426251754e-19,1.1538015135617984e-19,5.708202298703633e-11,-8.79127649914856e-12,-1.3870467478270316e-11,6.719574749758922e-27,-8.840919824868902e-28,2.973398660831508e-26,-2.452118753850919e-12,-8.539057741860322e-11,-1.5513347263564384e-10,-6.773414281761996e-11,-1.039445118255153e-10,5.959315138422035e-11,0.025736845313601184,0.031667569678198254,0.17798062057456707
2542.0,1.722911376754118e+18,-1.91934979,-0.896342278,0.1718144118785858,-0.021473957,0.044043552,0.3780683279037475,-0.924480021,0.0,0.0,0.0,-2.982268505497915e-19,-1.7566450232847256e-19,5.260986642370604e-19,5.545943395937763e-11,-9.28454562833805e-12,-9.80661750573512e-12,-1.8109458240638347e-26,2.3952157696420885e-26,4.541198458136186e-26,-8.150013507641976e-11,-6.523464062191239e-11,-1.0532671924074723e-10,5.3432250959941986e-11,5.92533875329177e-11,-1.6567574595888502e-11,0.02604306939881021,0.03137702828836796,0.1783367347502117
2544.0,1.722911376763773e+18,-1.918861628,-0.896407187,0.1717332303524017,-0.022040406,0.0440667867660522,0.3788827657699585,-0.924132228,0.0,0.0,0.0,-4.206212344331419e-19,1.4488629472112297e-19,9.918107032475621e-19,5.13236975778602e-11,-1.2184256610192557e-11,-3.715269877762853e-12,1.7721181778517606e-26,4.316109765470517e-27,-1.428635009152759e-26,1.0441238316603305e-10,3.311619764723217e-11,-1.8826862182742084e-10,1.1987990171767526e-10,1.565787033678639e-11,3.83145093442836e-11,0.025942317106509724,0.031842303970524635,0.17886999715102697
2546.0,1.722911376773334e+18,-1.91836369,-0.896575391,0.1717421412467956,-0.022684176,0.044500247,0.3789796531200409,-0.924056113,0.0,0.0,0.0,3.662154750387883e-20,-8.732452558900494e-20,2.632612077107842e-19,4.737527727898561e-11,-6.583643181985429e-12,9.184656980826581e-12,3.5177120587249266e-26,-3.8891391707003183e-26,-1.172670410023891e-25,1.5825966835893072e-10,-3.391889994833961e-11,-2.8697700552180026e-11,-2.1167154844760696e-11,1.6283086778386663e-10,-8.630245466339595e-11,0.02606188634377948,0.032484530602016386,0.17887554702688524
2548.0,1.7229113767866289e+18,-1.917820811,-0.896459401,0.1720168143510818,-0.024075961,0.0423981323838233,0.3811216652393341,-0.923238337,0.0,0.0,0.0,2.705098660500054e-19,-8.743653950471676e-19,-2.0549908817862683e-18,5.617357713683347e-11,-2.018793612650596e-11,-7.390958723998682e-12,-9.87956025280436e-26,1.1908858298870455e-26,-1.3537296970888237e-25,6.207807347651166e-11,3.587779332149654e-10,-3.6087353115421275e-10,-1.6927678269277583e-10,-6.545698219377896e-11,1.6402989136112786e-11,0.024144879671043198,0.03294408281260316,0.1808573101455659
2550.0,1.722911376793588e+18,-1.917374015,-0.89670521,0.1718631982803344,-0.023277571,0.042688888,0.3811487555503845,-0.923234284,0.0,0.0,0.0,-8.409854675499478e-19,-5.324661222388451e-19,-2.855002949175831e-18,5.6630794447176135e-11,-2.5730300971290122e-11,-2.463595985501739e-11,-1.162220106932447e-25,4.6797138799385384e-26,5.0606879343489436e-26,-1.8029389702662097e-10,-1.6483286433589754e-10,4.108277720045546e-12,-7.234198369024062e-11,-3.454889192633128e-10,5.2989922798992814e-11,0.024652110335603633,0.03242341278637098,0.1808065596663208
2552.0,1.7229113768038682e+18,-1.916906834,-0.896824062,0.1715710312128067,-0.022290612,0.044072911,0.3824153244495392,-0.922669709,0.0,0.0,0.0,-1.375228710957111e-18,-8.68065599415045e-20,1.7956304056730167e-19,3.421618609632965e-11,-2.719570886583631e-11,-5.971043560275159e-11,2.2739538438492442e-26,5.566105988883413e-26,3.0703844191312986e-25,-8.260589390396959e-11,-3.3219990531166014e-10,-2.548936855562271e-10,1.942830954898329e-10,-5.979352641260897e-10,1.7942216041990755e-10,0.02618123947671441,0.032177365179078786,0.18167549051749504
2554.0,1.7229113768159145e+18,-1.916653156,-0.897372365,0.1704100519418716,-0.020216716,0.052161708,0.3805115818977356,-0.92308259,0.0,0.0,0.0,-4.673303822303776e-20,7.574688394599144e-19,4.0455630158006126e-18,2.901499764998115e-11,-2.745458672907176e-11,-6.851310835186145e-12,7.218938556356502e-26,1.2103696467298324e-26,-6.836667349977048e-26,2.0827229395304485e-10,-1.360703392588077e-09,3.6295259855986064e-10,-6.641880516673375e-11,7.840530509574248e-10,-5.081726220369133e-12,0.03300064987754349,0.03316922969553542,0.17902774442217392
2556.0,1.722911376826488e+18,-1.916272521,-0.897495031,0.1711684763431549,-0.021724204,0.0456673875451087,0.3817237019538879,-0.922892094,0.0,0.0,0.0,3.6303290508103013e-19,3.4732570363055225e-19,-2.9030040544261786e-19,3.2094291542301747e-11,-1.2216030035612691e-11,3.2746767841326814e-11,-2.165776089438353e-26,-6.588721673564197e-26,-2.9345193422635833e-25,-2.154435042374371e-10,1.2359061966031894e-09,-2.650571379969654e-10,-9.967190363815619e-11,7.045762566756431e-10,-2.729326175227329e-10,0.027561680524815446,0.03222449823024426,0.18070631272676166
2558.0,1.7229113768379707e+18,-1.915952682,-0.89764297,0.1710584014654159,-0.021925636,0.045407396,0.3826842308044433,-0.92250216,0.0,0.0,0.0,-6.38977252832639e-19,-7.471368338246489e-19,-2.2057372401340006e-18,3.715828693061723e-11,-2.186817016776377e-11,-2.090625337707872e-11,-1.5217690223872185e-25,-5.344383782445948e-26,-3.382711752884173e-27,8.928486676732463e-12,4.844912076320916e-11,-1.8291263648560518e-10,1.31029877115989e-10,-6.220090460485335e-10,1.783679380486866e-11,0.02738470241383864,0.0323214507250379,0.18139067710863904
2560.0,1.7229113768440394e+18,-1.915697336,-0.897804499,0.1708952188491821,-0.022078304,0.04546896,0.3833203315734863,-0.922231317,0.0,0.0,0.0,-1.770704071199081e-18,-9.371761765919645e-19,-1.7020809812914168e-18,2.981652172005923e-11,-2.6102613980661928e-11,-2.6380226366981863e-11,-9.555675060769335e-26,-3.0419487440858214e-26,-1.991973853280356e-26,4.661624999454092e-11,-8.111895493877586e-12,-2.2938355038722807e-10,9.163355535356976e-12,-9.220319540878814e-11,5.407938495968687e-11,0.02744558260650981,0.03247268800106134,0.18174445243945933
2562.0,1.7229113768537364e+18,-1.915598154,-0.898049653,0.1706472933292389,-0.021963967,0.046119526,0.3836630284786224,-0.922059238,0.0,0.0,0.0,-1.288432363271316e-18,-1.218287099801556e-18,-3.489812529823382e-18,3.954521921263918e-12,-3.8900275114215884e-11,-5.528230212643501e-11,1.116517180130506e-25,5.832134143644307e-26,5.46885702854068e-26,2.7255197747446416e-11,-1.3595727005436712e-10,-7.475386656623144e-11,3.2418548858039146e-11,-3.4625437887452135e-10,1.8693184728278088e-10,0.028031517315409378,0.03259964258890654,0.1817819905710415
2564.0,1.7229113768644918e+18,-1.91563046,-0.8986305,0.1696982383728027,-0.021035085,0.049840242,0.3829988539218902,-0.922163486,0.0,0.0,0.0,6.510432269152538e-19,4.50519445394125e-19,-4.999155386764659e-20,6.542169971574568e-12,-5.0792971264548e-11,-9.889191923520507e-11,1.098927194966722e-25,1.1658524177521334e-25,3.8477815995518674e-25,1.1145334771061922e-10,-7.006206532429202e-10,1.444801441783337e-10,1.3617865012723953e-10,-4.27720388971604e-10,1.3994878612926468e-10,0.031210877210132902,0.033034437372146286,0.18029206322938582
2566.0,1.722911376873348e+18,-1.915502906,-0.899056911,0.1687447428703308,-0.020531651,0.0544153004884719,0.382183164358139,-0.922254562,0.0,0.0,0.0,1.1106389340627773e-18,1.2017183364447518e-18,3.831406193287274e-18,1.5301276041787796e-11,-3.5453767290819256e-11,-7.012989445249008e-11,7.025219642988065e-27,6.036411721433942e-26,3.1945922268657703e-25,2.9961249800192546e-10,-9.913980479975751e-10,2.0514370569229795e-10,-6.838931453482782e-11,3.201567234603583e-10,-1.260917133019021e-10,0.034885952210241586,0.03406488233365361,0.17864115231169175
2568.0,1.7229113768883295e+18,-1.915250897,-0.899266362,0.1686452776193618,-0.020227939,0.054742831736803,0.38294664,-0.921925128,0.0,0.0,0.0,7.878091330607234e-20,1.4862650537510358e-18,5.606554601290647e-18,3.502222653124618e-11,-3.088922150473038e-11,2.0642863991038886e-12,-5.543840883882771e-26,1.8427138800339867e-26,-1.0004535580318678e-25,-2.5325281359036424e-11,-6.03072063222037e-11,-1.0770328242547051e-10,-2.1882728735046428e-10,4.198673380513558e-10,-2.218413445147777e-10,0.03533053448142093,0.03396321170965598,0.17922868413324644
2570.0,1.7229113768945574e+18,-1.914985657,-0.899502516,0.1686806678771972,-0.019691437,0.0549985729157924,0.3836643695831299,-0.921623111,0.0,0.0,0.0,-2.31696946575477e-19,1.5995626989186807e-18,4.4176746852201465e-18,3.230870148198409e-11,-1.8573626759469604e-11,3.9020935050264316e-11,1.6330204985836e-27,-6.486243344033843e-26,-3.1922621839080727e-25,-1.380420766990031e-10,-1.5166337189486351e-10,-2.3853898333725743e-10,-2.1876263366036947e-10,4.037674935144423e-10,-2.566261677770969e-10,0.03578793334310674,0.033670559277411784,0.17995860056879467
2572.0,1.722911376904208e+18,-1.914827585,-0.899392486,0.1695557683706283,-0.019180967,0.050759032,0.3864724636077881,-0.920703471,0.0,0.0,0.0,5.53954131271932e-19,-2.6835080250025673e-19,-5.820353174205327e-19,3.31233141329356e-11,-8.788187900034025e-12,5.897908244996274e-11,2.452556442397172e-27,-1.18930786326107e-25,-3.643041848090545e-25,-4.6285054867977536e-10,7.472277807066809e-10,-6.209556179796643e-10,1.1304465090312858e-10,1.5675042700722725e-10,6.559957021254153e-11,0.032911439286247755,0.03204428824551695,0.18338580245537453
2574.0,1.722911376913749e+18,-1.914353609,-0.899666786,0.1698194593191146,-0.019892052,0.0502006746828556,0.386907547712326,-0.920536101,0.0,0.0,0.0,-1.6746414268155092e-19,-6.991264597275369e-19,-2.607317020478997e-18,4.283786921222715e-11,-2.3444932512285157e-11,2.8426877794772296e-11,-8.588061375681308e-26,1.1189853225473967e-26,-9.521464273400172e-26,8.804722510725408e-11,1.61837482119591e-10,-1.0733984291217436e-10,1.493639375826001e-10,-2.420359071250969e-10,1.9428391521994933e-10,0.032266955260587066,0.03244856691503173,0.18394936511353868
2576.0,1.7229113769237023e+18,-1.913998246,-0.899845064,0.17011059820652,-0.019704906,0.048655998,0.387986422,-0.920168996,0.0,0.0,0.0,-1.1288847895805258e-18,-2.7666728816791212e-21,-2.339613497294277e-18,2.8860243029768275e-11,-2.1712347123802274e-11,8.651934479326617e-12,-8.403252588288686e-27,4.0188911238284016e-26,7.974581488678702e-26,-1.6412267351457521e-10,2.631559664564871e-10,-2.3238778753976563e-10,-1.7812879550198508e-11,-1.8659476621068145e-10,-3.841167384792703e-14,0.031213651580709604,0.031849658248128875,0.1852387180426149
2578.0,1.7229113769332746e+18,-1.913784981,-0.900087893,0.1700037866830825,-0.0195683,0.049673989,0.3884669244289398,-0.919914663,0.0,0.0,0.0,-3.9744541503257174e-19,1.0783681572417328e-19,-1.0897230432323479e-18,2.0589851063462875e-11,-2.336680617514554e-11,-1.699188734465294e-11,6.996866993464284e-26,1.5774880161810542e-26,1.9053827959069063e-25,5.242146600685706e-11,-2.113520503017719e-10,-1.0741666625987022e-10,1.6005599908349324e-10,-2.656490502824575e-10,7.961139620194193e-11,0.03211212006655091,0.032098318637276725,0.18556100079184587
2580.0,1.7229113769432666e+18,-1.913596869,-0.900300503,0.1697731614112854,-0.019782938,0.051201861,0.3887902200222015,-0.919689775,0.0,0.0,0.0,2.344771660030458e-19,3.0947687586067584e-19,1.4395561035885369e-18,2.1484594057484466e-11,-1.93619018634423e-11,-1.1304866906287572e-11,5.022332299302706e-26,-4.9272044737166204e-27,1.2537255972234755e-25,1.5598932465241128e-10,-2.6814213410842784e-10,-7.316499513588178e-11,-2.4260873162923967e-11,1.0613832337595951e-10,-1.53437316389009e-11,0.033284691930615125,0.032774096280063385,0.18556243078408197
2582.0,1.7229113769537119e+18,-1.91334343,-0.90048182,0.169783666729927,-0.019840471,0.051191054,0.3894523084163666,-0.919408917,0.0,0.0,0.0,6.16907400260596e-19,-1.6144445589102815e-20,1.3540726746947546e-18,2.551631666880706e-11,-1.7126649253751658e-11,1.3235815633726557e-11,7.497602801415586e-27,-2.0934005367129407e-26,-9.147909876966793e-26,3.899719681009125e-12,9.245964501471132e-13,-1.3810412953767202e-10,-1.0493791897451518e-10,2.4694921313265515e-10,-4.134220190029866e-11,0.033324396310350037,0.032842548023203216,0.18614993289837523
2584.0,1.7229113769648673e+18,-1.913043857,-0.900670111,0.1700770258903503,-0.020099005,0.04989896,0.3902414441108703,-0.919139624,0.0,0.0,0.0,3.5367374928372817e-19,-1.2767570158001e-19,-6.58787382199913e-19,3.514939460882517e-11,-2.0048610953375245e-11,1.6482370882681474e-11,-5.874710549873945e-26,1.2532434886928358e-26,-1.0247490158946645e-25,-5.3886513296619094e-11,2.2575629215688252e-10,-1.558493989364791e-10,6.884071241510242e-11,3.5499278992580924e-11,-1.3926513464997275e-11,0.03228422348713103,0.03266607209640584,0.18713578918042434
2586.0,1.722911376973215e+18,-1.912698627,-0.90085727,0.1701533049345016,-0.020793861,0.049839705,0.3908424377441406,-0.918872058,0.0,0.0,0.0,-3.5629457814119356e-19,1.1767781453447835e-19,-1.0272151470401593e-18,3.491688689527034e-11,-2.027576787434459e-11,5.049963861707502e-12,-2.8594669197619285e-26,2.7979378052825894e-26,8.013048201202244e-27,1.4158114451121396e-10,7.192315443530896e-11,-1.6595715646766657e-10,5.0328007967431117e-11,-1.287604351315747e-10,4.0012383986093975e-11,0.032058722805617,0.033221138073299857,0.18765756706532263
2588.0,1.722911376984031e+18,-1.912411213,-0.901046515,0.1701506376266479,-0.020979565,0.050087873,0.391210139,-0.918697834,0.0,0.0,0.0,1.2560490213338704e-19,4.005068890990295e-19,-2.097240419648864e-19,2.646035017092864e-11,-1.6972444284620114e-11,-1.2630278118178782e-12,6.553097141713657e-26,1.4119150343142032e-26,5.538602537150374e-26,4.6769502638243146e-11,-3.176457810626688e-11,-7.582463096429115e-11,-2.3572643095819784e-11,-1.7273766873320716e-11,1.4227395776762624e-11,0.03222938159947417,0.033466050651740506,0.18795563094099388
2590.0,1.7229113769939633e+18,-1.912149429,-0.901210308,0.1701288223266601,-0.021517226,0.0500864759087562,0.3918099403381347,-0.918429792,0.0,0.0,0.0,9.678008212678439e-19,4.310195003877892e-19,1.5618610357780541e-19,3.59846295235248e-11,-1.212714442810184e-11,6.462531450019383e-14,1.6675418022824007e-26,-1.6950937695492526e-26,1.1012463896079331e-26,9.443585831957439e-11,3.737562068866753e-11,-1.3750236491414132e-10,1.1973715026996912e-10,2.1592417736205705e-11,-7.882018304305464e-11,0.032107208387774755,0.03391013087815533,0.18839303129434043
2592.0,1.7229113770038495e+18,-1.911698937,-0.901287258,0.1701517105102539,-0.022896627,0.050564099,0.3927971124649048,-0.917948484,0.0,0.0,0.0,4.623498301228942e-19,6.640583729780793e-20,1.090121701601217e-20,4.563989040831329e-11,-8.425062235410584e-12,1.8302756254584213e-12,-6.180225182025027e-26,-2.4503727943868995e-26,-1.4217012507476126e-26,2.862438031781814e-10,1.1420257366144526e-11,-2.334649970504004e-10,3.092827543811582e-11,-1.9969604162081395e-11,-5.39716617018417e-11,0.03211799327232467,0.03520186355088926,0.18910645254655045
2594.0,1.7229113770140065e+18,-1.911234617,-0.901379526,0.1701652407646179,-0.023683125,0.050859232,0.3939010798931122,-0.917439044,0.0,0.0,0.0,-2.7678004727512103e-19,-5.331860227459904e-20,-1.285063685385932e-19,4.496922440748749e-11,-1.0965317413729912e-11,1.9103661813395626e-13,-2.890073815364104e-26,4.689969888276716e-27,-4.240166296089591e-27,1.5629240919580603e-10,-2.563587635495262e-12,-2.454456883178247e-10,-8.100879851936757e-11,1.2281779748804588e-12,4.763602514577624e-12,0.03219855493290058,0.03597432281322721,0.1900036265736985
2596.0,1.7229113770235553e+18,-1.910811901,-0.901501119,0.1701568216085434,-0.02430772,0.051006716,0.394849956,-0.917006552,0.0,0.0,0.0,-1.5893358596925217e-19,1.393810838825402e-19,-8.38480455225058e-20,4.043440646070264e-11,-9.707967164520622e-12,-7.408569394253691e-13,1.589539108829719e-26,3.561973588930861e-26,-4.0621339324612847e-26,1.2422620613944628e-10,1.3876613315905444e-11,-2.2393779202124517e-10,-4.8732101317631294e-11,-1.7400244103426755e-11,6.65102828303903e-11,0.03220230066515917,0.03656223119626319,0.19076488751436266
2598.0,1.7229113770359828e+18,-1.910371423,-0.901572824,0.1701498925685882,-0.024586879,0.051346958,0.3954774439334869,-0.916709721,0.0,0.0,0.0,9.608778853333921e-20,8.317616045946142e-19,-1.3213280608929356e-18,4.356988599349343e-11,-7.851187321387195e-12,-1.5605721255745857e-12,-3.5681308116722585e-26,2.800459889819932e-26,-9.629910534517173e-26,5.882820656054344e-11,-3.736407584234877e-11,-1.1242512265704412e-10,-6.200341742425492e-11,2.539422879127997e-12,1.446764233671833e-11,0.03244521333834092,0.03692886389253496,0.19128486030993577
2600.0,1.722911377043385e+18,-1.91001308,-0.901640117,0.1701339185237884,-0.02465242,0.0512652061879634,0.3961371779441833,-0.916427612,0.0,0.0,0.0,-4.1582945994615663e-19,9.168893690131113e-19,-2.0197102271793015e-18,4.35924026822814e-11,1.3142177242359346e-12,-1.687630112081123e-11,-4.1287489689619747e-26,-4.375297839109417e-26,8.237470962709778e-27,2.1937129093643465e-13,1.8955459074161438e-11,-1.9500250734780851e-10,-4.1676378579857036e-12,-1.0068721048468331e-10,-1.1426042156914753e-10,0.03242624015748944,0.036983811515878186,0.19186259571394426
2602.0,1.722911377053787e+18,-1.90963006,-0.901474357,0.1697432398796081,-0.024492061,0.052463282,0.3977783918380737,-0.915652812,0.0,0.0,0.0,-4.379284114519771e-19,-3.458473103376757e-19,-4.345601091485178e-19,3.314446042746023e-11,6.1550634710639085e-12,-3.7163470283746373e-11,2.0235652980780363e-26,-1.0125605952789978e-25,1.3139911244280065e-25,5.0492930844572036e-11,-2.387384968117154e-10,-3.409459657953392e-10,5.272381243651066e-12,-1.8731540635309955e-10,6.901542333809225e-11,0.03363570199295445,0.03730405160052031,0.19294234247897124
2604.0,1.7229113770643177e+18,-1.909320235,-0.901513815,0.1693560928106308,-0.023814704,0.0541932024061679,0.3980952799320221,-0.915432274,0.0,0.0,0.0,1.3561318420645092e-20,-1.1974347106557336e-18,7.253651093554999e-19,3.457251190855303e-11,-6.135903829292519e-12,-2.5579204242071262e-11,4.739663602028697e-26,-6.412749041961267e-27,8.473883481160884e-26,1.0764133778238567e-11,-3.5567535363203765e-10,-5.697166067162401e-11,-8.092766803313556e-11,7.760233694547729e-11,1.3264107116194265e-10,0.035314689093373,0.03732560695158702,0.1928835329680369
2606.0,1.7229113770736202e+18,-1.908956289,-0.901590526,0.1692100465297699,-0.023204923,0.054334282875061,0.3984546661376953,-0.915283203,0.0,0.0,0.0,4.916412471965349e-19,-6.452676691230851e-19,1.304868592610481e-18,3.369575621313255e-11,-1.752399670540351e-11,-2.191032638352087e-11,-1.9024069551156232e-26,1.6915648228056708e-26,-1.074819169585197e-25,-1.1136240522169909e-10,-8.353382292076083e-11,-7.566382347145388e-11,-1.3616071525371248e-11,-3.334380312212744e-11,1.524845145205965e-10,0.03568054018187932,0.03688839819656542,0.1931436263132008
2608.0,1.7229113770872945e+18,-1.908604622,-0.90201664,0.1687856018543243,-0.021858973,0.056971565,0.3969736099243164,-0.915799379,0.0,0.0,0.0,-1.1839014530196595e-18,-1.267041851331902e-18,-3.577459862704301e-18,5.2195227950302623e-11,-1.4710884978260408e-11,1.4233657413766906e-11,-1.6513034569072103e-25,-5.393643784887901e-26,-3.7481313595411012e-25,-1.646800927250393e-11,-4.2236295987629253e-10,2.4799736836956895e-10,-2.4377432954657664e-11,3.447340163016001e-10,-2.3332940414623406e-11,0.038118997425877495,0.03659499803564692,0.1915056362497132
2610.0,1.7229113770935631e+18,-1.908201337,-0.902061582,0.1690049320459365,-0.022175102,0.055024557,0.3973110318183899,-0.915764511,0.0,0.0,0.0,-2.341463862463924e-18,-1.6294806900043731e-18,-5.978099543194034e-18,3.748370882076216e-11,-2.688590340296069e-11,-2.606889039280358e-11,-1.2885858029212364e-26,5.978185314969394e-26,-6.146811399621138e-29,-1.6011727113101442e-10,6.059342096824393e-10,-1.223297043007007e-10,8.052010409727526e-11,-4.023419134554914e-10,1.487843039843913e-10,0.036468961780510796,0.036227592239986985,0.19201414588160132
2612.0,1.722911377103844e+18,-1.90826869,-0.902670443,0.1677074134349823,-0.020194739,0.0611569732427597,0.3948321938514709,-0.916493118,0.0,0.0,0.0,4.223689909032958e-19,9.680152067969236e-19,4.774170254867376e-19,1.3501723972287374e-11,-3.8365656288543e-11,-7.992333483639891e-11,2.0698895090580375e-25,1.7766997682701473e-25,4.806542159373225e-25,1.4457219892204658e-10,-1.2270467867872754e-09,5.455659763383515e-10,1.338349254177662e-10,-4.991821193589967e-10,1.1716726858299293e-10,0.04184276268603618,0.03646810455491696,0.18864492230966967
2614.0,1.722911377114346e+18,-1.907911777,-0.902849615,0.1673645675182342,-0.01986271,0.063280232,0.3942992687225342,-0.916585624,0.0,0.0,0.0,1.9327375077375637e-18,2.0295205962517566e-18,3.9454990585204915e-18,4.7492145065454957e-11,-5.8367925539660734e-12,-1.3594158904582576e-11,-2.843460719431076e-26,-3.4181793117104304e-26,-8.963391130483955e-27,1.0755257970451799e-10,-3.924300290355541e-10,1.1200483286528519e-10,-8.275028467794523e-11,5.497225808982266e-10,-3.612084568361497e-10,0.04361032232687653,0.036853783287766465,0.1878620161201301
2616.0,1.7229113771238254e+18,-1.90734601,-0.902808905,0.1673987209796905,-0.019586351,0.06377878,0.3950856328010559,-0.916218281,0.0,0.0,0.0,1.89306642519586e-19,5.48149126569762e-19,9.581851197146346e-19,5.4656866225329824e-11,4.2643186444403545e-12,3.5243013862382085e-12,-1.2368443743153804e-25,-1.071464601788833e-25,-2.0483141154265497e-25,-2.0928370433843877e-11,-1.2760162499082223e-10,-1.768509373339479e-10,-7.396568572180103e-11,1.815650359581039e-10,-1.5373950253937828e-10,0.04420367504431955,0.03683787526602711,0.18866523647570785
2618.0,1.7229113771344632e+18,-1.906824589,-0.902763903,0.167435273528099,-0.019394303,0.063816316,0.3960547745227813,-0.915801287,0.0,0.0,0.0,-4.0737883306925294e-19,-5.202382094445075e-21,9.602455002212133e-20,4.990778539317905e-11,3.9184220246483325e-12,3.598013825470755e-12,-2.988191986549533e-26,-8.956390437763315e-27,4.988711912333278e-28,-4.0378791739084075e-11,-2.929995711934627e-11,-1.9547417221347136e-10,1.7268086702618436e-12,3.9155602947728995e-11,-1.9113605963251868e-11,0.04442118118420887,0.03674088273564099,0.18961985101934983
2620.0,1.7229113771442808e+18,-1.906326532,-0.90272826,0.1674720644950866,-0.019287281,0.063983411,0.3970315754413605,-0.915368795,0.0,0.0,0.0,-4.632776863855168e-19,2.970263859348134e-19,8.3977564923393875e-19,4.626216227349672e-11,4.114822961727902e-12,5.3480027586249785e-12,1.7669262075791937e-25,3.6812707770782925e-26,1.4263318188162585e-25,-1.747475309332019e-11,-4.929041909536424e-11,-2.1507814926045163e-10,1.1668260940237399e-11,4.901316572119518e-11,-3.25593015015957e-12,0.044716542439382743,0.036754461639648565,0.19057352559640284
2622.0,1.7229113771568003e+18,-1.905818701,-0.902669013,0.167564570903778,-0.019441318,0.063522816,0.3981871306896209,-0.914895594,0.0,0.0,0.0,4.660573106618558e-18,8.541412404573995e-19,3.693126843910929e-18,3.899435381150788e-11,1.2256012275389328e-11,2.6422629132706017e-11,3.2241729619926306e-25,3.2256730784026163e-27,1.0266244431530222e-25,-1.7042269858609277e-11,6.87263743230441e-11,-2.019860325137905e-10,-1.012678758739351e-10,2.455457265546221e-10,-7.782492272094831e-11,0.04443577214253157,0.03677920344448356,0.19170309376295827
2624.0,1.7229113771713137e+18,-1.90527916,-0.902364552,0.1682682931423187,-0.019427935,0.0599009804427623,0.4006835520267486,-0.914049923,0.0,0.0,0.0,7.87861707200907e-18,2.0651652486120262e-19,3.0757554161020446e-18,1.9481646359315295e-10,2.8082394805562293e-11,1.1383686098143342e-10,9.965605963852429e-26,-7.028434051885377e-26,-1.7575822637566676e-25,-2.2001050484119037e-10,4.4180103401387997e-10,-3.7072799470234824e-10,2.2985289477931156e-10,7.924048283888151e-10,-6.034507713554449e-10,0.04177164171269646,0.0357353847830113,0.1947765882913905
2626.0,1.7229113771738952e+18,-1.904703856,-0.902288795,0.16859217,-0.020914227,0.0581434816122055,0.4022684395313263,-0.913434267,0.0,0.0,0.0,8.07982699221684e-18,1.3294003536529385e-20,2.560863743250453e-18,2.1384291748256094e-10,2.8209632297233646e-11,1.2042364197467993e-10,-2.0357732986390763e-25,-2.2749884663607906e-25,-8.4405110791682e-25,4.426635197000138e-10,1.6535360311006744e-09,-1.4088875752246802e-09,1.0427205504529793e-10,-1.8146333035574405e-10,1.5245503055367998e-10,0.04001095319269282,0.03643940207794402,0.196371188286231
2628.0,1.7229113772315105e+18,-1.903973222,-0.902124822,0.1690535396337509,-0.02163668,0.055895194,0.4039702415466308,-0.912806451,0.0,0.0,0.0,-3.656533572321909e-16,-2.0938525230394615e-16,-8.749501159680233e-16,1.5917411044456397e-09,-1.7308903105785553e-11,2.799728404361e-10,-1.0785589884085321e-21,5.668942446590282e-23,-3.838454384775436e-22,-1.1466394750594499e-11,7.887437330239188e-11,-6.581793359498829e-11,-3.526656874091634e-10,-5.528813247319252e-10,-1.6795582464555292e-09,0.03809990348368989,0.03638773991991434,0.19839371035250875
2630.0,1.722911377231866e+18,-1.903403759,-0.902131021,0.1691536903381347,-0.021680769,0.0557690672576427,0.4047443866729736,-0.912470102,0.0,0.0,0.0,-7.515243964080392e-16,-1.890950160950229e-16,-1.0122483575010481e-15,1.4608656915030097e-09,-9.222072197843469e-11,-3.307162349010367e-11,-6.995561623114694e-22,1.2882437841643096e-22,-7.022822314737323e-23,-2.62667855118313e-10,5.47773381636824e-10,-4.768004068135739e-09,-8.500649003303032e-12,-1.7477003423160808e-09,-1.880953775530767e-09,0.038063964140624386,0.036425480618227604,0.19924401308507467
2632.0,1.7229113772322094e+18,-1.902948856,-0.902187467,0.1690380275249481,-0.021475587,0.056287937,0.405356765,-0.912171304,0.0,0.0,0.0,-8.638723992673921e-16,-1.2108563645758415e-16,-9.316604428184428e-16,1.075776977885969e-09,-1.499847568540142e-10,-4.242821804499088e-10,-1.2317259872663897e-23,5.427205013192632e-23,6.068738333862863e-22,-2.8467692757200563e-11,-3.4165263113297696e-09,-3.8277254846565215e-09,9.767450359335545e-10,-2.9020493923998275e-09,1.864707356498969e-09,0.03863436582241516,0.03644822217665691,0.19973204732973615
2634.0,1.7229113772329288e+18,-1.902550817,-0.902273595,0.1686011254787445,-0.021284945,0.058250863,0.4057030379772186,-0.911898494,0.0,0.0,0.0,-3.9798918824446986e-16,-2.988591307433111e-16,6.583734130772626e-17,8.430465370859475e-10,-1.6597444149288308e-10,-7.810787260022397e-10,-1.7075283666772128e-22,-2.521878610281297e-22,1.191221193686614e-21,1.6908222167487959e-09,-5.256325403162831e-09,-1.0385893551378008e-09,1.270423737073747e-09,-2.1776859755149763e-09,4.987280358908946e-10,0.04037657959120992,0.03692144376043797,0.19959488625851488
2636.0,1.7229113772333007e+18,-1.902181506,-0.902344227,0.1682771742343902,-0.021155253,0.0597472563385963,0.4061860740184784,-0.911589622,0.0,0.0,0.0,-6.1891091173828485e-16,-3.9363828278897675e-16,4.713458776448998e-16,6.806848744459739e-10,-3.3034719258521434e-10,-6.485283345670323e-10,-5.142150695694275e-22,-7.391400745056976e-23,7.303304894519515e-22,2.5123797813902935e-09,-7.771898262359723e-09,-2.8302694128747323e-09,-1.833096876651644e-09,6.52317537371624e-10,1.4643797837693056e-09,0.04172834135432856,0.037302787775441174,0.19971315427381459
2638.0,1.722911377233796e+18,-1.902050257,-0.902600527,0.1681026220321655,-0.020283706,0.0604506097733974,0.4058089554309845,-0.911731005,0.0,0.0,0.0,-8.21047966122963e-16,-3.1092161233192553e-16,5.957415135976904e-16,2.5376330934821706e-10,-4.93502181875071e-10,-3.391807219553663e-10,-3.8417238726790174e-22,1.6056017622512745e-22,2.360293705682215e-22,-1.9753715365544923e-09,-3.951690328419583e-09,1.8901702124008105e-09,-1.1576732497061553e-09,3.475579553173088e-09,1.512696215753401e-09,0.04256390019449568,0.036794732978403424,0.19930368383184444
2640.0,1.722911377243493e+18,-1.901714325,-0.902849317,0.1673180907964706,-0.019482469,0.064485051,0.4049657881259918,-0.911846936,0.0,0.0,0.0,-1.1710104621078329e-17,2.6825346020089974e-17,1.960900025594168e-17,3.562826275720548e-11,-7.19483147033511e-12,-1.956939098302944e-11,4.478808104655864e-23,1.732279022140414e-23,-3.2232093320105384e-23,1.9703328197798305e-10,-8.207391560135471e-10,1.9512301863206964e-10,8.767617381232981e-10,2.2097457434048266e-09,-1.1545077579089155e-09,0.04609490927420678,0.03736719346904344,0.19778060631798255
2642.0,1.722911377254431e+18,-1.90131247,-0.902700245,0.1678607612848281,-0.019559788,0.0616158246994018,0.4070802330970764,-0.911101937,0.0,0.0,0.0,1.0311926689549351e-18,3.0543678047233037e-19,2.406593822807345e-18,4.060371916981266e-11,-1.5521924841064026e-12,3.019682111837513e-11,5.302298786275537e-25,-1.1100490169931423e-24,-8.35645789791895e-25,-2.2184806030789617e-10,4.678011583900698e-10,-4.1884530341702025e-10,-2.7572893645157526e-11,4.971785240084149e-10,-1.6934442476688522e-10,0.043937706885623484,0.03661874792994473,0.20038981251435675
2644.0,1.7229113772637588e+18,-1.900902987,-0.902835488,0.16798797249794,-0.020533584,0.0611343048512935,0.4076333343982696,-0.910865545,0.0,0.0,0.0,9.285459125362666e-19,4.081086878727523e-19,4.752857191655826e-19,5.4807011011280265e-11,-3.7717820495665605e-13,3.559545901126378e-11,-8.627812987227906e-26,-2.3588290370537433e-26,-1.980218656674131e-25,1.41887494687668e-10,1.7361789200328276e-10,-1.435658309017008e-10,1.2060437344566497e-10,7.453138142282634e-11,-1.9088511886336727e-11,0.043275126306350296,0.037288643157713755,0.2008963062821495
2646.0,1.7229113772743235e+18,-1.900193453,-0.902670503,0.1686267554759979,-0.022102414,0.058157902,0.4097557961940765,-0.910071135,0.0,0.0,0.0,-8.83623848766054e-19,-2.550359833589986e-19,-1.5087488336162392e-18,5.750782483238371e-11,7.310231622099981e-12,3.937851415155591e-11,-1.1515658148349913e-25,-6.388868287293656e-26,-1.2941915977731044e-25,1.9360686583433763e-11,6.168639212357225e-10,-4.570223271896937e-10,-2.58299433594586e-11,2.740852893736818e-11,-5.6598604983573505e-11,0.04049850214762498,0.03773609660948181,0.20343379350277302
2648.0,1.7229113772836045e+18,-1.899738431,-0.902670383,0.1688203066587448,-0.022987092,0.0573383271694183,0.410791814,-0.909634054,0.0,0.0,0.0,-1.4927427754944788e-18,-8.571061818211592e-19,-2.233888293503578e-18,4.001796443499714e-11,-3.0690451933988146e-12,1.0154727909066692e-11,1.6655823350411092e-28,-1.6609189492562734e-26,2.8195835271728965e-26,9.02276079687508e-11,2.2843494987801912e-10,-2.567630408688478e-10,4.89505163302673e-11,-3.1518381104751615e-10,1.3756465231398914e-10,0.039628709094389904,0.03825489631760247,0.20453742064942904
2650.0,1.7229113772937874e+18,-1.899431586,-0.902736068,0.1688041687011718,-0.023555016,0.057624798,0.4116013050079345,-0.909235358,0.0,0.0,0.0,-7.559321301570658e-19,-4.870327748700909e-19,-7.588377047165515e-19,2.9194104681660746e-11,-8.878339010217726e-12,-2.371326272511774e-12,4.997955220976264e-26,2.599576272339046e-26,1.050768980261554e-25,1.1726171924396837e-10,-1.3503700859309841e-11,-1.818930225617154e-10,-1.3498887420030608e-11,-1.4161379039464926e-10,7.132216813623644e-11,0.039771962132242426,0.038854938748872685,0.205227623818638
2652.0,1.7229113773033626e+18,-1.899160504,-0.902842939,0.1687743812799453,-0.023753764,0.0579750314354896,0.4120867252349853,-0.908988059,0.0,0.0,0.0,-4.788542781423283e-19,-3.312786748650665e-19,-1.108629906839151e-19,2.472016420120668e-11,-1.2790296967839604e-11,-5.394174558993833e-12,1.6486698981801362e-26,1.9020979164865188e-26,4.8549124990993605e-26,6.322983312868958e-11,-5.47926309112794e-11,-1.1411870459637492e-10,-2.883639519306515e-11,-2.1197746279373673e-11,5.056548617514992e-11,0.040056630763206307,0.03915662708480299,0.2056427104502608
2654.0,1.7229113773136404e+18,-1.898946047,-0.902992368,0.1686937510967254,-0.023937799,0.058352474,0.4124529957771301,-0.908792973,0.0,0.0,0.0,-4.467612012617259e-19,-1.0539484340560347e-19,1.7714792414865035e-19,1.9670467665422535e-11,-1.5342644296279988e-11,-4.27385025836657e-12,2.0970489933590608e-27,2.4454136758563106e-26,9.202963927899329e-27,5.958892885783807e-11,-5.5899193418057187e-11,-8.076205021141556e-11,-5.927461815873698e-11,-6.59615361438264e-12,3.122978180624369e-11,0.04035833282721194,0.039444056538483235,0.20588048744647464
2656.0,1.722911377323212e+18,-1.898768425,-0.903146386,0.1686846762895584,-0.023577424,0.058533035,0.4127008318901062,-0.908678174,0.0,0.0,0.0,-4.358301263148586e-19,1.5074492687415927e-19,9.748199431223809e-20,1.5791413611165613e-11,-1.5077307788094355e-11,-1.970835776174011e-12,1.471548513207685e-25,7.609202142788887e-26,-4.3070444004541454e-26,-5.5319403188784375e-11,-6.798493814004468e-11,-5.1659140983887544e-11,-5.491545985419e-11,2.152532159643022e-11,1.1398459746527187e-11,0.040660541658693095,0.039218149679139794,0.20617990000599903
2658.0,1.7229113773343409e+18,-1.898628473,-0.90330106,0.1686495095491409,-0.023312759,0.058475014,0.4130119383335113,-0.908547401,0.0,0.0,0.0,3.0911550433832134e-18,1.6358831457966513e-18,-8.314518683667824e-19,1.0545673084730703e-11,-1.18078361068402e-11,-2.737964881630729e-12,-1.5418685655136615e-24,-2.37290931999659e-24,6.9685711454453565e-25,-5.024199085054192e-11,-1.2848550225196742e-11,-5.7965130718361185e-11,2.6959848167604993e-11,2.1471784057063414e-11,2.290081286444773e-11,0.04073889440138699,0.038990338832534076,0.20649465640403464
2660.0,1.7229113773733655e+18,-1.89849472,-0.903475761,0.1686004102230072,-0.023092821,0.0589049905538558,0.4131287038326263,-0.908472121,0.0,0.0,0.0,-3.114456557374161e-16,-4.339481754091343e-16,1.3314696180931558e-16,6.186891279163454e-10,2.356911858271639e-10,-1.3953197919670833e-10,-1.0059871915926853e-22,-2.83367646829258e-23,-4.5332392749487653e-23,-1.3997068535743911e-12,-2.504137002591785e-11,-5.857515254992085e-12,-3.083884004485895e-10,-2.208756665143554e-09,-4.2996969098646654e-09,0.04119041894691435,0.03895327581972971,0.20659202122377604
2662.0,1.72291137737376e+18,-1.898248196,-0.903381824,0.1685448139905929,-0.022712816,0.059604987502098,0.414707214,-0.907716513,0.0,0.0,0.0,-3.5150048512784586e-16,-4.451954082127543e-16,1.1506904107715714e-16,4.945208965005826e-10,6.274452448403485e-11,-8.64610771356737e-11,-4.288592925772607e-23,5.704724466144446e-23,-6.838010082698407e-23,-6.67018791747721e-10,-4.430361880512305e-09,-8.657358950447692e-09,-2.1310086745237855e-10,-7.817587622405898e-10,-6.793662159870476e-10,0.042098865109951394,0.03894040085177837,0.20818816824360475
2664.0,1.7229113773744404e+18,-1.898064733,-0.903544962,0.1685499101877212,-0.022384293,0.060024686,0.4151494801044464,-0.907494843,0.0,0.0,0.0,-3.1184823071379616e-16,-3.0596100654591086e-16,4.206803633813082e-17,2.1221185672210414e-10,-2.481645364248299e-10,-3.1001470626512934e-11,9.074359359376858e-23,2.1047088868267152e-22,-8.970757515370262e-23,-4.276014417583315e-10,-1.5885588945070974e-09,-1.3645899472290874e-09,4.823355733728327e-10,9.050774789649105e-10,5.051988927249993e-09,0.04261688721152808,0.038829722904867435,0.20870503414555552
2666.0,1.7229113773758984e+18,-1.897934675,-0.903933048,0.1683844774961471,-0.0217249,0.061871562,0.4142212271690368,-0.907810926,0.0,0.0,0.0,-7.812453957867583e-17,1.916006786649388e-17,-3.381537730611594e-17,7.942665375214562e-11,-2.226828919540518e-10,-9.2858357041123e-11,1.369677965879933e-22,1.884427339630021e-22,-4.322990649571497e-23,2.9765235499794435e-10,-2.620206922582484e-09,1.4466189040522933e-09,2.2354180535669497e-10,9.45841874479055e-10,4.634424451963098e-10,0.04429294252419628,0.0388440183675804,0.20769967968947056
2668.0,1.722911377383874e+18,-1.897727966,-0.90381074,0.1685432642698288,-0.022404095,0.060768314,0.4157738387584686,-0.90715903,0.0,0.0,0.0,-4.308082525469781e-18,1.4181014099572323e-17,6.192478793431202e-18,2.1534222786594682e-11,3.519540656776053e-12,1.3231730695024053e-11,5.132956181686182e-24,-1.1208981845257078e-24,2.3132874543936523e-24,1.9482168955058455e-11,3.031248544510125e-10,-4.3770505683646775e-10,-1.4913750074818845e-10,1.3078503840722135e-09,-7.731182498574609e-10,0.043316146878945014,0.03912423369270045,0.20933677139026918
2670.0,1.722911377393025e+18,-1.897576928,-0.90390259,0.1685942411422729,-0.022420634,0.060775615,0.4161879122257232,-0.906968236,0.0,0.0,0.0,-6.177982146993496e-19,-1.2905277592670964e-18,-1.0181443041946128e-18,1.3090124565046143e-11,-1.559807764634148e-11,-4.74403404487565e-12,2.837504504949666e-25,-1.0136069263059988e-24,-4.575289131952299e-25,-6.226464984325573e-13,-4.5061544380569045e-12,-9.961759566262863e-11,-3.2873172032546057e-12,-3.437396730270007e-10,3.0776548569337796e-10,0.043365149271425166,0.03916524302485476,0.2098200608622388
2672.0,1.7229113774079168e+18,-1.897464752,-0.904269636,0.1682736277580261,-0.021236146,0.063440613,0.4150432646274566,-0.907338679,0.0,0.0,0.0,7.113889027262908e-19,2.3721124396337103e-20,1.7616632631623448e-19,1.1280314502945354e-11,-1.5462874875560968e-11,3.0244819564392686e-12,3.268696736039313e-26,3.5125770979656147e-26,-1.642690430904671e-26,1.2907534548549244e-11,-3.843544916029889e-10,1.778259145502882e-10,-2.2830565431277386e-11,1.2741744671935943e-10,3.3004923680624985e-11,0.04589307943541629,0.038988479912126055,0.2085112273301338
2674.0,1.7229113774195187e+18,-1.897300005,-0.904366016,0.1685306578874588,-0.021607583,0.062007379,0.4152058959007263,-0.907354593,0.0,0.0,0.0,5.792973109504699e-19,-4.896463016240632e-20,-8.878075642132565e-19,2.706242928467941e-11,-1.505531650825183e-11,1.9454398840796665e-12,-8.331083797549502e-26,2.0909361502614653e-26,-1.912849140932042e-27,-4.628377736098733e-11,2.5032873900066193e-10,-3.360774830137867e-11,4.350272294758778e-12,1.3437885344705295e-10,-1.7080002144466645e-10,0.044563608614267995,0.03885325505107422,0.20890148934355227
2676.0,1.722911377424839e+18,-1.897124648,-0.904462576,0.168491706252098,-0.021559071,0.0623008273541927,0.4156041741371155,-0.907153189,0.0,0.0,0.0,-3.940430508221406e-20,1.2857263656362164e-19,-6.789201034618277e-19,2.8239036354599905e-11,-1.5520974300882523e-11,-4.716893321185541e-12,-7.766928250607774e-26,2.3594870079018442e-26,5.774993098774878e-26,2.16080791380668e-11,-1.1559678470888295e-10,-1.6377412833904468e-10,2.7577904023413278e-11,-1.4556598256686224e-10,-3.532317108733527e-11,0.04488013831370279,0.03892425346188651,0.2092728317074388
2678.0,1.722911377434323e+18,-1.896936655,-0.904565334,0.1684910058975219,-0.021547619,0.062483173,0.4160541594028473,-0.906934679,0.0,0.0,0.0,-1.2302118085453135e-19,1.8707418372607887e-19,1.8133256963066784e-19,2.34600644060831e-11,-1.0648065106426012e-11,-1.4622895142594636e-12,6.640811403356251e-27,-2.3943159965888616e-26,1.5321124946961075e-26,8.872030685839225e-12,-4.0803226133062514e-11,-1.0425409047604921e-10,-3.638789319152479e-11,-2.2513089760961497e-11,5.735071111575126e-11,0.04509527471897885,0.038995540718926525,0.20973677210211472
2680.0,1.7229113774438618e+18,-1.896677971,-0.904665112,0.1684637367725372,-0.021022178,0.063071355,0.4162980318069458,-0.906794369,0.0,0.0,0.0,8.862136962423573e-20,-3.302032513472306e-19,-3.9575222970774575e-19,2.594067542441337e-11,-1.1998192785016167e-11,-1.285214465341872e-12,1.6777251829194375e-26,-3.461097026844667e-26,-2.744205555380236e-26,-5.116770724498277e-11,-1.6062296423080595e-10,-4.907270610754217e-11,1.8582528756959296e-12,5.021099350994848e-13,-2.8461565775683957e-11,0.045803131587290484,0.0387631616913705,0.2100602622421758
2682.0,1.7229113774539968e+18,-1.896427751,-0.904803276,0.1684676557779312,-0.021047572,0.063263603,0.4170387387275696,-0.90643996,0.0,0.0,0.0,2.0039898329219914e-19,-4.697328649638976e-19,-3.1790837874657403e-19,2.499277470846928e-11,-1.7376437882251843e-11,-9.757752320478483e-12,9.469654618995232e-27,1.0151768211422364e-26,5.141695093019768e-26,1.2588536437231085e-11,-3.9799006262863545e-11,-1.6117722202741713e-10,8.466769944532837e-11,-1.3762839117849165e-10,1.393996483202986e-11,0.04605221258456647,0.03888084296450242,0.21082502248339327
2684.0,1.7229113774655974e+18,-1.89613378,-0.905054569,0.1682197600603103,-0.020622186,0.065838344,0.4171586036682129,-0.906211257,0.0,0.0,0.0,2.8955005737935615e-19,-3.436755568986716e-20,8.592992710733599e-19,3.122033329651889e-11,-2.2016658453625035e-11,-6.566846924970691e-12,3.231609461885941e-26,-7.387313245577764e-28,5.093390381325728e-26,1.1816769164567398e-10,-4.358797465877892e-10,-2.119277644348245e-11,1.7713085915758043e-11,7.853444959943275e-12,-2.1373484557472513e-11,0.04841535110538416,0.03936623234912578,0.2107748723736397
2686.0,1.7229113774731791e+18,-1.895867944,-0.90522325,0.1682433187961578,-0.020799922,0.065981075,0.4178489148616791,-0.905878723,0.0,0.0,0.0,6.566098723282115e-19,-2.2959020059548044e-19,9.950154357802641e-19,3.219032713645012e-11,-2.0465499461602455e-11,2.8430377552260858e-12,7.622491096946375e-25,-7.353557036655436e-25,-1.6604740507810476e-26,4.801470826874717e-11,-2.4092116342976994e-11,-2.0392419114236215e-10,-5.727047277486763e-11,2.1979616194346453e-10,5.873509269433442e-13,0.048568396237159625,0.03959454451342047,0.2114855664302114
2688.0,1.7229113775497137e+18,-1.895623565,-0.905412078,0.1682567298412323,-0.021035545,0.06589441,0.4185305833816528,-0.905564785,0.0,0.0,0.0,6.10496091681163e-16,-6.047437776936115e-16,-2.6934187030290337e-17,4.908889657164691e-10,-3.7348188782824824e-10,-1.1115075919071549e-10,-7.170023386245888e-22,7.333721001868824e-22,1.5526788182258978e-22,3.626746095938717e-12,3.7125772991398275e-12,-2.001807458959576e-11,-1.467016281310624e-10,-1.0403478728270356e-09,-7.383372474476004e-10,0.04850534982388035,0.03979289473142157,0.21216113853124408
2690.0,1.7229113775502205e+18,-1.895373106,-0.905602634,0.1682000160217285,-0.02078403,0.066342473,0.4189315438270569,-0.905352533,0.0,0.0,0.0,2.446282115584623e-16,-2.30523672924898e-16,5.229045811217906e-17,8.023665476503833e-10,-6.82029061770915e-10,-1.2488857822637986e-10,-1.0547991154740795e-21,1.7231944485502544e-21,1.6355906036857683e-21,-2.453885479933776e-10,-2.104787861997048e-09,-1.680598686037563e-09,-1.5040617034124414e-09,-2.4553256395670306e-09,-1.2729141517166735e-09,0.04902916209991175,0.03974224255321078,0.21256731243290605
2692.0,1.7229113775504763e+18,-1.895128131,-0.905816555,0.1681663990020752,-0.020195097,0.066742748,0.419266939,-0.90518105,0.0,0.0,0.0,-6.80982160245959e-17,3.372606967116375e-16,6.614626024236413e-16,8.172025791185352e-10,-6.921839529848767e-10,-1.0127115238563351e-10,-1.7460439254981817e-22,1.2775158895382519e-21,1.6878542740882642e-21,-3.004496660728944e-09,-4.9069387018349215e-09,-2.565846378022943e-09,-5.205240589850645e-10,8.128253120347496e-10,-3.875117700990387e-10,0.04961593280095283,0.03939223519987767,0.21300198460218986
2694.0,1.7229113775508426e+18,-1.894902587,-0.905994415,0.1681451350450515,-0.019975029,0.066714309,0.4196915626525879,-0.904991329,0.0,0.0,0.0,4.179856643013405e-16,3.106236686041787e-16,9.155509772903974e-16,7.26079606253348e-10,-3.708186968807389e-10,4.396902345185512e-10,1.4730746450022087e-21,-9.091322179312774e-22,-2.038662502079386e-21,-1.2864366659635065e-09,-4.79137237927549e-10,-2.4556222262356405e-09,5.280809745859376e-09,8.931619726028288e-09,-2.580588330287121e-09,0.049723130834813944,0.039212123188757816,0.21346243643570326
2696.0,1.7229113775511903e+18,-1.894613743,-0.906085491,0.1684622019529342,-0.022198549,0.065200359,0.4207726716995239,-0.904547751,0.0,0.0,0.0,9.783287097805915e-16,-2.8138050880757665e-16,-6.945937529028224e-16,1.091353675591523e-09,-4.4976588143331296e-10,5.728554444119737e-10,-7.833163205086209e-22,-8.568642397633592e-23,-2.7220384628778198e-21,7.55712283098981e-09,1.2956300750221656e-08,-7.727023038597185e-09,5.026088443456815e-09,1.2618493913185777e-09,-1.3215432801250409e-09,0.047807298860590645,0.0406598800330603,0.21452350458617686
2698.0,1.7229113775514734e+18,-1.894244671,-0.906256139,0.1685461848974228,-0.023489874,0.065444604,0.4213377833366394,-0.90423435,0.0,0.0,0.0,2.0423844347002816e-16,6.727671224120371e-17,-1.0249793461237498e-15,1.3516650644295613e-09,-5.419541017906734e-10,1.2769226397959874e-10,-2.660376830543849e-21,1.2687915800492692e-21,6.826633161003604e-22,8.765740220950123e-09,2.0445615447096062e-09,-5.098708786485722e-09,-8.51821866879115e-09,-7.453694163376031e-09,1.7145957402501736e-09,0.04765535760934418,0.04186744992411271,0.21497737910792653
2700.0,1.7229113775517033e+18,-1.893924952,-0.906369388,0.1685440093278885,-0.022442449,0.065176651,0.4218607246875763,-0.904036403,0.0,0.0,0.0,-3.936105449867363e-16,3.6593362163527577e-16,-5.228185102749999e-16,1.2651317396660854e-09,-4.531565153621099e-10,-5.786164889977963e-12,-2.3507536778685436e-21,1.1629448683646092e-21,1.99649287360722e-21,-9.479314506592492e-09,-1.9510875765304067e-09,-4.2978315580968375e-09,-4.920541639984876e-09,-9.914028446539704e-10,2.5010048618323793e-09,0.04784434510047066,0.04091685988600952,0.21572941668203574
2702.0,1.72291137755384e+18,-1.893716812,-0.906553745,0.1686046868562698,-0.021438345,0.064629965,0.4220272898674011,-0.904022396,0.0,0.0,0.0,-4.541168021736523e-16,1.458161100179451e-16,1.168987656150402e-17,8.25159268702783e-11,-7.503225093235517e-11,2.5169765402352556e-11,-1.4651499408805344e-23,-8.698068155888503e-23,2.043996550679796e-22,-1.0753430590196286e-09,6.175585540166555e-11,-9.669906282096358e-11,4.642001823259469e-09,1.0231078658312291e-09,2.211541821729503e-09,0.047728668846431135,0.039899548964735486,0.21616813989537947
2704.0,1.722911377563454e+18,-1.893567562,-0.906788766,0.1687071174383163,-0.020743664,0.063833222,0.4215335547924042,-0.904325485,0.0,0.0,0.0,-3.94093143242118e-18,2.9739269327802455e-18,-1.705917495362562e-18,1.2951809102794454e-11,-2.007341935850432e-11,1.6575791256159808e-11,2.3665231349399934e-23,-7.586976245402603e-24,-6.724509603395406e-25,-1.9531086007355246e-10,9.512815513205153e-11,1.252520853621683e-10,4.702213725582147e-10,7.94289152375821e-11,5.4514101449639067e-11,0.04720703384564103,0.03903645210390126,0.21589058291847993
2706.0,1.722911377573113e+18,-1.893467426,-0.906940222,0.1689246892929077,-0.020599799,0.062596239,0.4214988350868225,-0.904431343,0.0,0.0,0.0,-1.216028772690238e-19,2.5310228164715845e-19,-1.2047556670855608e-18,6.861814723093881e-12,-1.796501806470408e-11,-7.782074269967188e-12,2.6024650547822985e-25,-1.465811268562449e-25,1.8090831518344357e-25,-1.3490031390319907e-10,2.2061368587682975e-10,1.2329140078314563e-11,1.9324359019785185e-10,-2.340677437587986e-10,-1.4258349737159491e-11,0.04617735289808928,0.03852321062052096,0.21612967241325157
2708.0,1.7229113775837292e+18,-1.893435478,-0.9071576,0.1684884577989578,-0.020650854,0.064825095,0.4210106134414673,-0.904500604,0.0,0.0,0.0,1.0641192057498627e-18,2.733409393222573e-19,2.221199076212919e-18,1.1508468130733636e-11,-1.4871774960196605e-11,-5.205491472505769e-12,6.658813417414599e-26,7.542785296235049e-27,1.7231369927075974e-25,1.911763203221512e-10,-3.730073323855457e-10,9.673538588784932e-11,2.0534402791207963e-11,2.8814878505229524e-11,-3.590284101026699e-11,0.04803328054196126,0.039243089736581055,0.21510126907617128
2710.0,1.7229113775957386e+18,-1.893181801,-0.90726006,0.1689134836196899,-0.020867763,0.063069187,0.4213350117206573,-0.904468775,0.0,0.0,0.0,1.2510461221048242e-18,4.405002024613705e-19,2.2472886327483678e-18,3.279836320168555e-11,-1.1834085174741748e-11,4.834929064070648e-11,-2.3656230006276822e-26,-2.024844973669125e-26,-1.894539588875597e-25,-9.383150832078314e-11,2.782434428872888e-10,-5.947654194221942e-11,-1.830671782173117e-10,4.132420975898066e-10,-8.948868085734169e-11,0.04647382377895329,0.03890092110626513,0.21590110276538815
2712.0,1.7229113776039596e+18,-1.892846465,-0.907375932,0.1693838834762573,-0.021023951,0.061073061,0.4216463267803192,-0.904456973,0.0,0.0,0.0,8.358515736034258e-19,8.176109661718766e-20,-3.885817819221691e-19,4.0147170828846677e-11,-7.157270697213005e-12,5.437548743209962e-11,-4.320480229088452e-26,-6.577490490580492e-26,-2.328862287144966e-25,-1.749580361124722e-10,4.5347686279406747e-10,-8.224197582683408e-11,-3.672846013978081e-11,5.466178498264473e-11,-5.38011387852055e-11,0.04472380146074504,0.038428385352134185,0.21675848661791203
2714.0,1.722911377613493e+18,-1.892470837,-0.907367468,0.1698708236217498,-0.021130273,0.059049036,0.4223755598068237,-0.904248714,0.0,0.0,0.0,5.046639273752614e-19,-7.900423213943399e-19,-1.6387450192391812e-18,4.747379572078543e-11,-1.176327475027808e-11,3.8270972716291655e-11,-3.6956179389425805e-26,-3.442151259344479e-26,-1.382086200713698e-26,-1.6728842860034476e-10,3.8756701285257826e-10,-1.6707881951263043e-10,4.330869535246482e-11,-2.571383819201952e-10,1.3265449767412594e-10,0.04301494413542669,0.0379203258089899,0.21809966128908967
2716.0,1.7229113776231944e+18,-1.89193058,-0.907606483,0.1701156795024871,-0.020565776,0.059153456,0.4216038882732391,-0.904614925,0.0,0.0,0.0,1.2425521004638346e-19,-5.610084412188146e-19,-6.146740953987145e-19,4.9764886701519813e-11,-2.245757654374401e-11,2.2871646506127287e-11,-3.122911106439552e-26,4.170890409820494e-26,1.0015627937094356e-25,-8.834064540754256e-11,-6.079990104632286e-11,1.8306701952141783e-10,4.4823352866791025e-11,-2.1565838657770867e-10,1.2473657628562848e-10,0.04319367928287024,0.03747585445875583,0.21768614547255782
2718.0,1.7229113776349176e+18,-1.891431093,-0.907838881,0.1703502684831619,-0.020017387,0.0592034831643104,0.421199083328247,-0.904812515,0.0,0.0,0.0,-1.2876439065014554e-19,1.8437766906613407e-19,4.829416300209813e-19,4.963623931206661e-11,-2.1365505110334762e-11,2.944488728790423e-11,-2.703290930337614e-26,3.66882750497592e-26,1.2137938354393609e-26,-7.76417228667627e-11,-4.374976030283909e-11,8.239433305862655e-11,-2.410764356244011e-11,1.5095728866084824e-10,-1.0578931079340199e-10,0.04336472415315667,0.03704173880241514,0.2176479866067007
2720.0,1.7229113776431286e+18,-1.890983105,-0.908023179,0.1706462949514389,-0.019933982,0.0580693,0.4213180840015411,-0.904832423,0.0,0.0,0.0,-3.820738788603599e-19,3.3096047766180363e-19,1.1396732677959495e-19,4.790155669607244e-11,-1.9326971224394935e-11,3.296310821840667e-11,4.979502325612027e-27,1.615763180539208e-27,-1.7381904778119505e-26,-1.3655593253242278e-10,2.411146762753736e-10,-2.8511602065386144e-11,2.7471533535221318e-12,1.4892252601185785e-10,-8.336020235308693e-11,0.04242251236176083,0.03662390278336333,0.21814176080347475
2722.0,1.7229113776547743e+18,-1.890535235,-0.908196747,0.1709791421890258,-0.02020571,0.0565436854958534,0.4217567145824432,-0.904718637,0.0,0.0,0.0,2.6772458166399227e-19,8.159705659636451e-20,3.6667562843937124e-19,4.0630742106676076e-11,-1.4106892285374784e-11,2.9095460581294013e-11,3.37567400677219e-26,-2.423700165852482e-26,1.0040773570890304e-26,-7.214741615971844e-11,2.540952917208766e-10,-8.43260716475473e-11,5.3235335096329005e-11,2.0535456256483532e-11,-3.355353548047247e-11,0.04105899914011896,0.036387398629216104,0.21895899202194344
2724.0,1.7229113776657674e+18,-1.890066028,-0.908343554,0.1713043302297592,-0.02073996,0.055059981,0.4222096800804138,-0.904586852,0.0,0.0,0.0,4.100988142260282e-19,-2.1415436597595752e-19,3.5606852193129685e-19,5.283093396282619e-11,-1.7014611178704856e-11,4.037779620799432e-11,-6.653937040528823e-26,-5.7640652622726046e-27,-1.0899936636928598e-25,-3.0085262339764774e-11,2.8218558878834065e-10,-9.561867302633108e-11,-5.49834309500262e-11,8.095283194514272e-11,-3.464825553018994e-11,0.03964184954616284,0.03638527789839595,0.2197467130329508
2726.0,1.7229113776733184e+18,-1.889614463,-0.908491015,0.171665221,-0.020813018,0.05333681,0.4227389097213745,-0.904441178,0.0,0.0,0.0,-5.046251670796623e-19,-1.48037932481766e-19,-1.027316265403431e-18,5.229850402711584e-11,-1.837054803138498e-11,3.959019888488932e-11,-3.044494906596117e-26,-2.33502079432345e-26,-1.21929833046183e-25,-1.8211427805977084e-10,4.1600095561116206e-10,-1.5362258270792719e-10,-4.0818871256592e-11,-3.963259040174732e-11,1.9494271295988978e-11,0.038181220282252924,0.0359168173508536,0.22074316623840984
2728.0,1.722911377685461e+18,-1.889125943,-0.908691466,0.1719857603311538,-0.020738659,0.051928591,0.4230599701404571,-0.904374719,0.0,0.0,0.0,8.966287879518637e-19,-1.0584853059723483e-18,-1.3113625749148224e-18,3.7694415705882043e-11,-1.955238705300125e-11,9.092913101630291e-12,8.40923767392928e-26,-2.2376902608443232e-26,1.0203985334868684e-25,-1.1172300485294878e-10,2.02920407984846e-10,-5.663013043435312e-11,7.774356313136679e-11,-2.8192745120407123e-10,9.75133991466575e-11,0.03701898678367195,0.03541675300842148,0.22149543247838088
2730.0,1.722911377698183e+18,-1.88868022,-0.908980787,0.1718707829713821,-0.020173909,0.0527129285037517,0.4228498637676239,-0.904440343,0.0,0.0,0.0,1.5491507495233508e-18,-6.420262610906679e-19,1.6586548594385773e-18,7.708318542270328e-11,-4.582948324079417e-11,8.40764051302673e-12,-1.956838972820172e-25,1.360226270856891e-25,4.137243492569428e-26,-2.662715179703726e-11,-1.478539467969804e-10,4.140421558538783e-11,-7.003743923988974e-11,-1.41777681822644e-10,5.887362131316907e-11,0.03786796992435706,0.0351879550595197,0.2212180685348963
2732.0,1.7229113777037038e+18,-1.888153911,-0.909289122,0.1719589978456497,-0.019442236,0.052623726427555,0.4227383136749267,-0.904513776,0.0,0.0,0.0,-1.2292420381631245e-19,3.5640476296385843e-19,1.4268554318530948e-18,8.19294872120882e-11,-4.5963565693211034e-11,2.16679080922113e-11,-2.2457225933627217e-25,1.2910974202096734e-25,-7.749817123862708e-26,-2.517978833327283e-10,-8.063495566044195e-11,6.1117112191985e-11,-1.1425576726809829e-10,1.3003756350008323e-10,-2.499407887156641e-11,0.03802673124219142,0.03454307183299469,0.2213229438219976
2734.0,1.7229113777143578e+18,-1.887556553,-0.909575582,0.1723068207502365,-0.018467993,0.0515075102448463,0.4228391051292419,-0.904551327,0.0,0.0,0.0,-9.058908165200848e-19,6.682672144857522e-19,-1.2892116370755364e-19,6.004527908832297e-11,-3.433963896148524e-11,1.6824545515328384e-11,2.733359439655911e-25,-3.186382053002212e-26,2.7555075245504134e-25,-2.5513868633323383e-10,1.1222118020318603e-10,-8.583942157744988e-12,4.348874614129722e-11,-7.9386790877873e-11,8.6378651468409e-12,0.03740107651098892,0.03337436525545363,0.22200799884019068
2736.0,1.7229113777242358e+18,-1.886927009,-0.909983039,0.1723280996084213,-0.017211698,0.052239969,0.4225521683692932,-0.904668152,0.0,0.0,0.0,4.970569946992023e-18,-2.0640212744139762e-19,6.4540425002906326e-18,6.161279041126921e-11,-3.161052167310462e-11,1.8533885129504818e-11,2.4853831621409083e-25,-5.190993001554545e-26,2.285706310699531e-25,-1.6482039105013385e-10,-2.3940853741618794e-10,7.83928424856668e-11,1.0051565952751016e-10,1.647838694766918e-10,-7.040897672487932e-11,0.03842981103157466,0.03255626059866522,0.22193052400745408
2738.0,1.7229113777397233e+18,-1.886024237,-0.910238564,0.1730128824710846,-0.018338565,0.048947703,0.4235590100288391,-0.904359221,0.0,0.0,0.0,4.092275555704257e-19,-1.2071764324376017e-19,-6.381598261554017e-19,2.5543867266364334e-10,-4.652791645677855e-11,2.710087105039537e-10,-1.4470393075723153e-24,1.4136165392871497e-25,-1.867489225531593e-24,-5.41073672782135e-11,4.4178891915656966e-10,-1.4940189560750363e-10,-2.1909149903338494e-10,1.8435953873467167e-09,-6.560393179902365e-10,0.035297155727667825,0.03247780458533188,0.22367060470956412
2740.0,1.7229113777428959e+18,-1.885085702,-0.910405695,0.1740200817584991,-0.019885518,0.0435596629977226,0.4252680242061615,-0.903799891,0.0,0.0,0.0,-4.9306937513005426e-18,4.160439192120592e-19,-7.479054113510363e-18,2.4886935483252313e-10,-4.63633766870916e-11,2.579746275365964e-10,-1.3500403234805152e-24,1.3102129540195762e-25,-1.7156666033874696e-24,-6.030033891169037e-10,3.4477822372772456e-09,-1.2336857934948062e-09,-2.3299539570083678e-11,3.5983880072638276e-12,-1.2560707024001157e-11,0.030257664050441453,0.032079363918247686,0.2265818925255166
2742.0,1.7229113777538972e+18,-1.884139061,-0.91067481,0.174588605761528,-0.020476894,0.0410727001726627,0.4261091351509094,-0.903506935,0.0,0.0,0.0,-7.076034733434626e-18,4.015275637669182e-19,-9.546691020058325e-18,8.551880235879192e-11,-2.789344070371937e-11,4.710716689439037e-11,2.5910798496373163e-25,-2.9022156608254693e-26,3.820191087356972e-25,-1.0070644641838086e-10,4.489856951710973e-10,-1.7452330965550594e-10,2.9756190276932163e-10,-1.5052913067415924e-09,5.510712693489329e-10,0.027963377363756276,0.03179779228677002,0.2281712057870173
2744.0,1.72291137776385e+18,-1.883292675,-0.910983324,0.1750162988901138,-0.021395374,0.039076746,0.4266565442085266,-0.903315842,0.0,0.0,0.0,-4.082787152134007e-19,-1.3676163146907694e-19,-6.125182065975856e-19,8.50746231530941e-11,-3.539858394110036e-11,3.8717577475645797e-11,3.3001343311472923e-25,6.413565255010836e-27,4.631786273894826e-25,-7.87958357826044e-12,4.371996237940609e-10,-1.3154325479694046e-10,5.147492925682291e-12,-2.8899779056400153e-11,7.929976467705433e-11,0.025952835189862872,0.03194051823917765,0.2292332541240528
