seq,timestamp,px,py,pz,ox,oy,oz,ow,lx,ly,lz,ax,ay,az,vx,vy,vz,jx,jy,jz,wx,wy,wz,aa_x,aa_y,aa_z,roll,pitch,yaw
2846.0,1.7229115642813276e+18,-1.512595415,-0.66966933,0.1573683768510818,-0.015401687,0.0329649783670902,0.4303840398788452,-0.901912212,0.0,0.0,0.0,-1.6104654523407357e-17,5.772001825588613e-19,5.856758063424397e-19,3.56731085066594e-10,-1.4241236162382219e-11,-1.013410802215815e-11,8.69440750649219e-25,-2.628513795347006e-26,7.594226316080914e-27,0.0,0.0,0.0,-1.416429015928179e-10,-4.3257118746007934e-10,-2.6425593539594707e-10,0.02358581184427899,0.023634771166363547,0.2111035734678521
2848.0,1.722911564283617e+18,-1.511778712,-0.669701934,0.157345175743103,-0.015052309,0.0333371274173259,0.430669754743576,-0.901768029,0.0,0.0,0.0,-1.411414991334503e-17,5.170227774470833e-19,6.030620888242858e-19,3.19860960163469e-10,-1.2919789446830501e-11,-8.793257145711318e-12,8.555549408770806e-25,-2.7767798360344914e-26,-2.9075914694279893e-27,-1.416429015928179e-10,-4.3257118746007934e-10,-2.6425593539594707e-10,7.264401236457301e-12,9.617804849707828e-12,-2.7842915722087736e-11,0.024037471471316133,0.023458172186019647,0.2114052391916119
2850.0,1.722911564300539e+18,-1.510977626,-0.66975528,0.157364085316658,-0.015248958,0.033236209,0.4310880303382873,-0.901568592,0.0,0.0,0.0,-1.3733491884723835e-18,-1.383046328230902e-19,-7.596615179563729e-19,3.299870202790899e-10,-1.1697532958609394e-11,3.5862733902846455e-12,-8.330934998844034e-25,1.8100592337488916e-26,-8.707288186435856e-26,1.4528802472914602e-11,1.9235609699415657e-11,-5.568583144417547e-11,8.139930427460278e-11,-1.32492722265629e-10,1.8216095364462262e-10,0.023915597430998997,0.02360985118792304,0.21184756059516072
2852.0,1.7229115643026368e+18,-1.510211825,-0.669782043,0.1573722511529922,-0.014950041,0.033907052129507,0.4310036897659302,-0.901588917,0.0,0.0,0.0,-3.533624793285778e-18,-8.55506203310063e-20,-9.44035120133586e-19,3.265930036555108e-10,-1.2042443606920238e-11,1.6047042306408066e-12,-9.052160425665164e-25,2.9603158964369237e-26,-7.384091635975612e-26,2.115570695638765e-11,-6.975566319913373e-10,1.0006597189329817e-10,-1.916537065123558e-11,-1.2932715102368864e-10,5.257081892077364e-11,0.024585265523961505,0.023561283798284673,0.21179933402501844
2854.0,1.7229115643176044e+18,-1.509427905,-0.669885993,0.1571519821882248,-0.014004614,0.035451181,0.4307020902633667,-0.901688814,0.0,0.0,0.0,-3.786989143256155e-18,8.335109718969655e-19,-5.496539388601084e-19,6.912090483861547e-11,-4.9023085264778336e-12,-1.247128666366814e-11,3.257535244405572e-25,9.277853555966938e-27,1.0923900985679785e-26,-2.3801938829556555e-11,-2.394186923479616e-10,4.945580639737181e-11,-4.545399222653517e-11,2.5040080344427686e-10,-4.3353993078698353e-11,0.026206257353840547,0.023208163112579883,0.2112965483302644
2856.0,1.7229115643272684e+18,-1.508655429,-0.669920623,0.1570454686880111,-0.013288934,0.036164157,0.4306689500808716,-0.901687205,0.0,0.0,0.0,1.499317004923591e-18,5.979236031476843e-19,-5.403336885393931e-19,1.1622907339467304e-10,5.377004270194296e-12,-1.534479721708106e-11,-5.373223662789884e-27,-6.830481014755307e-26,4.840716257255572e-26,-6.975227749668269e-11,-1.967550251027836e-10,1.3357985735901464e-11,-4.355643329725108e-11,1.9583751649668376e-10,-6.257286093444751e-11,0.02704935232166125,0.022807073658223903,0.21120389893087707
2858.0,1.7229115643326305e+18,-1.507924199,-0.669865131,0.1569503247737884,-0.013203939,0.035665307,0.4308572113513946,-0.901618421,0.0,0.0,0.0,-1.729804158454619e-19,1.0096692305734095e-19,-1.39611405914774e-19,1.1422631348390217e-10,7.197456511789689e-12,-1.8965126258411047e-11,-2.2795466333552966e-25,-7.220940032993056e-26,7.686989761112166e-26,-1.1091480542405871e-10,1.5225634064540587e-10,-7.568991547152321e-11,3.9886299713045786e-11,9.559195528868232e-11,1.1741147950908773e-11,0.026659403147374465,0.022575305220540895,0.21128122835338906
2860.0,1.7229115643473213e+18,-1.507137299,-0.669886231,0.1566225439310073,-0.013243018,0.035737488,0.4306111335754394,-0.901732564,0.0,0.0,0.0,-1.4437873569594088e-19,-1.3600861707401324e-19,1.0757464304969916e-18,1.1975562620893176e-10,-9.198304346866178e-13,5.389664017728581e-13,-1.668057858045244e-25,1.8039353807953614e-26,-6.602939095209936e-26,1.0020321929408885e-11,-5.571114525418948e-12,3.684028163771901e-11,1.7348477466132258e-10,1.944292581641635e-10,-5.097034350788074e-11,0.026700849805226985,0.022601698801797396,0.21059002580501646
2862.0,1.7229115643527066e+18,-1.506361723,-0.669890165,0.1566705554723739,-0.014460641,0.0346909686923027,0.4309998154640198,-0.901569009,0.0,0.0,0.0,-1.3757918568240943e-18,2.8591255842653604e-20,4.265057400881631e-19,1.1795010880306827e-10,-8.3000514400781e-13,5.834843282004746e-12,-1.6681327941386967e-25,2.0949977334819503e-26,-1.2668522711230238e-25,2.3605474389858644e-10,5.411148569737329e-10,-1.776306024872847e-10,6.871720664920366e-11,1.2300890525168877e-11,-1.7156545608189245e-11,0.025438884084314033,0.023337292178912346,0.2109230486234228
2864.0,1.722911564365734e+18,-1.505646706,-0.669904113,0.1566494852304458,-0.01537942,0.034993395,0.4309496581554413,-0.901566088,0.0,0.0,0.0,-1.5996940915646475e-18,-1.5015240379112885e-21,-1.4169020307112754e-18,6.723600022141209e-11,-8.216201314954365e-14,-6.159380003485777e-12,7.277941253919707e-26,1.0358344209789165e-26,-8.203617472411243e-27,1.474547352278162e-10,1.9030666524918808e-11,2.527190421340518e-12,-9.535543056778699e-11,-3.7816377327555593e-10,8.626375057473702e-11,0.025411226616336414,0.02422127445661698,0.21074526057912527
2866.0,1.7229115643746542e+18,-1.504971504,-0.669898808,0.1565667986869812,-0.015148882,0.035945583,0.4309776723384857,-0.901519179,0.0,0.0,0.0,-4.009546540078361e-19,1.6827746104596295e-19,-6.758752910666461e-19,6.697333907204461e-11,-4.553669073123818e-13,-2.1829464467431458e-11,1.4728674705915348e-25,3.715828008277534e-26,1.4408249353543935e-25,4.534388276301246e-11,-2.1521268957737894e-10,-5.103101337810646e-12,-1.311789456109947e-10,-2.6014831825560667e-10,6.381799338595649e-11,0.02631388386835353,0.024315825609414192,0.21069029398774863
2868.0,1.7229115643859635e+18,-1.504339099,-0.669919014,0.1561398357152938,-0.013315005,0.038231891,0.4303784668445587,-0.901740253,0.0,0.0,0.0,1.4497723584710934e-18,8.483966763399273e-19,1.8283771565424824e-18,5.711207489229184e-11,4.460388644248581e-12,-1.3976552873068056e-11,5.688212814672243e-26,-7.861396206961292e-27,3.4951929285871743e-26,-1.1490315599417316e-10,-5.012659699862946e-10,1.301631771932535e-10,2.8774555700903062e-11,2.684693068364602e-10,-6.692225481133213e-11,0.02883691564517201,0.023402161252776218,0.20972500308132513
2870.0,1.7229115643977825e+18,-1.503649354,-0.669789135,0.1562683284282684,-0.01471292,0.036768135,0.4310693442821502,-0.901449382,0.0,0.0,0.0,8.03346354431091e-19,-8.442348610089273e-20,-6.187669243626452e-20,1.0292422647006083e-10,1.9597882244216152e-11,2.1639869017150593e-11,-2.9438700450203996e-25,-1.2219736674943842e-25,-2.366074394510646e-25,1.0289299416481858e-10,3.217259240955414e-10,-1.389476109604749e-10,1.0220219062574603e-10,3.5573429391739204e-10,-2.243571249656941e-10,0.027179485915238607,0.02417832321626641,0.210442531129512
2872.0,1.722911564402726e+18,-1.50304842,-0.669674456,0.1563975661993026,-0.015165242,0.036383539,0.431763082742691,-0.901125312,0.0,0.0,0.0,-1.147500832016505e-18,-7.779575066383218e-19,-1.3900426168165034e-18,1.0054218966962425e-10,1.6357881501116297e-11,1.497541414412597e-11,-2.7751738588846196e-25,-8.790619844917488e-26,-1.691060010306527e-25,8.950122525731892e-11,2.102026178484895e-10,-3.185510727381347e-10,-6.193786380723438e-11,-2.6515500269152257e-10,2.7588702217114023e-11,0.02675129013870012,0.024478621708583476,0.21128543437390462
2874.0,1.7229115644147297e+18,-1.502454281,-0.669677496,0.1562517881393432,-0.014529511,0.0374496318399906,0.4322393536567688,-0.900863826,0.0,0.0,0.0,-1.0648136933798149e-18,-3.060761973566354e-19,-5.176128619110466e-19,6.73654276007445e-11,3.447743480122428e-12,-2.931169532982253e-12,1.846645021180995e-26,3.9449736605499823e-26,5.0844393113411406e-26,-2.0982733449650162e-11,-2.085840812875037e-10,-8.377020652624685e-11,-3.712003803227873e-11,-5.992980810719021e-11,9.880440724733282e-11,0.027916745963333406,0.02426597815115768,0.21166644385776898
2876.0,1.7229115644225882e+18,-1.501832962,-0.669631362,0.1562761515378952,-0.014754759,0.037148852,0.4326599538326263,-0.900670648,0.0,0.0,0.0,-8.601318663399549e-19,4.65132449127285e-21,-2.303871146809372e-19,6.773850162492223e-11,5.000845550218441e-12,-1.987311224266723e-12,9.887376459469692e-26,1.0974449634403883e-26,-7.79184080962133e-26,1.5261149192761454e-11,9.034300163410907e-11,-1.2094225824346908e-10,-1.0015655737856849e-11,6.566873556669347e-11,2.0388045398808023e-11,0.027615251746850568,0.024380961340593803,0.21211332938335467
2878.0,1.722911564433285e+18,-1.501273274,-0.669590533,0.1561808139085769,-0.014386971,0.037422657,0.432881236,-0.900558889,0.0,0.0,0.0,1.2579443433538361e-18,-2.9390180439658665e-19,-2.73062740623251e-18,4.5322244670801945e-11,2.240604822965452e-12,-9.555233473478388e-12,9.252264482443064e-26,-3.806082445163301e-27,-7.838628738285915e-26,-4.101404492536386e-11,-7.724661015411675e-11,-4.299411572863081e-11,-1.0742774480121852e-11,-1.130300314138936e-10,7.02139598575906e-11,0.027987885427125762,0.02414744829343232,0.21226280656224453
2880.0,1.7229115644498573e+18,-1.500701904,-0.669593871,0.1560059636831283,-0.013847672,0.0384153686463832,0.432753711938858,-0.900586963,0.0,0.0,0.0,8.30042990551722e-20,2.6187567368772237e-19,-4.122769204001284e-20,1.5226815297243606e-10,-3.550714837613727e-12,-1.0675034295255144e-10,-6.241847793817169e-25,8.167630048844135e-26,6.890901206661911e-25,-6.224399767482249e-12,-1.3571706119367814e-10,1.9485661471712115e-11,-5.289226444932827e-11,-5.717882438253301e-10,1.44888681045366e-10,0.02901679948918589,0.023973612474021622,0.21196584979393301
2882.0,1.7229115644529167e+18,-1.500169516,-0.669606626,0.1556250303983688,-0.012822727,0.0400052145123481,0.4324474036693573,-0.900680006,0.0,0.0,0.0,-2.13916822058492e-18,5.389508173652102e-19,2.364563211567155e-18,1.4892400999484565e-10,-2.4042232957358108e-12,-1.0358712070244265e-10,-5.913796490279983e-25,7.13640019075182e-26,6.485241657311207e-25,-1.467985738240204e-10,-1.2208230978047769e-09,2.467832463621012e-10,5.97872095526565e-13,4.649795226100636e-11,-2.4911391625840886e-11,0.030707995195308296,0.023544110569164053,0.211279048227837
2884.0,1.7229115644665103e+18,-1.499660492,-0.669532716,0.1554806232452392,-0.012674622,0.040249314,0.4326381683349609,-0.900579572,0.0,0.0,0.0,-2.0274165476998306e-18,3.494253663118365e-19,2.8561375952251705e-18,5.666133478291631e-11,1.4840291464572256e-11,8.924609430247163e-12,1.3163510698575853e-25,-8.336300998463532e-26,-3.0932672897948875e-25,-5.028655576429119e-12,-4.2721156671665414e-11,-3.033712177996966e-11,3.16294551472224e-11,6.688484036915043e-10,-2.7598075417216453e-10,0.030985927810208466,0.023485186176403803,0.21130866109129573
2886.0,1.7229115644736422e+18,-1.499184489,-0.669391692,0.1556174159049987,-0.012630442,0.039731279,0.4336246252059936,-0.900128663,0.0,0.0,0.0,-6.268206727949065e-19,-5.048677552009275e-19,-6.426892439691396e-19,6.001203821762934e-11,1.3893114086409372e-11,9.011403508214203e-12,1.24064144146611e-25,-7.79060536425068e-26,-3.23716375795911e-25,-8.353966352957559e-11,1.168737095782317e-10,-3.0517826198222794e-10,4.5676818434782295e-11,1.5329030790773414e-11,-7.017886794289094e-11,0.030622797026601943,0.023321613331649296,0.21252627662353435
2888.0,1.7229115644825938e+18,-1.498722911,-0.669333398,0.1555838286876678,-0.012985163,0.039937753,0.4342974722385406,-0.899789989,0.0,0.0,0.0,-3.2880786645593607e-19,-7.31721409501848e-19,-1.6655718232740396e-18,4.207976069737704e-11,5.193503907620589e-12,-4.099311249322357e-12,7.94028813609351e-27,-2.050780870377312e-27,-2.4752884981417343e-26,8.632498129313547e-11,-1.2063095090118587e-11,-1.7069485766575155e-10,6.373655911458666e-11,-5.121500810789622e-11,1.2075802712277264e-10,0.030747964626566027,0.023708404951261263,0.21315203701337926
2890.0,1.7229115645027645e+18,-1.498305202,-0.669288576,0.1554853618144989,-0.01347275,0.039990764,0.4348554909229278,-0.89951098,0.0,0.0,0.0,-1.320901811782536e-18,2.855452263010276e-19,1.9037515189213392e-18,1.1155335951661071e-10,1.348502922999588e-12,-4.6828188665483394e-11,-5.552180993012532e-25,2.698060337087263e-26,3.340003160882456e-25,4.393345469959772e-11,1.4443693362439278e-11,-6.366220773668266e-11,-1.4420618276276562e-10,-1.0153054351247643e-10,-1.2089890095539017e-10,0.03069047640465788,0.02415570451614196,0.21355258065326624
2892.0,1.722911564506192e+18,-1.497869968,-0.669284463,0.1553004384040832,-0.013029194,0.0401622354984283,0.435509979724884,-0.899193168,0.0,0.0,0.0,-3.5185083617237334e-18,3.6435907944252553e-19,3.1399363537582106e-18,1.0425116253110001e-10,2.604459700135847e-12,-3.7961104323749246e-11,-4.706050091711194e-25,1.265416948982261e-26,2.4007711585122874e-25,-2.0208738423239578e-10,-2.1512418211507145e-10,-4.124926595765319e-10,5.576025087911209e-11,1.2125471854515312e-10,-6.581349412050834e-11,0.031035956066521223,0.02382536759689397,0.214057556930614
2894.0,1.722911564514685e+18,-1.497463107,-0.669232786,0.1553146541118621,-0.014131288,0.0394577160477638,0.436214417,-0.898866117,0.0,0.0,0.0,-3.924994669639278e-18,2.5418213866052603e-19,2.6406011219085736e-18,4.515775240938644e-11,5.654899636117651e-12,3.401195057353247e-13,1.4870661865649792e-25,-1.9738440400737966e-26,-1.5250179641297675e-25,1.554539564578219e-10,2.5695313045274553e-10,-1.9528919597769935e-10,1.6655794068682532e-10,1.2267520686709168e-10,1.2574494972550156e-10,0.030131224401513,0.024587743527160158,0.21468523002339582
2896.0,1.7229115645232335e+18,-1.497100711,-0.669188142,0.1553060859441757,-0.01471821,0.0395761542022228,0.4368089437484741,-0.898562849,0.0,0.0,0.0,-9.623892567406868e-19,2.7229038874194923e-20,5.306065471288339e-19,3.770078654759544e-11,6.92444372661052e-12,6.830788068460136e-12,1.9254771397063753e-25,-2.5136787711712584e-26,-1.624971759284643e-25,1.3102849714125486e-10,3.0226231619111896e-11,-1.6100276012552877e-10,1.0847979368669407e-12,4.018727767323818e-11,2.179086452414031e-11,0.03010105312964282,0.02515357911134217,0.2152403355801544
2898.0,1.7229115645330593e+18,-1.496783257,-0.669100881,0.1554616689682006,-0.016167417,0.038414214,0.4374227225780487,-0.898289621,0.0,0.0,0.0,-8.098377410314932e-19,-2.0381572337643035e-19,-1.1369672246961433e-19,2.722712064296926e-11,5.822281616961194e-12,9.461984127711304e-12,2.3991495912082875e-26,-1.2634011293041754e-26,-4.377418631556581e-26,1.5762355233155578e-10,3.373276857992219e-10,-1.5170746692941872e-10,-4.6800326140414403e-11,-1.5182025692458926e-11,4.381295790039401e-11,0.028671447877098754,0.02609082680288232,0.21593091888351026
2900.0,1.7229115645465344e+18,-1.496510267,-0.669078946,0.1554714143276214,-0.016412523,0.038517356,0.4378570914268493,-0.898069143,0.0,0.0,0.0,-3.301038706155216e-19,-1.7299909568290906e-19,-3.007281446984043e-19,2.1047115473191684e-11,1.3822714245516628e-12,8.802564630691941e-13,8.003806947727247e-26,7.340236223831269e-27,1.398501484983237e-26,3.742784486042606e-11,-1.3781976580595798e-13,-7.337684432474075e-11,-1.0124697555939898e-10,-1.4617966402039597e-10,1.6913306555551604e-11,0.028719656205897417,0.026352424763409533,0.21638436062977964
2902.0,1.7229115645578944e+18,-1.496263623,-0.669065595,0.1554829180240631,-0.01632126,0.038165376,0.4384638965129852,-0.897789717,0.0,0.0,0.0,1.0046930062760469e-18,-4.1218992961905084e-20,1.2500063145791874e-19,1.852797144662618e-11,9.157788321031264e-13,6.830857141392814e-13,1.1524255616792262e-25,-2.6016446464857344e-25,-9.735862910846232e-26,-4.487039878724217e-11,4.496835775842997e-11,-1.1788085381831552e-10,-3.376700096864989e-11,-1.8721760922318922e-11,2.0036787436612642e-11,0.02848339845868955,0.026183686323549366,0.21706818622101615
2904.0,1.7229115646041864e+18,-1.496006489,-0.669072151,0.1554523706436157,-0.015343651,0.0386281721293926,0.4391963481903076,-0.897429109,0.0,0.0,0.0,5.913706199737929e-18,-6.335036275207563e-17,-2.981710121458152e-17,2.96394017346035e-10,-1.021475085743182e-12,3.3323823954679063e-11,1.517161661678732e-22,-9.266367753337938e-23,-3.779311108152925e-23,-3.010615707687373e-11,-3.75813416104438e-11,-3.330326945151547e-11,-2.77995163414695e-10,2.6761324564000835e-10,-8.988833950639411e-10,0.029253045046501384,0.02549019312208917,0.21794261363227221
2906.0,1.7229115646049347e+18,-1.495781183,-0.669072926,0.1554777175188064,-0.015264922,0.038323618,0.4398447871208191,-0.8971259,0.0,0.0,0.0,1.2127492714028194e-16,-1.3379377290087151e-16,-5.854654417685322e-17,3.0081809909525675e-10,-4.919155372844712e-11,1.064285668701612e-11,1.4431874229412035e-23,-6.26959347697826e-23,-1.7951145600443393e-22,-6.008607256166322e-10,5.801948490384467e-10,-1.915647643946198e-09,3.372071311500567e-10,1.4885492113738793e-10,-5.530760891783237e-10,0.029056917523334218,0.025348044406970437,0.2186945537106166
2908.0,1.7229115646055557e+18,-1.495594501,-0.669128299,0.1554723531007766,-0.015493503,0.0383337475359439,0.4401532709598541,-0.896970212,0.0,0.0,0.0,5.821049608848174e-17,-1.5652367540449726e-16,-2.427734668835022e-16,4.3560114992303165e-10,-1.6806805862210514e-10,-4.0272313700478144e-11,-4.313260948616381e-22,1.6084291623703e-22,-1.9634601388848374e-22,6.443081052232397e-10,2.6012850066433206e-10,-1.139455447808163e-09,9.37765293899726e-10,-9.75738741880641e-10,2.2377087486050945e-10,0.02901892265564123,0.02556149142553245,0.21899839248767
2910.0,1.7229115646059036e+18,-1.495416641,-0.669202149,0.1554521769285202,-0.015597185,0.0386413447558879,0.4403775036334991,-0.896845162,0.0,0.0,0.0,-1.561206169634035e-16,-6.208649651320357e-17,-2.9153778378947914e-16,4.249020714276885e-10,-2.1572424344688893e-10,-1.5607079272350485e-10,-4.762430273501032e-22,2.447664377501243e-22,3.3588119026498744e-24,1.2746698621828197e-09,-1.3712826347228355e-09,-1.468105894225179e-09,-1.3867266259751657e-09,-3.6193496807724214e-09,1.5061432758565027e-10,0.029277662898176713,0.02575390795613948,0.2192061621519927
2912.0,1.7229115646062712e+18,-1.495293975,-0.669282794,0.1553567051887512,-0.014687262,0.0396169647574424,0.4405504465103149,-0.896733105,0.0,0.0,0.0,-2.768824531634784e-16,1.752999005362653e-17,-2.345515487316409e-16,3.1881121248667395e-10,-2.0945590658200616e-10,-2.4719875498047944e-10,-3.1134228705352684e-22,2.0631776150418606e-22,1.4930387134619454e-22,-2.1291451467270915e-09,-6.978570860880511e-09,-8.382267926368625e-10,-6.340392990258265e-10,6.515234889392365e-10,6.702487470449182e-10,0.03044233235970982,0.02525316589210888,0.21938335567802017
2914.0,1.722911564613676e+18,-1.495150924,-0.669354618,0.1553916037082672,-0.014616562,0.039847318,0.4409767985343933,-0.896514475,0.0,0.0,0.0,-2.31919174979465e-17,1.535207310853191e-17,1.9083553546450847e-17,1.49950280598049e-11,-8.254235619734668e-12,5.3158830928216805e-12,2.022785519797398e-23,-8.760521560948636e-25,1.8251354581569618e-23,6.591264131166668e-12,-6.823565684436242e-11,-1.2760840013534254e-10,1.0812205454796727e-09,3.4250303728435056e-09,3.7619885875435264e-10,0.0307019039970955,0.02527769855665619,0.21991279192102783
2916.0,1.7229115646230582e+18,-1.495061636,-0.669414878,0.1554486453533172,-0.014506787,0.040450759,0.4413401782512665,-0.89631027,0.0,0.0,0.0,-2.218651875211187e-19,2.1512949613389455e-19,1.0311533840550545e-19,9.451053122695452e-12,-4.725865568113361e-12,5.834797504083055e-12,1.4097462807898937e-24,-9.398588342139256e-25,-1.1592578573308444e-24,3.3295944232254055e-11,-1.285101151935e-10,-8.582907512815715e-11,-3.672959823730914e-11,1.629455745505718e-11,3.084062137278103e-11,0.031300387073096854,0.025383613107835438,0.22041393849554253
2918.0,1.7229115646355732e+18,-1.494944453,-0.669445693,0.155517578,-0.014049985,0.040460028,0.4417300224304199,-0.896125078,0.0,0.0,0.0,8.387384376114401e-20,-3.0343573112750725e-19,1.5012774663815312e-20,1.2835238607671004e-11,-4.72031952122511e-12,7.923384733388721e-12,-9.715088232949741e-27,-3.5365572991080546e-26,-2.728139806792522e-26,-6.686793234345161e-11,-3.564654193424806e-11,-6.592715738978047e-11,-2.8432166490272594e-11,5.562907261068369e-11,-2.5991814613602713e-11,0.03147990870905174,0.024999695489272677,0.2210001167640222
2920.0,1.7229115646433426e+18,-1.494827986,-0.669493258,0.1555907875299453,-0.013959995,0.040472116,0.4422143697738647,-0.895887077,0.0,0.0,0.0,-1.5629302802821924e-19,-5.489277272547958e-19,-2.94575486044498e-19,1.2587187833644528e-11,-8.54348498004651e-12,7.307510256840326e-12,-2.096592047782018e-26,-3.20148655684185e-26,-4.9319470957617156e-26,-2.3568388748291133e-11,-1.7251969972132623e-11,-1.3781270435536258e-10,7.087039554695763e-11,1.310470932197856e-11,-5.798992407276167e-12,0.03155584516352736,0.02494338401857685,0.2216525974994264
2922.0,1.7229115646534664e+18,-1.494732261,-0.669611692,0.1556368619203567,-0.01429429,0.040677026,0.4425511956214905,-0.895706177,0.0,0.0,0.0,-2.373400870166367e-19,-8.785445623785207e-19,-9.18827288720179e-19,9.36431131170706e-12,-1.4850579114628373e-11,1.4850466344422139e-12,-2.1987649741802558e-27,-6.0427297476028914e-27,-2.761966551220618e-26,7.487285875046366e-11,-9.437123290290939e-12,-7.752514220433281e-11,3.6762442218833887e-11,1.6954659766704832e-11,5.5634029904745764e-11,0.031661064440546116,0.025316303798726358,0.22205288242752194
2924.0,1.722911564664233e+18,-1.494632483,-0.669807673,0.155617743730545,-0.014580668,0.040713675,0.4426669180393219,-0.895642638,0.0,0.0,0.0,-1.9452355188553294e-19,-6.399905384544512e-19,-8.264051368737976e-19,7.736517902722458e-12,-2.7235573174995795e-11,-1.2343029627826663e-11,1.4841768050037243e-25,-4.829540851034854e-25,4.143958735108703e-26,4.995649568937664e-11,1.665734956127704e-11,-2.6544644545871048e-11,-1.239437618467269e-10,-2.8835192048519707e-10,4.833140114968427e-11,0.03161492730297663,0.025583089791853274,0.22211948305593038
2926.0,1.7229115646727675e+18,-1.494576812,-0.670101225,0.1554409116506576,-0.012808835,0.0426281057298183,0.4426588118076324,-0.895584702,0.0,0.0,0.0,2.049323041024366e-18,-8.178953299558856e-18,-2.504642223937986e-19,5.783186179073147e-12,-2.924512866275138e-11,-1.629791556504165e-11,1.0177979387839098e-24,1.6268342326407616e-24,5.268027682172021e-24,-1.7301466494299012e-10,-5.861409642606851e-10,1.9137660095035725e-11,-4.775845832137007e-11,-2.315916807370205e-11,-1.2501429727331873e-12,0.03387870554789446,0.024594670065272484,0.22212732754816164
2928.0,1.7229115647057626e+18,-1.494480371,-0.670409143,0.1554671972990036,-0.011939495,0.04272747,0.4431260526180267,-0.895360947,0.0,0.0,0.0,1.3192555757735034e-16,3.65700526841021e-16,8.3695621586752e-16,3.640103365004868e-10,-1.3123917203642995e-09,2.6001319676355452e-12,-7.128116250738293e-23,2.0581730572307084e-22,-5.0835562656381504e-23,-4.5560420953363505e-11,-2.9660986586127055e-11,-2.9044930491337422e-11,8.322013979727012e-11,1.0916810962088214e-10,-1.0870154876448088e-09,0.03427645866284108,0.023869109040414543,0.22280670866067892
2930.0,1.7229115647060644e+18,-1.494369507,-0.670808852,0.1554679870605468,-0.011927904,0.0427728407084941,0.443417876958847,-0.895214379,0.0,0.0,0.0,1.1020352056023743e-16,4.2835809515794403e-16,8.214024131116551e-16,4.041629001911338e-10,-1.200897473202641e-09,2.5752281735316546e-10,-7.858682877828679e-23,1.8525812594524027e-22,-9.752593479676663e-23,-6.574385348449877e-12,-3.678047450189208e-10,-2.154893315194582e-09,2.7718685242054903e-09,8.955785110540958e-09,-1.9814702557162795e-09,0.03434565680656766,0.023879976169125412,0.22313841485416686
2932.0,1.722911564706433e+18,-1.494203925,-0.671195984,0.1556776911020279,-0.014328037,0.04026255,0.4439911842346191,-0.895011485,0.0,0.0,0.0,7.82537100742972e-17,4.865939137086906e-16,7.64742117114037e-16,4.3450939673433995e-10,-1.0164425087170893e-09,5.49876766530055e-10,-8.405660899777569e-23,1.5125200878342363e-22,-1.5101996515204444e-22,5.498176627457617e-09,1.788190923449579e-08,-3.991985441923896e-09,4.6742896814480785e-12,2.1379188548912778e-10,1.050069051090996e-09,0.03139572133181002,0.025261692593433152,0.22371824077361838
2934.0,1.722911564717071e+18,-1.494082212,-0.671657205,0.1557000875473022,-0.014494142,0.039980337023735,0.4442466199398041,-0.8948946,0.0,0.0,0.0,-1.3844457978685001e-17,3.180583525373712e-17,-1.8803656837328268e-17,1.8625714765296193e-11,-6.794370321714489e-11,-8.297433137829407e-12,-1.6241471537891034e-24,-1.874102191053527e-23,-2.4456084397215885e-23,2.77419401444628e-12,5.977902595933477e-11,-5.4755213012590053e-11,-2.795143188895503e-09,-9.071935684586016e-09,1.9919841135566267e-09,0.031111305626411408,0.02533053987959019,0.22401379617311437
2936.0,1.7229115647230559e+18,-1.493946552,-0.672146618,0.1556154042482376,-0.013900198,0.040559031,0.4442903399467468,-0.894856334,0.0,0.0,0.0,1.1573806401815106e-19,4.844281791175543e-19,4.799912500491237e-19,2.0782309012244354e-11,-7.070181858462285e-11,-7.48329480531307e-12,1.5356360942021198e-24,-3.427602705022958e-24,2.1516702562473024e-24,-9.210975033338924e-11,-2.619621346762427e-10,-8.017214810642527e-12,4.045396767543029e-11,8.856031236873449e-12,1.5706359942515686e-11,0.031820083731676795,0.024977264386695053,0.22402755271846256
2938.0,1.7229115647343073e+18,-1.493752599,-0.672707856,0.1556722223758697,-0.014520482,0.040376253,0.4443826377391815,-0.894809008,0.0,0.0,0.0,5.3532773577348145e-19,1.1932846437296283e-19,2.0462605722705948e-18,1.6910336086570432e-11,-4.5255787653141745e-11,5.192979936607875e-12,1.550917635038889e-26,-4.568932921686175e-26,1.644540011423376e-26,8.368212936530687e-11,7.749108843308167e-11,-2.3342493127558677e-11,5.807448194816832e-11,1.276349805885915e-10,-4.739727139810595e-12,0.03146966253661753,0.025478978900417656,0.2241299978911475
2940.0,1.7229115647482476e+18,-1.493522525,-0.673258841,0.1557470858097076,-0.014654607,0.040490676,0.4444856345653534,-0.894750416,0.0,0.0,0.0,3.753058893858761e-19,-7.462698741019361e-19,1.5525123280205628e-19,3.9562518543635904e-11,-8.059222431297389e-11,4.9601664549031664e-11,-8.05493614809458e-26,1.0450257122827469e-25,-2.948673057089706e-25,2.4039213562947398e-11,-6.692173499059713e-12,-1.7496669090263717e-11,-1.69245734750895e-11,1.4986279402963021e-10,-1.362193470289202e-10,0.031536756662046736,0.025642944368232702,0.22433602941456632
2942.0,1.722911564753567e+18,-1.493265271,-0.673770905,0.15610072016716,-0.015250988,0.039640337228775,0.4451691210269928,-0.894438744,0.0,0.0,0.0,-1.9337105033502802e-19,1.4778530834626565e-19,-1.73645428874467e-18,3.902236352400686e-11,-8.093142957191088e-11,4.4276318760548767e-11,-6.883415923718706e-26,1.1749312403176737e-25,-2.2902240441425872e-25,4.983298241512787e-11,3.772166764923421e-10,-2.957811871853991e-10,-1.454624671784253e-10,-2.5057073718863425e-10,1.0168574000610078e-11,0.030632897386009654,0.02595722302396078,0.22552568662177552
2944.0,1.722911564766797e+18,-1.493056297,-0.674337149,0.155955895781517,-0.012175563,0.0418591313064098,0.4452703,-0.894334376,0.0,0.0,0.0,1.4868825304155162e-19,3.7881439663752746e-20,-6.006861556814717e-19,3.344248730880093e-11,-7.201510488493043e-11,-2.8934205713457587e-12,-8.754547968962098e-27,4.7504426591153547e-26,1.697263270754533e-25,-2.668857207939032e-10,-5.078336478763283e-10,2.8404789109564396e-12,-8.14261504306762e-11,-2.365882536725311e-10,9.385115805255973e-11,0.033594646911886204,0.023901465491819842,0.2258688235156328
2946.0,1.7229115647732047e+18,-1.492787242,-0.674889266,0.1559623479843139,-0.011729327,0.0419686324894428,0.4455988109111786,-0.894171596,0.0,0.0,0.0,-1.481467157995692e-20,5.154807189054678e-19,7.471765011665749e-19,3.6165558956271735e-11,-7.374633371335529e-11,2.458112626476358e-12,1.0734913906677473e-27,7.032332648939888e-27,9.327404225189611e-26,-1.1301931844622452e-10,-9.595983085272002e-11,-1.0807887108027968e-10,1.1544465299475484e-10,2.792060957423631e-10,-4.882839261844953e-11,0.033859376559234905,0.023546377007455842,0.22631524565176994
2948.0,1.7229115647846228e+18,-1.492492795,-0.675478637,0.1560199409723281,-0.011696954,0.041612502,0.4460879564285278,-0.893944681,0.0,0.0,0.0,5.384577402934172e-19,-7.776692870283132e-19,-5.699081876811935e-19,2.7048364716140855e-11,-5.187513650297846e-11,9.199007106565917e-12,4.4522174849867575e-26,-8.23992115692349e-26,-6.332437000140131e-26,-3.5996414804393515e-11,5.057854360839798e-11,-9.481630632594263e-11,8.030642514739351e-11,3.463444988755291e-11,-3.3940986473218217e-12,0.03358868121956732,0.0234226424544023,0.2269532194355073
2950.0,1.722911564796859e+18,-1.4921453,-0.676116765,0.1561869829893112,-0.011913647,0.041880138,0.4467058479785919,-0.893620729,0.0,0.0,0.0,1.0316542077920697e-18,-1.3813203344368813e-18,-6.6255263854511e-19,5.116767292357982e-11,-9.670479411577065e-11,-1.2988586066216554e-11,-7.058654323745645e-26,1.8028558913120923e-25,1.6914084548902034e-25,4.75935318485625e-11,-2.669093107761421e-11,-1.1486706837492332e-10,4.086556715638975e-11,-1.433528321473894e-10,2.051322058568976e-11,0.03381005162062394,0.023728282939520014,0.2278790952612274
2952.0,1.7229115648032248e+18,-1.491744161,-0.676879942,0.1560160666704177,-0.011715162,0.042614747,0.4468615651130676,-0.893510759,0.0,0.0,0.0,2.150281541937622e-19,5.268614074393899e-19,9.994552958324802e-19,5.462348553306794e-11,-9.793890765848545e-11,-1.3395127059316254e-11,-9.186446550536421e-26,2.0135924490188005e-25,1.7103482809937161e-25,4.5734719508385983e-11,-2.361271206863808e-10,-5.378986515456311e-11,5.2777189563270225e-11,8.439811458537738e-11,-1.4486644048807057e-11,0.03455155237998185,0.023769519865841342,0.22786102083421625
2954.0,1.7229115648150574e+18,-1.491282344,-0.677556157,0.156153455376625,-0.012936688,0.042258412,0.4475730061531067,-0.89315474,0.0,0.0,0.0,-7.10524212240415e-20,7.455411667820107e-19,1.0428764947893025e-18,4.995766586229437e-11,-7.585352611233643e-11,2.181711603350955e-11,1.0428782419077608e-26,-3.784268108184489e-26,-8.82055467382553e-26,1.5314791097510295e-10,1.4210529809314054e-10,-1.4384035647253744e-10,-3.132467206172863e-11,8.775584561800288e-11,-6.5551853132882e-11,0.03390673151137898,0.0247803548316768,0.22870691815004474
2956.0,1.7229115648230584e+18,-1.490823507,-0.67826426,0.1563832312822342,-0.01279897,0.042435125,0.4482394754886627,-0.892813981,0.0,0.0,0.0,1.9961408992688277e-19,1.3803874482424115e-19,-1.5991960356037391e-19,5.11381092677623e-11,-7.595296862693036e-11,1.9703333915054515e-11,1.0923970789724354e-26,-3.8050657500083507e-26,-7.800167901493803e-26,-1.6914624615071273e-11,-6.061542945037505e-11,-1.8489357142032712e-10,-9.418932260864084e-11,-3.411533573192824e-11,8.796462532198802e-12,0.034160085162722106,0.02474881751470587,0.22983328802638556
2958.0,1.7229115648351345e+18,-1.490319133,-0.678952754,0.156456858,-0.01284133,0.041931756,0.4489232003688812,-0.892493606,0.0,0.0,0.0,-8.59455791678246e-20,3.6891015566682545e-19,2.1642564830767705e-19,5.4497846101791324e-11,-7.154351518076335e-11,1.967260338318297e-11,1.6677313133099167e-25,-4.085687737751725e-25,-1.298414655827764e-26,-3.523073424217871e-11,7.387462662928406e-11,-1.2624743140813983e-10,-2.4703380482224395e-11,1.499224750398752e-10,-8.703019098151773e-11,0.03374708312646586,0.0246530606794194,0.23072213675221495
2960.0,1.7229115648435144e+18,-1.489788413,-0.679636776,0.1567006558179855,-0.013106348,0.040893026,0.4502635598182678,-0.891862571,0.0,0.0,0.0,2.4188997122939032e-18,-5.541879967856833e-18,-1.4910790810694692e-19,5.1660014849430764e-11,-6.843016518434604e-11,2.2759554486755745e-11,1.146450185730043e-25,-2.809089378226388e-25,-8.43082550246245e-27,-6.632138557952006e-11,2.3922952062937535e-10,-3.589539533833626e-10,-2.6773559990824236e-12,-4.4694541547509646e-11,4.062094063771118e-12,0.032827046238639156,0.02462103725005888,0.23259654665949636
2962.0,1.7229115648607158e+18,-1.489311934,-0.680347919,0.1568685173988342,-0.012776487,0.040841519832611,0.4511853754520416,-0.891403675,0.0,0.0,0.0,-2.115344196930093e-18,4.6129068055796824e-18,9.483837255047504e-19,1.9063551260510042e-10,-3.7255644400329243e-10,1.9227191737843434e-12,-1.220344199764102e-24,2.5063828018039537e-24,8.856911592314414e-26,-4.058544624034356e-11,-1.5514456465735236e-11,-1.181232432805976e-10,-2.5357900751037764e-10,-1.4383670091797865e-09,1.6208204677729172e-11,0.03295454195567592,0.02434503022985903,0.23397795467891996
2964.0,1.722911564862632e+18,-1.488911867,-0.681132495,0.1568705290555954,-0.01115933,0.042842008,0.4515174329280853,-0.89116329,0.0,0.0,0.0,-4.657938165564048e-18,9.824518462847022e-18,1.1233828129252668e-18,1.8440610889845395e-10,-3.589588516383133e-10,4.200971768721866e-12,-1.1496709217068106e-24,2.3453818560955584e-24,6.302537575413384e-26,-5.734794006002753e-10,-2.6375044977301976e-09,-3.2653754402790424e-10,3.538559591298626e-13,9.906434069513285e-11,-3.610697919109904e-11,0.035310476622784366,0.023520729639323477,0.2346468336699312
2966.0,1.7229115648735788e+18,-1.488417864,-0.681904197,0.1571135818958282,-0.011460741,0.041841049,0.4524435698986053,-0.890737236,0.0,0.0,0.0,-6.158278450470372e-18,1.2082331417729836e-17,4.3320105721178454e-20,4.5428383306233606e-11,-8.079261998230389e-11,1.2396882141262726e-11,2.798769327760832e-25,-5.647000941784061e-25,-3.9831315281156927e-26,-3.987773432208383e-11,1.8261422492453045e-10,-1.9033720166279567e-10,1.9308017808133326e-10,1.116544369564993e-09,1.0398222694697463e-10,0.03437604768874484,0.023520439868835563,0.23604389037876408
2968.0,1.7229115648834002e+18,-1.487969041,-0.682788432,0.15714892745018,-0.009767171,0.0431870594620704,0.4530223309993744,-0.890398979,0.0,0.0,0.0,2.6443862899021517e-19,-2.572875292296555e-19,1.7054343292255087e-19,4.255157991429957e-11,-7.95730527986284e-11,6.6066881330237656e-12,3.737063392591286e-25,-7.142798288953831e-25,1.3657862936867702e-26,-1.8731904443760884e-10,-4.044157586002119e-10,-1.1857309013395497e-10,4.372547426293035e-12,-6.360214487421373e-11,3.020968851926676e-11,0.03618574925962004,0.022424972757990446,0.23707068986188412
2970.0,1.7229115648958694e+18,-1.48748827,-0.683615088,0.1572789251804351,-0.009785822,0.0427835993468761,0.453748345375061,-0.890048444,0.0,0.0,0.0,4.877907528740099e-19,-5.816362272557208e-19,3.5199530374096095e-19,5.467226483738191e-11,-8.882011018695314e-11,2.0766134810311738e-11,-5.96829511645024e-26,7.33669308819558e-26,-1.1817911523488542e-26,-3.113263946949776e-11,5.5409935176103005e-11,-1.2991782462426216e-10,1.0532800984116787e-10,3.8654155531186187e-10,-6.615413059805615e-11,0.03587062203223593,0.022340376394894397,0.238127177189812
2972.0,1.7229115649032428e+18,-1.48701489,-0.684368193,0.1574771255254745,-0.010518668,0.041603822,0.4545539915561676,-0.889684916,0.0,0.0,0.0,-2.9058409575547107e-19,3.9261117471579448e-19,1.4988596439785162e-19,5.615755200815339e-11,-9.241130384591887e-11,1.994522231944331e-11,-6.351208278962427e-26,9.999321791841083e-26,-1.0263880129106766e-26,2.333697524472691e-11,3.686673520235118e-10,-2.5088135133006727e-10,5.7525508738595126e-11,-2.7158547435042775e-11,-3.0085102540586285e-12,0.03462319545600443,0.02266784684096339,0.23926442786642294
2974.0,1.7229115649133345e+18,-1.486559272,-0.685166419,0.1575826108455658,-0.010926438,0.041784164,0.4551464021205902,-0.889368594,0.0,0.0,0.0,-3.506565656747874e-19,9.578088260714229e-19,2.831489767697298e-19,4.6428941364574676e-11,-7.629879008374172e-11,2.5065963968616115e-11,3.664500369333936e-27,1.5648123524969372e-26,-4.5961188043164234e-26,8.391837800769248e-11,1.0928403060174576e-12,-1.3593484513237941e-10,-6.597934287289986e-11,-4.269059135644267e-11,-1.019871553895231e-11,0.03470778026827172,0.023117232142161843,0.24009915556661807
2976.0,1.7229115649229025e+18,-1.486103415,-0.685871065,0.1579550057649612,-0.01113532,0.040328078,0.4563066363334656,-0.88883847,0.0,0.0,0.0,-2.2835383124866395e-19,7.414293997668411e-19,-6.933293378733315e-19,4.863787284162697e-11,-7.29291968083011e-11,2.5740703846071975e-11,2.634782606746554e-25,-4.821095043816936e-25,-2.2418896414647835e-25,-1.0862171050107281e-10,2.8328616931062645e-10,-2.712787824079719e-10,-1.493413361752211e-10,-2.713825164143725e-11,-4.809880656499379e-12,0.033390699339671315,0.022904286983269934,0.2420162295510822
2978.0,1.722911564932841e+18,-1.48560977,-0.686588466,0.1580747663974762,-0.010095309,0.0400679185986518,0.4569951295852661,-0.888508916,0.0,0.0,0.0,4.9781910550861924e-18,-8.793440304123761e-18,-4.182212785224399e-18,4.162776708102911e-11,-6.154217948308405e-11,1.0964718776582986e-11,9.024603642284861e-26,-1.6245464688642575e-25,-3.4526463667045626e-26,-2.147642943427497e-10,-5.318366297685704e-11,-1.4555460644537817e-10,8.184453467757828e-11,-1.1095002321068074e-10,7.209587113104467e-11,0.033532031640696174,0.02189621746198871,0.2431816331246807
2980.0,1.7229115649515284e+18,-1.485114455,-0.687364578,0.1582415252923965,-0.010862169,0.039781403,0.45802334,-0.887983143,0.0,0.0,0.0,-8.572608006121998e-18,1.617398497487029e-17,6.294745222403945e-18,3.343692274947028e-10,-5.751185512227788e-10,-1.6190494302927655e-10,-2.6431417675453335e-24,4.628929025456199e-24,1.5722284416001066e-24,5.5067358854083754e-11,6.138612288926496e-11,-1.2708704014588255e-10,-1.6450564525690898e-10,-1.2659360017979859e-09,-3.1290565594816936e-10,0.03310446386171604,0.022542302745051986,0.24461402036109264
2982.0,1.7229115649528282e+18,-1.484652042,-0.6881603,0.1580156534910202,-0.009798862,0.041105777,0.4585000574588775,-0.887689173,0.0,0.0,0.0,-1.2181309608225993e-17,2.248791860319774e-17,8.429631681892613e-18,3.210363433775995e-10,-5.501507228797231e-10,-1.523183730756783e-10,-2.474725812763717e-24,4.3176598548733876e-24,1.453919481267027e-24,-5.437755848565676e-10,-2.5850556665728287e-09,-7.713659183417169e-10,1.2563930116275913e-11,1.1380575512412512e-10,-3.3225488872867663e-12,0.0347073159152066,0.021978039324639452,0.24506162058646028
2984.0,1.722911564962849e+18,-1.484119415,-0.688876987,0.1581479161977768,-0.010846986,0.03999801,0.4590635299682617,-0.88743633,0.0,0.0,0.0,-1.3661624572939334e-17,2.4011102509173056e-17,8.422635702982561e-18,5.0397348551054744e-11,-7.156684800408e-11,1.3565284060255794e-11,5.731357723010749e-25,-1.0718373622464655e-24,-4.0935818708535053e-25,8.019521908663558e-11,2.889976331375152e-10,-1.3373213792045608e-10,2.5480562904408904e-10,1.3299664660543753e-09,2.88369863815341e-10,0.03339473272068873,0.022612042122829197,0.24579931134689983
2986.0,1.7229115649729897e+18,-1.483636618,-0.689603209,0.1582892388105392,-0.01090701,0.0395708456635475,0.4599418342113495,-0.886999905,0.0,0.0,0.0,-4.522501741880811e-19,5.830266888278384e-19,7.783500298697823e-20,4.881402202121839e-11,-7.177434630976096e-11,1.55348889602314e-11,6.783293765471387e-25,-1.1740316656295915e-24,-3.92518152414235e-25,-3.416432676838955e-11,7.487726553592193e-11,-1.946261907110349e-10,-2.4649967979211308e-11,-1.1711806400251977e-10,-2.25127543808435e-11,0.033047011260062806,0.022562372669333013,0.24711102059020706
2988.0,1.7229115649825364e+18,-1.483159781,-0.690289855,0.1584519147872924,-0.011191808,0.039397493,0.4606898128986358,-0.886615813,0.0,0.0,0.0,4.1276733684856403e-19,-4.1274606868361955e-19,1.9870562662405371e-19,4.1835143322466257e-11,-6.078441015113776e-11,1.5231862599351973e-11,6.305506728690524e-26,-7.750549487577069e-26,-1.2835003152926848e-26,3.0895283128212965e-11,5.4761505132475653e-11,-1.7875764668214308e-10,-2.7210061007819153e-11,-1.5292240346002732e-10,3.168457731458855e-11,0.032851749122751,0.022799095379919716,0.24827441073683365
2990.0,1.7229115649979753e+18,-1.482716441,-0.690950155,0.1586419343948364,-0.009804033,0.040651809,0.461633950471878,-0.886084318,0.0,0.0,0.0,6.98324402752534e-19,-9.40229555135605e-19,-6.360200503290301e-19,7.676527708372305e-11,-1.0620373035261983e-10,2.4053320173250537e-11,-2.1396663957299413e-25,2.93635695563614e-25,-1.3124257367690343e-25,-8.858444878402786e-11,-2.309675413841327e-10,-1.312570360818578e-10,-7.2105579459588406e-12,-5.18589758498583e-11,-1.1725058238038246e-10,0.03452892866703679,0.021951675156759314,0.2500060291586602
2992.0,1.7229115650034898e+18,-1.482198477,-0.691660762,0.1587977111339569,-0.009828283,0.040781189,0.4626427888870239,-0.88555181,0.0,0.0,0.0,-9.394719486386702e-19,1.3246893462003096e-18,-1.511769093342484e-18,7.753528426876004e-11,-1.0744599130357109e-10,1.816779137698154e-11,-2.120444139581466e-25,3.0942622072527846e-25,-7.925713761375342e-26,1.6474167236295284e-11,-4.895644656724095e-11,-4.13258811442908e-10,-9.209451956214413e-11,-6.42522162281531e-11,-1.1568177532108117e-11,0.034721115516161395,0.022047673640516942,0.2515595367668985
2994.0,1.7229115650131912e+18,-1.48172605,-0.692337632,0.1588019132614135,-0.007880386,0.041705702,0.463375836610794,-0.88514483,0.0,0.0,0.0,-1.5466730650973744e-18,2.5977381620330302e-18,-9.229572091177295e-19,5.000386946099144e-11,-6.814127050333962e-11,-4.084554124038866e-12,7.409140586024414e-26,-4.442792398628722e-26,1.409545764910052e-25,-2.727734879083161e-10,-3.594719738404389e-10,-1.5439339114607404e-10,-6.976111747337555e-11,-4.306786271577623e-11,1.7969949407532432e-10,0.03626279461072389,0.02055049791480906,0.2528313624171272
2996.0,1.7229115650233887e+18,-1.481202126,-0.693015039,0.1587118357419967,-0.007017329,0.042022489,0.4636502861976623,-0.884993374,0.0,0.0,0.0,6.739540268511286e-19,2.618755849348542e-19,1.374744876859127e-18,4.807219858555558e-11,-5.723325766526852e-11,1.1969142297343404e-12,1.1428705718843595e-25,-1.439807355740164e-25,9.809891869393162e-26,-1.2304806771045582e-10,-1.350921719987934e-10,-5.3859823292259367e-11,1.6378937942035896e-10,3.152648914072329e-10,7.817436841297198e-12,0.03685717506665086,0.019847408963371577,0.25318932369045544
2998.0,1.72291156503629e+18,-1.480635881,-0.693603337,0.1588909924030304,-0.008178499,0.0406326204538345,0.4644143879413605,-0.884647608,0.0,0.0,0.0,4.594804515911677e-19,-2.069591851625962e-19,5.638296619255594e-19,7.085937525115241e-11,-6.703974667201596e-11,3.291830191721586e-11,-1.6670564216159858e-25,9.40161758118264e-26,-1.792543930947631e-25,5.480527093240183e-11,2.710578089740269e-10,-1.3875851746347965e-10,1.1443192139567324e-10,3.355942183801692e-10,-1.9384559561730018e-10,0.03524831838385103,0.020510177954044615,0.254252737586279
3000.0,1.7229115650428828e+18,-1.480077863,-0.694117546,0.1591721326112747,-0.009366896,0.039219271,0.4656721651554107,-0.88403827,0.0,0.0,0.0,-1.1451942399188584e-18,8.520358107528781e-19,-1.0101014062405466e-18,6.948609975564747e-11,-6.654061543098055e-11,3.0251501068607374e-11,-1.7715258509297998e-25,1.0915595897395113e-25,-1.8159326325813004e-25,1.0581577508089065e-10,5.36096264761545e-10,-4.4155101452685973e-10,-2.8928796018196245e-11,-1.1647788469686385e-10,-2.4471858751302566e-11,0.033641487065032415,0.021210625865869942,0.2561491649887272
3002.0,1.7229115650531077e+18,-1.479607701,-0.694616258,0.1592849344015121,-0.009481442,0.03903079,0.4665190577507019,-0.883598745,0.0,0.0,0.0,-1.9060177641025095e-18,1.1518689981888161e-18,-1.9607007795018736e-18,4.2919289051202986e-11,-4.5517600662584207e-11,1.0319719936849752e-11,8.473342970972653e-25,-5.524764142985453e-25,9.921016512310878e-25,-3.0523211039906572e-12,3.810203958029921e-11,-1.8770223496608478e-10,-5.026295550259977e-11,-2.591376368766162e-10,2.1637107305044232e-10,0.033492290922379236,0.021282186951188813,0.2574403665895131
3004.0,1.7229115651839805e+18,-1.479121208,-0.69511801,0.1594422459602356,-0.010353816,0.038156372,0.4670033752918243,-0.883371234,0.0,0.0,0.0,1.6529968276898287e-15,-1.0457244553974403e-15,1.9454777992217483e-15,9.530257138944359e-10,-1.4093798408512293e-09,-2.6531604696780905e-10,-2.246781674502067e-21,1.6799188144331105e-21,-2.860004890991286e-21,5.2898640756911096e-12,1.7820991008312625e-11,-8.808868425975081e-12,-2.162243292705015e-09,-7.534744180035849e-09,-2.2421298650610787e-10,0.03242667593806838,0.02183974546252394,0.25819675207653964
3006.0,1.7229115651844168e+18,-1.478704095,-0.695734859,0.1593261212110519,-0.007994163,0.0406100675463676,0.4671931564807892,-0.883185923,0.0,0.0,0.0,6.696114925803119e-16,-3.104492883035036e-16,6.936948923638891e-16,1.6764959768241137e-09,-1.867055294541692e-09,5.861798814957965e-10,-4.115870421944139e-21,3.2098954602977103e-21,-3.8892343420309066e-21,-4.327538906514021e-09,-1.5031386320491398e-08,-6.361282079783005e-10,2.033392787658584e-09,2.5946569752291175e-09,-4.880250360791652e-09,0.035504903573903665,0.020411542897027058,0.2586782722772799
3008.0,1.722911565184643e+18,-1.478240132,-0.696210563,0.1595588475465774,-0.008721256,0.040296089,0.4681456089019775,-0.88268894,0.0,0.0,0.0,-4.803767413331463e-16,5.94924447393263e-16,-3.061628202363509e-16,1.711936354147455e-09,-1.8505834149237782e-09,5.954420597403884e-10,-3.549603977365156e-21,2.8265149387332092e-21,-2.4524617992613557e-21,4.0720754393928596e-09,5.2071349414665475e-09,-9.76930959000928e-09,6.101560876358463e-10,5.909694416106012e-09,-5.821614253859944e-10,0.03505061566699199,0.021026379733761764,0.2602270732374562
3010.0,1.722911565184985e+18,-1.477829456,-0.696713507,0.1595387160778045,-0.008007493,0.040529482,0.4684434831142425,-0.882527113,0.0,0.0,0.0,-9.02515963358025e-16,9.547113361706943e-16,-1.288646076779017e-16,1.2183883553013992e-09,-1.3772203143899934e-09,3.1132065682955957e-10,2.8417903485495794e-23,-2.499890468598629e-22,4.111539419820802e-22,-3.1072267312423284e-09,-3.2119974882793736e-09,-1.8004510587502894e-09,5.370741150645506e-10,2.6850490446940595e-09,2.1100002942585345e-09,0.03552289280968605,0.02043558119797989,0.26071010951910134
3012.0,1.722911565185355e+18,-1.477371693,-0.697185636,0.1598019897937774,-0.009805545,0.039240487,0.4692937135696411,-0.882115424,0.0,0.0,0.0,-3.8680243963365876e-16,3.413251018744379e-16,-1.9676382227173952e-17,1.1007997593158198e-09,-1.1958273053136486e-09,5.444660131073628e-10,9.533071209259636e-22,-1.278882900147445e-21,-7.248028959360812e-22,5.146223669521961e-09,1.0577233030854667e-08,-5.549309001492211e-09,-1.3764282456229083e-09,1.5552861572365446e-09,-2.5246768808500937e-09,0.03379448071980385,0.021746491040591568,0.26199893296368704
3014.0,1.7229115651857336e+18,-1.477007866,-0.697607219,0.1599433273077011,-0.0088688,0.038724024,0.4704806208610534,-0.881515682,0.0,0.0,0.0,-1.9668761801455374e-16,4.091331368892176e-18,-6.893759947206213e-16,9.276357178598334e-10,-1.124348333377129e-09,2.851448395951759e-10,6.116926680166125e-22,-4.103970207248868e-22,-3.2259572533946203e-22,-5.860083222488145e-09,-1.0142517380628439e-10,-6.849804820450477e-09,-4.262761472102847e-09,-8.573078886851955e-09,5.265554345818746e-10,0.03369443164144452,0.020733981101998485,0.26396983600064855
3016.0,1.7229115651861166e+18,-1.476665497,-0.698042035,0.1600183844566345,-0.0077399,0.039520722,0.4712751507759094,-0.881066442,0.0,0.0,0.0,8.002189477478802e-17,3.297116100832636e-17,-2.527054243783095e-16,9.532843221291907e-10,-1.1943281701394344e-09,1.939810946594181e-11,2.4502960095342936e-22,3.8876044528261836e-22,1.3241140778984343e-21,-3.3792992746837344e-09,-6.568924742849244e-09,-4.496198132328462e-09,-4.715113148142801e-10,-5.2666977268293895e-09,1.9127052236966626e-09,0.034872230238899043,0.019944651520924804,0.2653826213779054
3018.0,1.7229115651864952e+18,-1.476282358,-0.698516309,0.1599596291780471,-0.005678952,0.040683057,0.4718446135520935,-0.880724251,0.0,0.0,0.0,-5.940573301025879e-18,2.974593719991952e-16,3.174776244316571e-16,9.884674505574267e-10,-1.101104261747856e-09,8.886605702676975e-11,-1.8470386237786685e-22,-2.1768071570190936e-23,1.6205122825429862e-22,-6.803105852116705e-09,-1.0634820627465063e-08,-3.024394373057152e-09,1.0007684478869154e-09,4.983294481143505e-09,2.966681803884888e-10,0.03668274358482847,0.01837549333698345,0.2664278734043084
3020.0,1.7229115651868739e+18,-1.475916982,-0.698875844,0.1600856781005859,-0.005782791,0.039989273995161,0.4725020825862884,-0.880402863,0.0,0.0,0.0,-5.98447356031269e-17,1.648733234794241e-17,-1.2999245588519842e-16,9.487858348781354e-10,-9.690776556117879e-10,2.598074056115653e-10,7.791553291264088e-23,-7.29031655531438e-22,-1.031048575272015e-21,-1.3777623789099038e-09,3.3976642194377672e-09,-3.9028617715514845e-09,3.99099573637021e-09,5.548794996281999e-09,4.3245063795594515e-10,0.036040663285154206,0.018269197918415758,0.2675055275199419
3022.0,1.722911565187252e+18,-1.475564361,-0.699249625,0.1601563096046447,-0.006036676,0.0400151945650577,0.4728520810604095,-0.880212128,0.0,0.0,0.0,5.279549699448769e-17,-2.54238486761712e-16,-4.6290824838337e-16,9.43134776730318e-10,-1.0882877469272568e-09,-8.908888363066996e-12,2.7796413317964527e-22,2.340472953845358e-23,9.592743221136833e-22,1.1788856206237157e-09,4.627693650989357e-10,-2.1594930971452617e-09,2.0992813593750755e-09,-1.7859082339995492e-09,1.1501923727260462e-09,0.036011337238126814,0.018527341336223524,0.2680820803010072
3024.0,1.7229115651876303e+18,-1.475203514,-0.699699163,0.1600788384675979,-0.006502952,0.040294692,0.4730976521968841,-0.880064011,0.0,0.0,0.0,1.504193603408606e-16,3.4571242313317704e-17,5.966216506223126e-16,9.887592675561706e-10,-1.1613727236784199e-09,-9.024652450730052e-11,2.8437230010057486e-23,7.029275252983853e-22,2.203580396467274e-21,2.8208003398402473e-09,-1.7415224856133127e-10,-1.6024770260993922e-09,2.1452511165946794e-10,2.0482636474550685e-09,-1.168374039636098e-10,0.03614942246152622,0.019054870709163386,0.26825878848598744
3026.0,1.7229115651879987e+18,-1.474826694,-0.700117409,0.1600866615772247,-0.007178659,0.039692856,0.4734679460525512,-0.879886925,0.0,0.0,0.0,7.855474312831943e-17,2.7186373589755643e-16,1.1943771826729116e-15,1.0548728093654623e-09,-1.066958914191409e-09,4.2062747943766604e-10,-2.3838044632477113e-22,3.377585310951712e-22,5.08790220113428e-22,1.6079358439426516e-09,4.559296660009072e-09,-2.3931679050724813e-09,8.10117761636161e-10,5.531251991080856e-09,-1.8464687667295928e-09,0.035388601052487915,0.019507560702289036,0.26867636654016736
3028.0,1.722911565188378e+18,-1.474413991,-0.700495481,0.1604022979736328,-0.008937705,0.038267013,0.4743021428585052,-0.879484653,0.0,0.0,0.0,-2.8803345980786926e-17,2.802927917665333e-16,9.5219380456771e-16,1.0452456941400997e-09,-9.577315934071115e-10,7.985804476677535e-10,-2.715235895766228e-22,2.0214455539367236e-23,-6.168586365498447e-22,4.441035863112569e-09,1.088835173360038e-08,-5.295414559558578e-09,-7.95552700244612e-10,-2.2586988471388324e-09,1.1136167691849976e-09,0.03352400878436826,0.020756069214561676,0.27007995544855773
3030.0,1.7229115651973256e+18,-1.474041462,-0.700879693,0.1605054438114166,-0.009121236,0.038131226,0.4749503433704376,-0.879138827,0.0,0.0,0.0,-4.2043837271663657e-17,3.853837949221146e-17,-3.2983348899362224e-17,6.412455956205463e-11,-5.5252959279527075e-11,3.089737230010601e-11,4.0364309715032815e-24,-1.4532234171702329e-23,-3.825615580861412e-23,1.6830443453427466e-11,4.189896573140741e-11,-1.6593436670248602e-10,-2.133329293522739e-09,-5.108438435197122e-09,2.4450853185865147e-09,0.03338312546065248,0.020906329949195564,0.27115027701048594
3032.0,1.7229115652028147e+18,-1.473613739,-0.701224446,0.1607402712106704,-0.010459665,0.036728118,0.4758919179439544,-0.878674328,0.0,0.0,0.0,-1.3111862749505996e-18,8.19410577007428e-19,-1.017770088631105e-18,6.101731264868699e-11,-5.359399210963131e-11,2.770494106901917e-11,5.048382758348585e-24,-4.668903288885005e-24,3.9441031047787604e-24,1.743772760670915e-10,6.714748632061371e-10,-4.0524392238554787e-10,-9.309496709911727e-11,-2.379641264344946e-10,2.4391197804509226e-11,0.031676473559751714,0.021764433599687563,0.27267142420395596
3034.0,1.7229115652143724e+18,-1.473319888,-0.701619685,0.1606936156749725,-0.008430913,0.03845901,0.4765471220016479,-0.878266871,0.0,0.0,0.0,-6.912247167771731e-19,4.594301879861007e-19,-1.1663117281666258e-18,2.7730664723986612e-11,-3.1537839202939485e-11,5.327438419253085e-12,9.209276646898641e-26,-6.072417273095518e-26,1.080043816347102e-26,-1.6935949074480707e-10,-4.340292871375818e-10,-1.1715197109346757e-10,-1.5257631946400987e-10,-4.216410442116901e-10,1.0235017685233449e-10,0.03403789219727263,0.020397103708356634,0.27388031774784133
3036.0,1.722911565225697e+18,-1.472980261,-0.701947331,0.1608578562736511,-0.007360622,0.0389509052038192,0.4775804281234741,-0.877693295,0.0,0.0,0.0,7.78373456753741e-19,-5.564564841952632e-19,-7.815403779829367e-19,4.419095539749652e-11,-4.2412887932098836e-11,6.619656542608233e-13,4.825947224611394e-25,-5.007902992675324e-25,3.014598951199857e-26,-1.3077536286092822e-10,-1.7180722521724316e-10,-2.005435686808789e-10,2.5010559984619662e-11,1.90879847014293e-10,1.3254643739450533e-11,0.03493196227015691,0.01956294402856592,0.2758320114517545
3038.0,1.7229115652324928e+18,-1.472622037,-0.702290535,0.1608059108257293,-0.006931893,0.038910858,0.4778677821159363,-0.877542138,0.0,0.0,0.0,5.496817349016659e-18,-5.636138813968773e-18,-5.922955041889868e-19,4.6727450924564914e-11,-4.45475599285925e-11,-6.15631677846606e-12,-1.4602011690903187e-24,2.717908954310696e-24,1.476185212049199e-24,-1.1933837077556775e-10,-5.2269593108995795e-11,-9.06426836145665e-11,6.889120444167e-11,1.0059931776833628e-10,8.499138053977732e-11,0.035054308704205686,0.0191404172693002,0.27622681825201
3040.0,1.7229115652743583e+18,-1.472209454,-0.702619672,0.1609318107366562,-0.007379502,0.038436599,0.4784190058708191,-0.877259016,0.0,0.0,0.0,-6.113138487940448e-16,1.0019177139273558e-15,4.347537763206255e-16,1.598289059837109e-09,-1.6531246982521608e-09,7.50533308012392e-11,5.275346258159005e-23,-4.753727619948558e-22,-1.804800098204044e-21,7.007046022411791e-12,2.939141031942942e-11,-3.056080760132425e-11,2.7476424864787636e-09,-5.534826240367882e-10,-1.0802369839433466e-09,0.03449443906716802,0.01943355417196762,0.2771671070152288
3042.0,1.722911565274626e+18,-1.47177875,-0.703065157,0.1609520316123962,-0.007948259,0.038914874,0.4786567389965057,-0.877103269,0.0,0.0,0.0,-5.970721516610366e-16,8.737688958124157e-16,-5.163730876413819e-17,1.4334833962906266e-09,-1.3830533651027922e-09,1.9221124880563524e-10,4.691762132087091e-22,-1.1579634446776906e-21,-2.1008007533765817e-21,5.375946602181959e-09,-1.1592348411825723e-09,-2.2511166515012598e-09,1.0649585597753014e-09,2.5255813576764775e-09,-1.78253286477119e-09,0.03479092524827091,0.020137192460639976,0.2775020265170108
3044.0,1.7229115652749737e+18,-1.471359372,-0.703419328,0.1610715240240097,-0.008721087,0.0383130870759487,0.4791831374168396,-0.876834929,0.0,0.0,0.0,-2.4620882925712567e-16,1.6456371037199819e-16,-9.10334456366436e-16,1.2342121203719558e-09,-1.1401318768775917e-09,-4.6519597585373183e-11,9.725622516493575e-22,-1.771724791512866e-21,-1.4967121518627366e-21,2.1369241655730144e-09,5.080554125672384e-09,-3.5956265371437042e-09,-5.859958401342687e-09,-1.2336309409107193e-09,1.2728243175283061e-09,0.034000455551256976,0.020701768949301806,0.2783532558561014
3046.0,1.7229115652752883e+18,-1.47096312,-0.703812599,0.1609457731246948,-0.00757087,0.038335476,0.479185402393341,-0.876843393,0.0,0.0,0.0,4.9336581156240187e-17,-3.1647286799549844e-16,-1.1040995270849225e-15,1.2498549539366314e-09,-1.240460810473722e-09,-3.966088878207655e-10,9.322939959896574e-22,-1.5172896880808711e-21,-6.108735273871129e-22,-6.343970200503415e-09,-3.6264967230040107e-09,2.945319835553524e-10,-1.101078851577607e-09,-2.569750249470388e-09,1.7785226570632057e-09,0.0343941093003924,0.019596820708684366,0.278302086377607
3048.0,1.7229115653160192e+18,-1.470629811,-0.704188585,0.1610186100006103,-0.005860835,0.038745478,0.4799335,-0.876429319,0.0,0.0,0.0,7.601110131274322e-16,-7.629777277421681e-16,3.20334000110835e-16,1.2421730647663339e-09,-1.4105719177220992e-09,1.0261704442166155e-10,2.139447669237352e-22,1.5265434324157251e-21,1.963031805799271e-21,-6.523353758219958e-11,-5.894637326839166e-11,-3.8581223017292934e-11,2.107078783071138e-09,3.3081712951117176e-10,-1.686727756268582e-09,0.035397061854239895,0.018104097076916837,0.2797927170440788
3050.0,1.7229115653163133e+18,-1.470261812,-0.704606473,0.1610490083694458,-0.005394575,0.038974646,0.4803449213504791,-0.876196682,0.0,0.0,0.0,8.234589765197906e-16,-3.1068816069957236e-16,9.018436200430633e-16,1.4673701899910928e-09,-1.6366090870458052e-09,1.9749578755475097e-10,-8.69913460537521e-22,2.57319455870215e-21,1.4948057293648495e-21,-2.129812634361138e-09,-2.9648624639816672e-09,-3.0789235289818116e-09,4.563365279175039e-10,1.1008165439305876e-09,-1.8965442113816473e-09,0.03580055664714331,0.01773709960241613,0.2805388377849544
3052.0,1.7229115653165494e+18,-1.469874501,-0.70503366,0.1611134558916092,-0.005621294,0.0387986786663532,0.4807358384132385,-0.875988722,0.0,0.0,0.0,4.125791995804915e-16,4.928016661790052e-16,1.1633460463156226e-15,1.6726910864939838e-09,-1.6232395578197223e-09,5.200767367541463e-10,-1.8420639631963114e-21,2.622468873282357e-21,1.1536602105212855e-22,8.474395182528082e-10,2.1426867145927832e-09,-3.831669645780588e-09,2.8862437582620434e-09,9.852991886872817e-09,-1.9316907542893502e-09,0.03558690388707305,0.017907650476698445,0.281196210491896
3054.0,1.7229115653168184e+18,-1.469414711,-0.705413163,0.1613291501998901,-0.007169472,0.0370560325682163,0.481520801782608,-0.875621676,0.0,0.0,0.0,-1.1410301412839927e-16,9.586487217740945e-16,8.899719602721826e-16,1.6434418203366312e-09,-1.3568781933569648e-09,7.707183908007947e-10,-1.8800159678902374e-21,1.6575741897005784e-21,-9.815712436466384e-22,3.6426748821629487e-09,1.6741121309763965e-08,-6.942305037560512e-09,-4.4127628342364113e-10,-1.004280896031621e-09,1.8086572787657435e-09,0.033456078571529664,0.01886205472760179,0.2824508584954568
3056.0,1.7229115653233272e+18,-1.469024777,-0.705802023,0.1614719778299331,-0.007305442,0.036613785,0.4821325242519378,-0.875302374,0.0,0.0,0.0,-1.4744544364354117e-16,1.2110532915188762e-16,-7.014618434008046e-17,5.1716024698694786e-11,-5.128670888338906e-11,1.5171857045049953e-11,2.913357919760987e-24,-8.222665857526046e-23,-8.5755403421363e-23,-3.5113048594474076e-11,1.3412492252954147e-10,-2.143550882491011e-10,-1.87145754354455e-09,-8.417532606417095e-09,3.408430442250858e-09,0.033026238590712215,0.018869702733042403,0.28358468808654275
3058.0,1.7229115653331254e+18,-1.468638897,-0.706179798,0.1615207493305206,-0.006676198,0.0367753617465496,0.482691615819931,-0.87499249,0.0,0.0,0.0,-3.6999235261712147e-19,5.947181789000617e-19,4.906424371471476e-19,3.929620491997401e-11,-3.7044078624188627e-11,5.396334687126287e-12,7.858946742100936e-24,-6.4533382751476264e-24,3.779801186508607e-24,-1.0024020492615136e-10,-9.394390307022317e-11,-1.2544415305879625e-10,3.213245341763992e-11,-4.0459176558749005e-11,6.134760991272981e-11,0.03342660204152251,0.018326083343743287,0.28461291565263835
3060.0,1.7229115653438295e+18,-1.46821928,-0.706558645,0.1615834087133407,-0.00696821,0.036598224,0.4831131398677826,-0.874764979,0.0,0.0,0.0,1.2325731672815048e-19,-1.2028810047237376e-19,8.470711701094987e-19,4.583191177816872e-11,-4.0721860681328667e-11,2.80526349434415e-11,7.18883998383955e-26,-5.620943507167046e-26,-4.7210990003774127e-26,2.9151858240805774e-11,5.320656941204346e-11,-9.165986842364147e-11,3.6721915961721595e-11,1.1834081063079097e-10,-1.219683973446747e-10,0.033190247864545525,0.01856126496946426,0.285321713077393
3062.0,1.722911565352823e+18,-1.467756987,-0.706965148,0.1620034426450729,-0.007233673,0.035966903,0.4845653176307678,-0.873985469,0.0,0.0,0.0,9.64802014807424e-19,-5.45804910437063e-19,-1.8587519748270695e-19,4.325808437129617e-11,-4.011637286675181e-11,2.6077889232076835e-11,5.367959126588927e-26,-1.5724004591453457e-26,-5.218826925588534e-26,-2.679637300270817e-11,1.4273771819135875e-10,-3.6938094774814566e-10,-3.931012460770087e-11,-9.573259937328332e-11,1.0081487418593752e-11,0.03258908297115185,0.018664982061362672,0.28822140563438314
