timestamp,px,py,pz,ox,oy,oz,ow,vx,vy,vz,ax,ay,az,jx,jy,jz,wx,wy,wz,aa_x,aa_y,aa_z,roll,pitch,yaw
0.0,-3.0009860703662676,-0.0063784083280411,0.1313400222158164,-0.0038823964323885,-0.7053343320018363,-0.002826669660422,0.7088585310455789,5.009121472113298e-06,5.815173788595283e-07,-0.0001635021285341,0.0959507646847289,0.0334985015600552,0.0470252107415122,0.1142539210417809,0.7118167026292546,-0.4949667146889255,0.0,0.0,0.0,6.26674644784639e-07,0.0001125257176763,6.135436771752729e-07,0.2863136264117965,1.5655935259246323,-2.845790907224365
0.0928959846496582,-3.0009856050389963,-0.0063783543074116,0.1313248335245939,-0.0038823811257117,-0.7053306270483278,-0.0028266492204164,0.7088622177254139,0.0089184498847476,0.0031124578040882,0.0042049511266563,0.1065644951799894,0.0996234150408727,0.001044790411678,-0.0054771069636427,0.5155142784297698,-0.772414261068996,6.26674644784639e-07,0.0001125257176763,6.135436771752729e-07,-0.0253054582618547,0.0061065649884881,-0.0032035410854337,0.2857395282442751,1.5655835092586934,-2.8463650558223397
0.1896908283233642,-2.9992233591650277,-0.0057632288810491,0.1321724416798918,-0.0053982984571941,-0.70490363707191,-0.0047764069108232,0.7092664568084287,0.0203038161453381,0.0194246734662433,-0.0003313813627464,0.0939585866565518,0.1297239990025802,-0.1017035483193305,-0.169935007930624,-0.475215593009718,-0.5416948676528659,-0.0506109165237095,0.0122131299769762,-0.0064070821708675,-0.0209482980347617,-0.0003891439769437,-0.0272630397432389,0.1343949600024685,1.5645639904735773,-2.992808293258096
0.2880175113677978,-2.997017415510354,-0.0025478240594806,0.1312321104578343,-0.0049697297588349,-0.7049274565567261,-0.0081294233029611,0.7092154082190759,0.027178716803915,0.0283045924316245,-0.0158089362582004,0.0732839211413119,0.0044709346624446,-0.103046402433269,-0.2725610730141745,-0.7252099661417896,0.4903527855191267,-0.0418959693948787,-0.0006657622362111,-0.0545254659428006,0.0137739903605384,-0.0343038597939101,-0.0442677277655618,-0.6443121376430729,1.5632636875632415,2.5158059121577105
0.3887856006622314,-2.993788767713212,-0.0001496670389279,0.1289940904233872,-0.0024447761868197,-0.7069455521422997,-0.0123268946393981,0.7071563172624316,0.0349108961336099,0.0198904718251512,-0.0205786411027063,0.0393851457839124,-0.0119493688305483,-0.0015853339423277,-0.3117447766176985,0.2547038182046202,0.698998612965388,-0.0230629358026326,-0.0563945896108439,-0.0949425377019912,0.0160171286983279,-0.0347174612677602,-0.0155600499377457,-1.5599172245568238,1.5568176088285022,1.6025666164277976
0.4903926849365234,-2.98994748009545,0.0014709282347383,0.1270702525365694,0.0002330593595629,-0.7094571901311293,-0.0157490847334311,0.7045724997362848,0.0350863632788467,0.0260068976477809,-0.016052683979382,0.0102360678331026,0.0567204028993612,0.0378947957214526,-0.1223775687137611,-0.107237196760234,0.1531807661358525,-0.0098617119982229,-0.0701006847717316,-0.0856455658182922,0.0089337565195243,0.0956147127918903,0.0034456965070054,-1.8783865688694548,1.5471615163901642,1.285151030848767
0.5993409156799316,-2.986442509987406,0.0054792216346686,0.1256579464684359,0.0035522394502855,-0.7042491967741323,-0.0193270418381972,0.7096808549564108,0.0371956017008141,0.0317803680902271,-0.0127008384395048,0.0161204289136814,-0.0464413898637955,0.0270869861997347,-0.0215569789774059,-1.3384922237148629,0.0542103076975925,-0.0051954227635839,0.1348348359729367,-0.0880511446879803,0.0001680435297822,0.0829458453151417,0.0139339620470338,-1.3488625994479289,1.537539285675424,1.8150425411137887
0.7032673358917236,-2.982078781810138,0.0082853261735601,0.1243639927044857,0.0054114777842375,-0.7006844672611263,-0.021788305147949,0.7131179867356889,0.0385497811688129,0.0170963658551131,-0.0102504572377211,0.0063886138856881,-0.2243681852726613,0.0479294983453967,-0.0800691257351862,-1.003231027473809,0.0943653748841498,-0.0095256249386583,0.0957910058585519,-0.0577776417242246,0.018142994590079,-0.0455342237471808,0.026247828576856,-1.1536215981767586,1.528498479065717,2.0111370852994748
0.8096020221710205,-2.97835374558713,0.0090256643040164,0.1235133941781772,0.0079654997195195,-0.6990467627115612,-0.021965423553212,0.7146941265498358,0.038506518790907,-0.0158003086657766,-0.0025044805339542,-0.000648865367538,-0.2539282701354479,0.0464109836959317,-0.0697511725993044,0.7941028646471555,-0.3552956689877158,0.0310905664165741,0.0437663884785749,-0.0355554875342683,0.0237345910644553,-0.1823382963788372,0.0182637494434373,-1.0989916774362636,1.523027778665798,2.062405830544074
0.9125149250030518,-2.974044786205596,0.0051324209655203,0.1238029373522263,0.0098205814609413,-0.708900710447124,-0.0214901156776704,0.7049124157194937,0.038415637247823,-0.036410821396634,-0.0003610768271066,-0.0081826202974326,-0.0654229722017579,-0.0241190532956469,0.0096926516323893,1.5970536233351118,-0.4770180961525924,0.0379435571902522,-0.2688855868991224,-0.0212501428373499,0.0017702795485463,-0.1409269472579895,-0.0047431704154907,-1.7057458273252253,1.5261548277495114,1.4523543391824285
1.0208518505096436,-2.970276908988287,0.0013496907703118,0.1234017715276545,0.0125945283797114,-0.7179458867180859,-0.0220049218265786,0.6956370210209348,0.0366966693035841,-0.028119508752572,-0.008100056058883,0.0023216830297445,0.0808365288369115,-0.0520395997325183,0.165391756711929,0.5118440467733533,0.1719911699553971,0.0346311255136668,-0.2380875060374041,-0.0450418283652499,-0.0239529262113037,0.0111851331738152,-0.0268229090157211,-2.1501467920031976,1.5125677017302237,1.0047599083039662
1.1290233135223389,-2.966100283507447,-0.000957936087998,0.1220506612702791,0.0148333483988729,-0.7270881018420685,-0.0253754350646866,0.685914682180119,0.0389122866488929,-0.0189104579761191,-0.0116345000148324,0.0276034538005238,0.0456727266743334,0.0129763843200482,0.0336854712261956,-0.3087328461490194,0.4286696465611367,-0.0099622952323552,-0.2465153205514919,-0.0748959608687922,-0.0263445916176392,-0.0058221985240492,-0.0143570511471326,-2.3755077242656113,1.4893859270771892,0.7810061894801128
1.2351539134979248,-2.961939143212421,-0.0027126544477459,0.1209050133771913,0.0166841016196744,-0.7360257875223257,-0.0289508986164593,0.6761283356912239,0.0425833546331784,-0.0181721992382223,-0.0055037665863935,0.0103493304900931,0.0146083694032186,0.0405221440667444,-0.3459011093837476,-0.0930366145201497,0.0485090704373413,-0.0180580577216117,-0.2497319030855027,-0.0737559306595152,-0.0065749798241163,-0.0001379714008012,0.0144843792346635,-2.499214484031392,1.4642540841168403,0.6597509028479522
1.3401830196380615,-2.9571157927188954,-0.0047915812050185,0.1208768921623725,0.0172619762336067,-0.7446486235542786,-0.0316886439316038,0.6664805184407154,0.0411507732270362,-0.0158425292844351,-0.0030400652534728,-0.0450351522157865,0.0255895705082855,0.0236820442825302,-0.2557193100574818,-0.1669199624486358,0.1699923246903052,-0.0231122548805879,-0.2467912633530944,-0.045927202399465,-0.000228380141869,0.0367375049789129,0.008467804699744,-2.592337911572971,1.440270443118472,0.5697010139788908
1.4447922706604004,-2.9533083626503154,-0.0060371675640342,0.120270022382914,0.0185366624110967,-0.7506756689138709,-0.0345481643304888,0.6595065250539701,0.0331685695703818,-0.0128105000526555,-0.0005392900550158,-0.0434868598608162,-0.0201569535687378,0.0758822288638276,0.0439502578095732,-0.3961181389566099,0.279308718306121,-0.0185148180053497,-0.1762568931276767,-0.056820321260027,-0.0210307574651562,0.0609496349514283,0.0207867564397855,-2.6256675496911535,1.4214610090151052,0.5386325440917633
1.5479803085327148,-2.950214340532502,-0.0074510178063968,0.1207499738734782,0.0162645337415926,-0.754785135676151,-0.0373390409527994,0.654706544892617,0.0320216723110249,-0.0198923579507754,0.0125813207965268,-0.0359847003727716,-0.0568389903450927,0.0823418576234778,-0.1258720868090558,0.1147613146030666,-0.3436711177862808,-0.0651737698109003,-0.1248919934502378,-0.0043536895198938,-0.0084237140971119,0.0411198374950119,0.0523950006221229,-2.664811514762445,1.410067666464821,0.5066826093440336
1.648486614227295,-2.94679651445513,-0.0100563563768001,0.1227907862018152,0.0131049033394949,-0.7578394471497121,-0.0371783492293422,0.6512491107102278,0.0259703460461704,-0.024450702990708,0.0164704974736279,-0.068075077159889,0.0007298893681077,0.0080290746823595,0.0263507951716934,0.5633210758143785,-0.5636635033189582,-0.0353622461995736,-0.0940172181376528,0.0479696799842188,-0.0372100679789706,0.0833370732896665,0.0719849388517769,-2.7178877793309257,1.4039300338646814,0.457870369399071
1.7500660419464111,-2.9449834428365396,-0.0123889811293266,0.1240701520390581,0.0031919079877297,-0.7562469567714262,-0.0379035678305497,0.6531796626067514,0.018247696523078,-0.0196454228100721,0.0141377124869803,-0.0299137968327277,0.0569797340212811,-0.0311873417714073,0.3411330371480809,0.3658412249079503,-0.2686361951878099,-0.1395939057688417,0.0417821531290952,0.1396161881836601,-0.0651234593705144,0.1231429326523752,0.0457231279558141,-2.7868093933446656,1.4137164009942362,0.4040297322674787
1.850334644317627,-2.943114291859392,-0.0140303891265418,0.1256404365659767,-0.0072279798897614,-0.7509016911171996,-0.0395893430668954,0.6591866886547199,0.019812195721963,-0.0129746543682219,0.010196810652267,0.0008719380507407,0.0750636786143625,-0.0465004870391043,0.2958559390129206,0.1498390272375475,-0.057977826537219,-0.1656091649406025,0.1522686471670977,0.1394159358958472,-0.0117355152462558,0.0763633154256877,-0.0289700965368437,-2.835573291217887,1.4331456891075212,0.372398366600626
1.9543545246124268,-2.9409270914535828,-0.01501360246041,0.1261114824450053,-0.0156071473651615,-0.7437944321581259,-0.0432268515102503,0.6668265883647743,0.0183132347701491,-0.0042455480025272,0.004583192301422,0.0304407415402954,0.0873568909575507,-0.0423074295742641,0.4548748656562045,0.0205040258496811,0.0564588026031386,-0.1630649362613535,0.1945087839804707,0.0816759951099725,-0.0001320907742412,0.0290056769604508,-0.0696466238057519,-2.838741594890076,1.455086666136366,0.386218481639636
2.05916690826416,-2.939294214911879,-0.0149087125636681,0.1265976421329185,-0.0209306172631359,-0.735996889109177,-0.0498559453833717,0.674822104848773,0.0262405647521042,0.0052737548899752,0.001380204904639,0.0961359402030901,0.0791901717344691,-0.0346843742524967,0.0605243755876405,-0.1644134948327907,0.0784823452811605,-0.165873346489085,0.2102800010879993,0.0001226882843433,0.0236782161298253,0.0048285456608825,-0.0271745238146883,-2.7500476501847286,1.4750620310196805,0.4918091084572584
2.1604063510894775,-2.935595062588628,-0.0139569496515242,0.1264187618835532,-0.0253844820683723,-0.728649122533383,-0.0534460555338536,0.6823266105387682,0.0379782101494061,0.0121534366444515,-0.0025346111150346,0.0468893865613593,0.0540867451585471,-0.0261764005441823,-0.7753275236967699,-0.3503791858812574,0.0184738575788225,-0.1157085040017028,0.2041658753022359,0.0273269474805957,0.0368037756277611,-0.0050215197498021,-0.0044112703784742,-2.6527403998017594,1.4941848117899184,0.6004752511119164
2.2651634216308594,-2.9314605324003877,-0.0123854472571752,0.1260700262250101,-0.0277877153733326,-0.7211974139054785,-0.0575410250266788,0.6897761691224623,0.035405390609414,0.0163161772404636,-0.0039226276871354,-0.0656465578940397,0.0062802247265321,-0.0313480988321596,-0.5342665290973561,-0.601057596109211,-0.2040217171733217,-0.0922657952335627,0.200236961588395,-0.0086998524726052,0.0169830159489997,-0.0360792492623857,-0.0347462736531518,-2.4438544327621714,1.5095894846802187,0.818541255928832
2.3759303092956543,-2.9280145818572105,-0.0104241660642437,0.1255660017063111,-0.0288044739194047,-0.7159302057264052,-0.0626177052860285,0.694761301308216,0.023321791356496,0.0130933011354768,-0.009514651531711,-0.0615811943802365,-0.0772447168841318,-0.0720601648110767,0.729763900564554,-0.4124145848719081,-0.3123308677621229,-0.0817424721037032,0.1320073767774644,-0.042165599825708,0.0284633313628157,-0.0252652640951081,-0.019674227036858,-2.194869266273025,1.51437151963373,1.0761556725179486
2.4748458862304688,-2.9263956377631737,-0.0095365188560507,0.1241863435428897,-0.0278529187267019,-0.710722356913397,-0.065731293547264,0.6998409414648967,0.0214270444272379,0.0011995118077621,-0.0185483416094897,0.071823560608989,-0.0878605764913619,-0.0980771632223991,1.2066229106321005,0.2374976050912274,0.0577169559585319,-0.0353391325079311,0.1497064333981787,-0.0480483065463213,0.03559665975907,0.0810266779067692,0.078811088521559,-1.91678419476181,1.5150544447429144,1.3573048368918217
2.579888343811035,-2.9235804382028268,-0.0102777304454474,0.1217247989987372,-0.0315314122181644,-0.6996104478137293,-0.0623024058435183,0.711104353509041,0.0391201421602644,-0.0044174885375526,-0.029603550091379,0.1827246883314887,-0.0244489698917015,-0.0562363449526095,0.4288985163058928,0.247647676545259,0.4376407385217538,-0.0105491525855631,0.2940607325910029,0.11545657721741,0.0237500582515305,0.1181185729227722,0.123240811833953,-1.279731830567281,1.5243386471313876,1.9946953300705872
2.6852431297302246,-2.9181571607544567,-0.0104642954628245,0.117953978504233,-0.0371139795595483,-0.684680681435764,-0.0550458461123013,0.7258132485809915,0.0598807529747862,-0.0039263266689475,-0.0303496543863672,0.1616704618771901,-0.0359789140628497,-0.0059741615424277,-0.8086030755882205,-0.3553282551188146,0.4983604074205614,0.0121609839951299,0.3859435792437233,0.1984333171215848,0.0311323639450412,0.0391921530746507,0.084479987674159,-0.4763571964491374,1.5073279734564593,2.7957273518699743
2.7905118465423584,-2.9109695903969586,-0.0111043362288922,0.1153315120942803,-0.0442975153395273,-0.6698356584374022,-0.0430272588520209,0.7399368728588659,0.0731778295472267,-0.0119885004486887,-0.030862039514879,0.012518624610159,-0.0992471419919191,0.0487264072254491,-1.7233258697322529,0.0744842158977625,0.6889054572675537,0.0517155753045193,0.3724450387403044,0.2844165525657282,0.0251075031619306,0.0502933828642113,0.0872563134047479,-0.0437450791999489,1.4716013006329087,-3.0616108986779276
2.892050504684448,-2.9030593493241823,-0.0129003090735469,0.1116150818594216,-0.0535526153174391,-0.6505282789120771,-0.0279690329372946,0.7570751672884971,0.0633035948255695,-0.0242853123582606,-0.0206654066410675,-0.1924803275043452,-0.0255250622118583,0.1352561110487053,-0.9017184803773864,1.0033163286571347,0.0994003932761393,0.0623759903189911,0.4865303449721461,0.3729459439310807,0.0195131037663515,-0.1690726683417462,-0.0363789352509646,0.1778038046971486,1.4156778986042309,-2.848087675234422
2.999342918395996,-2.8979226043899127,-0.0162539386790695,0.1112045093494455,-0.0571981114107127,-0.6486125554299987,-0.0163022994262239,0.7587913837300949,0.0318549968650287,-0.0161878796109162,-0.0022041400358642,-0.1625676892957457,0.1135575350536805,0.0605761845133283,1.069869200233382,0.3295556114500226,-0.2820871796604567,0.0907417828372224,0.0342997020568119,0.211658682063799,-0.0235958108143082,-0.3727009578425256,-0.2732620613078701,0.3032378103265455,1.4044006912452984,-2.734001434402703
3.1071088314056396,-2.8962238724641107,-0.0163673455339588,0.1111426031142032,-0.0507301835927639,-0.6596533727821593,-0.0220683748756886,0.7495310954724375,0.0284659568058884,0.0001723288909935,-0.0077438064601057,0.0383547512790107,0.0444310953715256,0.0749837929662905,1.2110770311215648,-1.0569896591714396,0.987232434592426,0.0151843686903746,-0.2588715707129053,-0.1735781786846594,-0.081010178968423,-0.2084438737103336,-0.1599319442090846,0.2570886328506394,1.4372842604659164,-2.781275660038406
3.2178595066070557,-2.891625440890433,-0.0162088699992593,0.109468968862581,-0.0501909091285039,-0.6755847182239787,-0.028082903440371,0.7350357213615135,0.0406586069340946,-0.0071288409378625,0.0149459896142939,0.0981184889898878,-0.119927165345699,0.2814686294752031,0.1290214088329702,-0.5929824787625368,0.7029740275557718,-0.0712785750996236,-0.3825880453638554,-0.1082052063543703,-0.0414894434275716,0.0364969779991519,0.0744033361850323,0.3005910867877575,1.4810646572682071,-2.730137406756366
3.3333163261413574,-2.8870348763054063,-0.0180622215105243,0.1148124208192566,-0.0523995127177833,-0.6833890661452218,-0.0312376043402291,0.72750112537039,0.0505460116217921,-0.0274751839327366,0.0566627670864038,0.0635935376499052,-0.081140917159034,0.2228377385470876,-0.4029578660308906,0.6843331361821854,-1.3369776038076526,-0.0677945181647686,-0.1858776147146014,-0.0247715063145946,0.0247760456196828,0.0755596152006603,0.117461916166844,0.3880906810856238,1.5015914756350053,-2.635081198974566
3.438983917236328,-2.8806507047163783,-0.0220701430406591,0.1218038468821519,-0.0581868023328183,-0.6918324050297966,-0.0265075525897866,0.7192215020705853,0.0551339761164921,-0.0268537526989605,0.066817169041758,0.0109631720869836,0.0248637105969414,0.0013757351068015,-0.4714866918107914,0.4420656408549172,-1.8756742708045588,-0.021726483860258,-0.2314688149625346,0.1267186259793178,0.0104854723849979,-0.0046929346881862,0.0125732048421118,0.7979510392501192,1.5115637286743746,-2.2237413528015377
3.547263860702514,-2.875267044120784,-0.0237489327421602,0.1291112424211692,-0.0603008781919114,-0.6993264363555336,-0.0276300764676312,0.7117182858251901,0.0527198878642494,-0.0220552493286768,0.0564560909699317,-0.037139245409701,0.0104699904799935,-0.1772936453784482,-0.3557242843943384,-0.0058811942698942,-0.9593465118444794,-0.0468235733947728,-0.1952634840909739,0.0003749033696289,-0.0140429228501402,0.018866623806697,-0.0184669182009329,1.1460303704710548,1.5213759312426345,-1.8710908234885104
3.648514032363891,-2.869645110769058,-0.0266022665023483,0.1337831416080022,-0.0655416259194671,-0.7059200333447816,-0.0255654615735452,0.7047890528157108,0.0475541159710193,-0.0241995657065972,0.0307789070413545,-0.0647758882204984,0.0219031501928847,-0.2090322556062962,-0.0114440225957378,0.2315017227823818,0.4433000185161694,-0.0498123295605385,-0.1937355673491405,0.0897847895774518,0.0057028346011504,0.0361300070487522,0.0390853603200701,1.534587241710137,1.514231331489741,-1.4780195871516992
3.7548842430114746,-2.865477528429218,-0.0287314545133725,0.1353402724947118,-0.0699833486782605,-0.710186256705018,-0.0235213947693537,0.7001318130775059,0.0391266690362801,-0.017055396211362,0.0135246649680982,-0.0367696669875718,0.0597794558906766,-0.077310235004198,0.2352661363914526,-0.0154148401707941,0.832057904705779,-0.0354179041924718,-0.1230034699934695,0.0785456240097693,0.0098504242196559,-0.0027118625961744,0.0477855231359111,1.7177082511179564,1.503555615455213,-1.2914772557536487
3.856772184371948,-2.861496195174121,-0.03018017981488,0.1366095405027106,-0.0779953122114115,-0.7165237971851207,-0.017287305384308,0.6929729636955617,0.0395239373530138,-0.0116852089695156,0.0139333744026001,-0.0155338687445237,0.0219529976672657,-0.0321840577198751,-0.2294515588475373,-0.2538376131027768,-0.0378332538000366,-0.0301114811212266,-0.1991592925414894,0.1853558358492742,0.0072127666320937,-0.05852930783829,0.0304099305521561,1.873362053769865,1.4786757139325284,-1.133235081703069
3.957973003387451,-2.8574512750237613,-0.0311080591653655,0.138167962842732,-0.0839865491544149,-0.7243020363064967,-0.0122124591420902,0.6842394870256308,0.0359985304533267,-0.0125548683900696,0.0070380182200427,-0.0827689818083365,0.0080670729076273,-0.0843353260529867,-0.5545875122690678,0.0746217162950946,-0.2443846756798554,-0.0209923709282844,-0.2400620856700497,0.1393654851140815,0.0066529818797123,0.0134862396677591,-0.008080964156227,2.0117037522438643,1.4544851060547113,-0.9935069039341472
4.059329509735107,-2.854205666458872,-0.0327243155561677,0.1380325371535586,-0.0908800429130361,-0.7294877906505788,-0.0062285544766563,0.6779008675322621,0.0227435371019062,-0.0100459726174075,-0.0031544118093641,-0.1278354211298274,0.0371341831930869,-0.0816015352746882,0.2200064307454853,0.0960672435706506,0.3443969569180647,-0.0168055173618018,-0.1721868132059711,0.1691939075368202,-0.0218565040818223,0.0541342660053633,0.0074673815948132,2.04921162844945,1.4304879328151694,-0.9546011331750784
4.16978907585144,-2.8528103333537858,-0.0331237125662373,0.1374652173411935,-0.0995583544836386,-0.7335749732773279,-0.0023965080523066,0.6722723773760404,0.0089768733159143,-0.004453719219064,-0.0098858348986584,-0.0235241933197469,0.0247875823530855,-0.0053479230882872,1.0096955395314708,-0.1417629747902133,0.7351873870967015,-0.064705379091929,-0.1317935536593229,0.154300248303708,-0.030139744537898,0.0265854294288661,-0.0035148648938923,2.0612552960206014,1.4081459754871817,-0.9355468401914712
4.2744739055633545,-2.8522332303630646,-0.0336730834542674,0.1359590793507364,-0.1085060816103221,-0.7368615893772639,0.0009703030943275,0.6672784178031627,0.0165452347052124,-0.0044224306932968,-0.00493026524984,0.0886598082321012,0.0069719673525734,0.0760653802496976,0.4432395764589154,-0.0490367447839261,0.377674238015846,-0.077085006437598,-0.1190159543482388,0.1621641777490354,0.0106556712375822,-0.0219284744479152,-0.0161958914950245,2.060546112923714,1.3870884052406842,-0.928175354015718
4.3805341720581055,-2.8492929579733177,-0.0340534325913459,0.136452374284917,-0.1147889957966374,-0.742328576689629,0.0045991239415747,0.6601140952387846,0.0277068018491757,-0.0029659338839441,0.0062241155435077,0.06814637941068,0.0147887771670148,0.0731374234690687,-0.2554515382394829,0.0032163107579196,-0.2382206686857541,-0.0433940366167645,-0.1756505025551534,0.1219084653136588,0.0223341525597296,-0.020482036467428,-0.0009925263018054,2.0954430716325887,1.3654344584433349,-0.8893318133697703
4.49545693397522,-2.846110790156962,-0.0343170516810832,0.1373635501919787,-0.1227988823645742,-0.7472847263941066,0.0103469680629878,0.6529769616456621,0.0309195114086797,-0.001134861403614,0.0106403610292105,0.0310637770563412,0.006381168127183,0.0195335498443402,-0.1666423614736542,-0.0804533524284056,-0.3103860521968083,-0.0324167013181386,-0.159980027283095,0.1601791251454246,0.0108064276556463,-0.0017757161087943,0.0124273881798957,2.1069380568245673,1.3395357051518064,-0.8743829853237535
4.610794544219971,-2.842170735103882,-0.0343137828305204,0.1389046817804969,-0.1298258653574869,-0.7529392325023735,0.016202999895243,0.644953656968709,0.034862142395875,-0.0015045432218581,0.0107062130897491,0.029904939937962,-0.0037425049110507,0.0017975216500016,0.1977730589376729,0.1305325341066426,-0.0469721390918767,-0.0217811813054718,-0.179201934772742,0.1467632416734504,0.0040077565684884,-0.0011586140561238,-0.0011825751955298,2.1264280031356555,1.313237538626516,-0.8529581895629841
4.712830543518066,-2.838550255981616,-0.0346056715085141,0.1397573746951661,-0.1365480264216507,-0.757203598235579,0.0215322912669537,0.6383836681277485,0.0375273134792841,-0.0019349137835784,0.0110003456656807,0.0688445337866716,0.0292827242302337,0.0066455891824159,0.3985452551303994,0.3002553149822118,0.0050959160561844,-0.0244011881811618,-0.1622972553953426,0.1578139747543649,0.0044938728712144,0.00436224790118,0.0004641984576549,2.1331199570322923,1.2902071073488546,-0.8440166332974576
4.816049814224243,-2.834463188737254,-0.034708730598396,0.141168853074367,-0.1425424413627774,-0.7617422100341178,0.0270982197281315,0.631423902263957,0.0490945416833472,0.0045856304362817,0.0120792121181474,0.1117487261117293,0.0578307654796979,0.002742520660887,-0.0220243818634364,-0.1413648339891839,-0.1696714064210926,-0.012793435563043,-0.1704774389703819,0.1476916385887604,0.0005917250126186,-0.0225153621629008,-0.0580287756782478,2.143169588977398,1.2671052122364528,-0.8330715398768384
4.9225075244903564,-2.828193774512001,-0.0336074355960598,0.1422796124383823,-0.144707679917495,-0.7683783144921658,0.0291315865249554,0.6227405590272834,0.060956370904476,0.0101557308092525,0.011524671250745,0.0613472240937349,-0.0031076484465851,-0.0297980249370928,-0.6521705999052033,-0.6514055738714934,-0.561845756326433,-0.0232177381559245,-0.2073279797211444,0.0417564233978693,0.0009051528440666,-0.0219235316197661,-0.0615032927369472,2.1852576977345968,1.24868627479538,-0.7905529087689881
5.032938003540039,-2.821225756145098,-0.0325076036765043,0.1436772473711323,-0.1457775885042369,-0.7755135842004038,0.0312247992703258,0.6134758245612134,0.0619947277175967,0.0034629805881526,0.0054173541779944,-0.0311459703908959,-0.0840907110566359,-0.1211886506414485,-0.8282140341984646,-0.5838608784686029,-0.4075477439036761,-0.0109831298749096,-0.2143245022099142,0.0246850531148659,0.0040211338507097,0.0175537496468534,-0.0013702532156977,2.2297990841094086,1.2297760303093512,-0.7472219352003289
5.1381916999816895,-2.8148113307596527,-0.0327948399498475,0.1435212415899718,-0.1475705383919044,-0.7807656529683932,0.0331849712075897,0.6062397949899971,0.054648662095003,-0.0077438536687931,-0.0139476570842249,-0.1173800284519644,-0.1305485648391031,-0.1219465748822997,-0.5900260029682401,-0.3563360304141347,0.3767160011088546,-0.0151754704545049,-0.1722204804274374,0.0390159169664737,0.0041664009760027,0.0578085975547331,0.0107184774671042,2.256378631352738,1.2135638648671807,-0.7206475450113771
5.2392737865448,-2.8098983112383777,-0.034064426818625,0.1409012877692372,-0.1493039608025339,-0.7834386500816933,0.035229257432115,0.6022384148056578,0.0381641814443618,-0.0232769848434419,-0.0202519238042353,-0.1547644006223404,-0.158311140447607,-0.0465982872183526,0.1731722751251893,0.0091720137178894,0.2602726513466931,-0.002650327922904,-0.0987073071004478,0.0461220080490744,-0.0075238706526046,0.0771278450279972,0.0279489592988914,2.264942657692995,1.2029777586706072,-0.7123721216412756
5.340582370758057,-2.8070919910803447,-0.0375107447273822,0.139425011214147,-0.1539585391129004,-0.7833124973390254,0.0370607038333551,0.6011196253476486,0.0233295624512095,-0.0397866570323729,-0.0233715641757191,-0.0820853171538593,-0.1285635190394151,-0.0694898326408798,0.8804473865298078,0.4177162410636583,-0.2322456223071157,-0.0302232117597142,-0.0179647903714429,0.0949138355642566,-0.0364060669781041,0.1199392821394855,-0.0699454793999835,2.248311580044389,1.195277340599055,-0.724805925729604
5.44157862663269,-2.805175901577048,-0.0421098622469728,0.1361785954011484,-0.1527975715670579,-0.7798630564530306,0.0301301502542525,0.6062661868755369,0.021517793086522,-0.0493074624936772,-0.0342859185881518,0.0232526773519596,-0.0738825125641191,-0.0935787795208775,0.9895449102089884,0.6524809869283803,0.141666335683554,-0.0754624618791122,0.1411712571785232,-0.0937689507508925,-0.0217892228890016,0.0896162475285858,-0.113685931234442,2.241762332709564,1.2122319025323185,-0.7232974463341798
5.550417423248291,-2.8025353206613097,-0.0479186066528606,0.1321957218543719,-0.149864345490163,-0.7757082427639974,0.0212847398826206,0.6126698620847328,0.0288799688528111,-0.0549576208117492,-0.0427716015122943,0.1246850676338602,0.0101595608065409,-0.0335685970407561,0.8027819250698275,0.5662648779949513,0.6694497886732468,-0.0738016575377175,0.1612677046857287,-0.1324580269046274,-0.0045149834383189,0.032490856929308,-0.0491511578721668,2.23958137121164,1.234934075651732,-0.7173153670593875
5.653935194015503,-2.79909100016308,-0.0537639931156994,0.127159897696857,-0.1450418147012197,-0.770663933201108,0.010200036480132,0.6204320537391497,0.047403279676276,-0.0477944458260203,-0.0418753564757503,0.195069709912119,0.048505243854471,0.0473573604288797,0.2359116990639207,-0.0658565934310252,0.584832375458713,-0.0844924287557501,0.2061529710371394,-0.1920712664952263,-0.0015471915065939,0.0394189360101439,-0.0848981089454477,2.2431651381737328,1.2640806734931336,-0.7051671969181896
5.75980806350708,-2.792542202861022,-0.05788499991457,0.1234596725314808,-0.1353346807653294,-0.7649729597978306,-0.0047098494330422,0.6296655558934531,0.0698025859765447,-0.0448996502359677,-0.0326710578036304,0.1719675739442062,-0.0057085470978495,0.0879517134809132,-0.8355729829791002,0.0694893066637795,0.5791988197549754,-0.0768960405509053,0.2401055767060165,-0.302254244795523,0.031153193822572,0.0452943871737982,-0.0993130704670924,2.273719934770178,1.3040325857103332,-0.6677109627744614
5.867985010147095,-2.7841127486140977,-0.0634025908537902,0.1201772783797896,-0.1198013528410882,-0.7574509659040175,-0.0211045602828191,0.6414594824646254,0.0840284369242851,-0.0491703194152655,-0.023044582816474,0.0133395894483635,0.0660884699605156,0.1722467318197228,-1.6079352021628708,1.083569903447047,0.1357537854002414,-0.0221860411106059,0.2967417453847359,-0.3906974074294112,0.0411345465762306,0.0536959301540524,-0.0384756136696411,2.3361912403025564,1.3549940630221753,-0.6046276364495761
5.973887920379639,-2.774580883968621,-0.0684196324863239,0.1184934474858066,-0.1039768483057363,-0.7477783398415848,-0.0359658056021921,0.6547692954831913,0.0731901012719777,-0.0312265200692901,0.0038288122130568,-0.1716219055652539,0.2243724141868587,0.1199096929861044,-0.7979534870621902,0.5869484957425826,-1.0438737181556066,0.0053730526015559,0.3474974370141215,-0.3792054721348052,0.0137612800810506,-0.1336820433596521,0.1942658961179993,2.4107643705822435,1.407666532538671,-0.5319316421797293
6.07902455329895,-2.768641065502531,-0.0700172787075617,0.120955183430366,-0.1036523635689115,-0.7467881578973187,-0.0359911011667514,0.6559483785998046,0.0479152192062688,-0.0019027556009572,0.0024654871766227,-0.1565086197644499,0.191343826348565,-0.0472125408589807,0.612535754199579,-1.1608414957057025,-0.3408788734264471,0.0053365190514953,0.0293776586654317,-0.0021656151934125,-0.0025521489108813,-0.3340444865984002,0.2365361320117107,2.4021771670863767,1.4104377247600897,-0.5409678384417036
6.183671712875366,-2.764520666813283,-0.0688317827641564,0.119031127096776,-0.107898847804196,-0.7571687020202528,-0.0310147298393938,0.643499403151613,0.0402751951116986,0.0089998375498146,-0.0060421673114777,-0.0435796809839377,-0.0183263800726964,0.0471792717769989,0.9506561006099284,-1.4695133871106725,0.6418146460891088,0.0002687547797932,-0.320591536182679,0.0938667918886161,0.033134742801301,-0.2126168382516726,0.1079812312173123,2.448039271019966,1.3764189498600017,-0.4958465959903218
6.288091659545898,-2.76022125599578,-0.0681346516562209,0.1196863616692597,-0.1145553359848062,-0.7691656536598225,-0.0187622795575099,0.6284180528066267,0.0387907831836908,-0.0056785872647944,0.0122708007795745,0.0423006232542362,-0.1161255206922883,0.087087896852918,0.7787066510789454,0.1281853489835462,-0.4440714977890491,0.0716060046540975,-0.3958560178379136,0.2137968472412122,0.0225956132861564,0.161854286895738,-0.028727283072569,2.448900926938288,1.3294363356135444,-0.5024842533448339
6.3900628089904785,-2.7565030582769023,-0.0699439932615195,0.1215346904174187,-0.1145232529145931,-0.7688931971906123,-0.0158309704856764,0.6288378616379107,0.0487321182576945,-0.0150857565401214,0.0123593383010839,0.1173501689036304,0.0029762230237984,-0.0404738711088293,0.0623371340117515,0.9962747871237972,-0.6221880476194994,0.045459981352106,0.0031170376087971,0.0364122257434779,-0.0252813986017525,0.2104783531577901,-0.132053052481143,2.434749447374839,1.3278954230985076,-0.5208585611718574
6.4904584884643555,-2.750397851639956,-0.0711958185726751,0.1222055117962771,-0.1118967544125972,-0.7684033115376527,-0.0167510751781944,0.6298848058576032,0.0624764751021338,-0.0053740427742356,0.0042094920836669,0.0570218274031155,0.0860243473997922,-0.0407882410210459,-0.8328173904294962,0.2487990538616771,0.176557762658215,0.0210432074505925,0.0251006884776666,-0.0503092577210737,-0.0082138822727802,-0.0050786580682713,-0.0696276966902304,2.447980483101401,1.332577923577467,-0.5101211259349661
6.594962120056152,-2.743687711996601,-0.0709856475628478,0.1223764848423245,-0.1068164368213149,-0.7692497101864721,-0.0189288312405333,0.6296720031498099,0.0597461377330805,0.0024507801544632,0.0043404770258863,-0.0552378859071498,0.0491056005961851,-0.0027907954624255,-0.6184988677121305,-0.4020992671418948,0.1204358529568194,0.0290322168065456,-0.0070402785277455,-0.1028431676369829,-0.0196094122745883,0.0218464407250058,-0.0194146362348277,2.4899973069943395,1.3369996929264285,-0.4723026286236257
6.69911789894104,-2.7379281576538848,-0.0706847455842435,0.1231093148197346,-0.103771782413068,-0.7674582027651463,-0.0229623417513543,0.6322278505765153,0.0509707894799351,0.0048902017247846,0.0036299752343464,-0.072350300525981,0.0021564606353553,-0.0154892783791985,0.1430229511541097,-0.6934845658379519,-0.3976180550254634,-0.0181756170985842,0.0687935699276784,-0.0891385301907292,-0.0436882681928553,0.0253739038253512,0.0259361436108322,2.512664260164554,1.3475442301327747,-0.4483314929307777
6.800338983535767,-2.733194453736873,-0.0699928938519909,0.1231417068558491,-0.1036070186947552,-0.7662517908439945,-0.0270887734915999,0.6335534524065645,0.0448181875026421,0.0030167181916747,0.0012094952784073,-0.0276426455967264,-0.0919155034079006,-0.0828569518285632,0.4790738702028306,-0.9415367103012908,-0.7068215938873119,-0.0583443195791651,0.043707529122957,-0.0509708804153185,-0.0038310847273437,0.0362705350332468,-0.0366295276741078,2.525434743907864,1.353742285558812,-0.4299634512437776
6.901829719543457,-2.7288440331220443,-0.0700752831303642,0.1233549741490372,-0.0979225224241425,-0.762479809458151,-0.034055947397111,0.638651636040839,0.0453851953888513,-0.0137817984721846,-0.0131979394082522,0.0247838276467817,-0.1887107296899655,-0.1587926581552608,0.3435379357176807,-0.0313126018221135,0.4779391853571966,-0.0258377865532718,0.1413346399941722,-0.1623975855389449,0.0066548025197615,0.0894943392593742,-0.0623579772375957,2.5714934799815143,1.3734363019642688,-0.3822649677591934
7.011496543884277,-2.723568159345655,-0.0731236555392195,0.1200946084197102,-0.0917262498022134,-0.7554457912327481,-0.0432828038208015,0.6473133325518323,0.0503780377805664,-0.037225511481365,-0.0326071445846067,0.0419546656439566,-0.0828362212691595,0.03892123698166,-0.068050839576859,1.5011312870888385,2.172390409652346,-0.0450347145396419,0.2226962076417055,-0.1756868348905101,-0.0241689471848931,0.1673140004194186,-0.0489977624374174,2.6244525489835335,1.4030323831214178,-0.3252404655430515
7.126004934310913,-2.7175280614000044,-0.0785136362604284,0.1160167831482249,-0.0819880830669507,-0.7386182815104271,-0.0586199595010475,0.6665468391656252,0.0547550329256623,-0.0310557693129282,-0.0023359812273251,0.0073054437829631,0.1531075712771698,0.3318606288833569,-0.2938979736904084,1.0418215258553856,0.6338444606696201,-0.0741756809230581,0.4759626408330095,-0.2603931104137798,-0.0027538609429263,0.1052900122210882,0.0007589022696305,2.728319185219414,1.4635968642738515,-0.2138071768769463
7.236674308776856,-2.7112536945407295,-0.080237625555895,0.1193173890472909,-0.0753006262710757,-0.723014390459873,-0.0690554728747894,0.6832359391433983,0.0522564772493101,-0.0034981899753265,0.0416108877976845,-0.0242902505469421,0.1594491068460476,0.1961767664778279,-0.0910299318270547,-0.8456095258772225,-1.7378430560422615,-0.0505424364254947,0.4332762320838821,-0.174169030351249,0.0532308405708579,-0.273569600693995,0.1858117121864613,2.8835705374437763,1.513844321798685,-0.0534323376874937
7.346636772155762,-2.7059923639696715,-0.079302472269151,0.1251808584888062,-0.0787775863815676,-0.7253300277321528,-0.0632970402862398,0.6809434098696979,0.0493982451424415,0.0042499963739234,0.0412300225343489,-0.0130527200998394,-0.032188333763013,-0.0508415754710251,-0.0743379078874856,-1.213536992013121,-1.3544911074719188,0.0322860002186578,-0.0711765605549804,0.1112303139591427,0.0448327426295577,-0.2493423441136331,0.0825080106819539,2.705330009504598,1.504303717941353,-0.2348876032817943
7.451005458831787,-2.7006830293770148,-0.0792803343271329,0.1282861110620051,-0.0772563352725823,-0.7278153259103475,-0.0618720479882844,0.678592778997832,0.0493177870857461,-0.0092779549989093,0.0312305165326131,-0.0382984500531563,-0.1064197164700828,-0.1038572193644712,-0.4145240741602436,-0.1078465067338977,-0.457747496338191,0.0391230488336206,-0.0654084561433841,-0.0091530089873411,0.0032056872763006,0.0758293919967522,-0.0454233136637602,2.7400624974695726,1.4978481930100525,-0.204322548183494
7.555139780044556,-2.695708729820206,-0.0812325104996086,0.1316918232137481,-0.0764013573578778,-0.7250060882162707,-0.0600084331934122,0.6818562844096158,0.041430473681121,-0.0179496956636617,0.0195792479109896,-0.0994014082765912,-0.0549571673326704,-0.1463068173974367,-0.3631888742496943,0.3417871403509986,-0.2243758275699764,0.038697374771259,0.0804822234385239,0.0203836866316223,-0.02922048159961,0.0524593691842834,-0.0542542029188808,2.6818685289728146,1.5055063495968626,-0.2664078315342411
7.659559011459351,-2.692046173157676,-0.0830233523486818,0.1323619432231065,-0.0725098812563672,-0.723992766993864,-0.0650846541771195,0.6828914835106681,0.0285737700417758,-0.0207233095817931,0.0006980700010712,-0.1139152043386052,-0.0352257574069541,-0.1505470232542474,0.1492035426603754,0.1462119677763563,0.3050168727209307,-0.0193179143655994,0.0395102822251828,-0.1176614148251027,-0.0398992036577118,-0.0151267951637469,-0.0785546891730792,2.8653727359239265,1.511720834055146,-0.081238222351022
7.756863117218018,-2.6898553645308807,-0.0853637758498942,0.1319112574924053,-0.0688984206822644,-0.7226565279644723,-0.0712504001775951,0.6840642738020721,0.018324514645247,-0.024936469947564,-0.011205727178825,-0.0732649895995405,-0.0248751649838974,-0.0895285506722198,0.5888454228394455,0.3587089434859996,0.6788167290157265,-0.0411010325441647,0.0502286331110301,-0.136725691714536,-0.0231990293553739,-0.031151816630373,-0.015527911444216,3.10316135797689,1.516110561028727,0.1601694060742652
7.862985849380493,-2.688395734156769,-0.0881123937482376,0.1299611960867637,-0.0656647140350218,-0.7237516829986047,-0.0790823026895796,0.6823618073197678,0.0142609113632108,-0.0254439169709267,-0.0169095856565261,0.0090258856285746,0.0423974435993344,-0.0115038314425589,0.601071487712715,0.4395673429095919,0.5679519280807225,-0.0657159730763472,-0.0227933510355632,-0.1487172377135348,-0.0076094567139108,-0.02393108773633,0.0034829268743625,-2.930686438048574,1.5092536402413272,0.4160659763660916
7.9727783203125,-2.686772433454564,-0.0908540963086646,0.1282711661621443,-0.0626066346311787,-0.723864458086298,-0.0861867955784783,0.681668901951308,0.0206266303721545,-0.0154299600036886,-0.0133741702051253,0.0552136474549126,0.0685830470254562,0.0318519367388298,0.0957057037727575,-0.2760701857249396,0.1660140157369017,-0.0563199459719865,0.0023664576383699,-0.129759837965811,0.0422648997329377,-0.0411347041190725,0.0262584336010142,-2.7374649119215007,1.5024238267878842,0.6150673109121916
8.078715324401855,-2.6839902142383556,-0.0915133746591572,0.1270607000180305,-0.0587166256485452,-0.7280418972711519,-0.0885880371444726,0.6772440574602039,0.0261930758283313,-0.0104771355202212,-0.0100355405423305,0.0321343026600897,-0.01326087604211,0.0260441329413914,-0.1961640536345978,-0.5810019603356955,-0.0768651219005039,0.0188138263895283,-0.1050627592737083,-0.0962003705115062,0.0475096165828506,-0.0751977954624394,0.0268725905114196,-2.7144504745608393,1.487432862570946,0.6360230580000107
8.186023473739624,-2.6811870798615343,-0.0931000354092512,0.1261349742793112,-0.0550422290681064,-0.7338136469259455,-0.0893684158905341,0.6711938399938386,0.0274227807637359,-0.0184234168264963,-0.0078354855278972,0.0134424929924626,-0.0547840657433434,0.0153999854541694,-0.1351488647565235,-0.0075382517675954,-0.0605346429470219,0.0386992871937147,-0.148029133286509,-0.0760146569429718,0.0133809365817227,-0.0244016072008618,0.0123543072523101,-2.742580066414237,1.4697629914831658,0.6038589137764544
8.291006565093994,-2.6781745800138586,-0.095407773613401,0.1253936552428553,-0.0514021722287119,-0.7396238085370723,-0.0896833251579217,0.6650348409849703,0.0290376784026928,-0.0221959359070195,-0.0067427895897066,0.0032638119019378,-0.0166063886680068,0.0130153431361834,-0.0985347282059934,0.2571709636035302,-0.0288071243065865,0.0455756995529738,-0.153865973675432,-0.0714917560068859,0.0031495914622251,-0.0047676090977797,0.0029224398270594,-2.767524058016097,1.4521606609855569,0.5742793805679027
8.39520788192749,-2.6751133839402716,-0.0977427458706753,0.1247239916483634,-0.0478730589679741,-0.7454494975847635,-0.0899547706077734,0.658727072481901,0.0281243968669908,-0.0219273224033172,-0.0051169397328248,-0.0071669757019639,-0.0008220360585288,0.0093834747947591,-0.0161082159352414,0.0905376642431702,-0.126481816835705,0.0449984701181649,-0.1575643514820685,-0.0701697772888529,-0.0021402260339212,0.0062267717832837,0.0038538056723684,-2.787659949318994,1.434369977763203,0.54961711956261
8.506694316864014,-2.67212739150404,-0.1001299758564401,0.1243097436194963,-0.0444134219232695,-0.7509895365379174,-0.0901999494224101,0.6526148428344428,0.0275159408174197,-0.0224245075568754,-0.0048126762787864,0.0010560608845582,0.0020025016416953,-0.0156469382271913,0.04014848709435,0.0021253901888993,-0.1086534466200244,0.0412952474851314,-0.1414124301088645,-0.063784144662149,-0.0035663607064788,0.0011277274772711,0.0005718228777695,-2.80159460182098,1.417191875435818,0.5312241802323413
8.610808372497559,-2.669191376759009,-0.1025630556827019,0.1237020164039564,-0.0411559092723521,-0.7565724132611532,-0.0907018683544205,0.6462797735510359,0.0282592163183288,-0.0215877138173914,-0.0082284350021426,0.0019682391958546,-3.289227685697449e-05,-0.015694131910608,-0.0097836516854271,-0.0813436738557795,0.0811583198363189,0.0378657487052072,-0.1553088965275261,-0.0690261315333137,-0.0054033666334875,-0.0079346511456958,0.0075352555056038,-2.813102605743757,1.3995945250599489,0.5159246471538208
8.717718362808228,-2.6661636816768617,-0.1046754060106076,0.1225597945574027,-0.0388934480361017,-0.7622306888041973,-0.0908020867140563,0.6397238918418752,0.027901983871887,-0.0224771819000483,-0.0080275328361264,-0.0011136184544102,-0.015513153317906,0.0019419079247476,-0.0256676335821908,-0.0611273408988349,0.0588105488501624,0.0304885142181562,-0.1572817324002562,-0.0487136336509412,0.0021646283916409,-0.0099968914004498,-0.0035256463833911,-2.8330542213493812,1.382355888829143,0.4930343328985406
8.822256326675415,-2.663289598078328,-0.1073030539726446,0.1219921485907791,-0.0352815159602478,-0.7684074534413389,-0.0913037227566041,0.6324308897722571,0.028013292356265,-0.0248341912033173,-0.0078181168692399,-0.0034739497345792,-0.0133506740016006,-0.0027607621805428,-0.0264254985308221,0.0464321739292186,0.0250514330217114,0.042195005488489,-0.1753026793284257,-0.076077424300096,0.0020844318375602,-0.0110662777532687,-0.0075835250423313,-2.8409044618398345,1.3624383230149628,0.4809265010557707
8.925961256027222,-2.660330975678132,-0.1098474503778975,0.1209356901191717,-0.0324473704795487,-0.7745332399851863,-0.0916848601033624,0.6250114516829589,0.0271860902132043,-0.0252726254175695,-0.0085945363869042,-0.0066101572265285,-0.0058867069635417,0.007042469728919,0.1844677979081984,0.2472942619841817,0.0453383407283675,0.0346573778932766,-0.1794142879067937,-0.063880683735604,-0.0028426335238178,-0.0068325181137661,-0.0029689905909306,-2.8528472508976357,1.3428571773421123,0.4656718748971523
9.029146671295166,-2.6576636664345585,-0.1125309516204958,0.1202123713622604,-0.0288846969352912,-0.7808915788826634,-0.0925489107924438,0.6170970064943031,0.0266442985392512,-0.0260503746071638,-0.0063761564022543,0.03446812617563,0.0376304137530221,0.0066702863035621,0.3231216029749771,0.2992385362056672,-0.1407211027062178,0.0365097384408534,-0.188967715555958,-0.0820154054819574,-0.0048970190971097,0.0047993315255419,-0.0036185878380589,-2.8575255709899947,1.321629460227382,0.4573582965035364
9.13072681427002,-2.6548776723498944,-0.1151815304117962,0.1196280540798937,-0.0260817200720092,-0.7864004511739416,-0.0935385479665737,0.6100365680152392,0.0341174482892494,-0.0177110980035732,-0.0071814536670439,0.0597928724373813,0.0557772669255891,-0.0213355785031571,-0.0648655600032267,-0.1526590977555223,-0.2021697846278363,0.0248633396990571,-0.1698156248557098,-0.0711178594117218,-0.0225133726257464,0.0743997516733706,0.0686502867386543,-2.8617270197501594,1.302958478899791,0.4507705353713662
9.23380970954895,-2.650660827573016,-0.1161303791282789,0.118738266070925,-0.0287838348543495,-0.7875430923798473,-0.0920908886760239,0.6086597051873281,0.0388399789950124,-0.014714514472026,-0.0107833562266924,0.0202413088816743,0.0053836356142511,-0.0344837594446515,-0.2286826738928896,-0.2168664040566333,-0.0311887564912696,-0.0085170068106395,-0.0401682122092168,0.0552851679953513,0.0097249937456134,0.0659459330758546,0.0669644485526284,-2.88780514952082,1.30163008440924,0.4265046588763895
9.336367845535278,-2.6468884148269605,-0.1182016704245923,0.117412805965305,-0.030116150810974,-0.7888356951102145,-0.088284025972408,0.6074843161254609,0.038306661514845,-0.0165792059872245,-0.0142732090262208,0.0126040657314239,0.0108958948563338,-0.0278501416214525,-0.0041753775751599,-0.0268011333484166,0.2856612085613179,0.044313327190284,-0.0379237587040005,0.0628110376935349,0.0128176236466031,0.0002112935067399,0.0112157207301854,-2.915804509428799,1.3006362092898998,0.3949723199598303
9.439381122589111,-2.6427846831468256,-0.1195352900799562,0.115802871425632,-0.0329185930110029,-0.7900283230422762,-0.0850942159339154,0.6062430118688191,0.0414472574171842,-0.0124481023309704,-0.0165029130801822,0.0194470982142442,-0.0001993960592057,0.0244416190463526,-0.087367721007063,-0.2573296520708123,0.5807200585311162,0.0171182404825667,-0.0397456251957368,0.0777166094557221,-0.019990670897997,-0.0017655314695642,0.0108497413082123,-2.9492958934845417,1.299785048076025,0.3609358938823214
9.54215931892395,-2.6383596789098114,-0.1207636176138985,0.1140170578521205,-0.0363955549269894,-0.7911865361777596,-0.0822143527711188,0.6049297717512516,0.0423138932604096,-0.0166013131566427,-0.0092649755743703,-0.0053032396865646,-0.0419900870376952,0.0916227659707979,-0.2832851669963353,-0.1022297359773793,0.3071668541391343,0.00433198539429,-0.041454821643129,0.0845105203099596,-0.0123817266827991,-0.0065830263073768,-0.0321199479863853,-2.985137600626774,1.298697888903619,0.3259620961429404
9.645180225372314,-2.6340768815266427,-0.1229540853343734,0.1139000893838948,-0.0374069452205257,-0.7927744421961678,-0.082006463687929,0.6028136894291835,0.0403491801644886,-0.0210903927461825,0.0023632729511359,-0.0388733761203747,-0.0210902569764487,0.0874878926699305,-0.1350401991581886,0.2730974683214205,-0.3384848480029065,-0.0076452128830315,-0.0529116778104906,0.0134767134829514,-0.0094951084395793,-0.0074582519905938,-0.0506077903560618,-2.996343561977102,1.2939631797447153,0.3159631539305952
9.74752950668335,-2.630071522845232,-0.1250951857757584,0.1144977194065613,-0.0374178012257963,-0.7944800798093478,-0.0830081728360991,0.6004256441725083,0.0343569735315014,-0.0209627266457701,0.0087364163797115,-0.0332919506532103,0.0140019654592837,0.0225075196843115,0.215556688120362,0.2402088288854479,-0.4156500598423863,-0.0146582314848687,-0.0563713256243166,-0.0167050604021639,0.0074606613818345,0.016511432681054,-0.0306038309188823,-2.996960513773728,1.2879480155930318,0.3168704656094495
9.854970932006836,-2.62691897086668,-0.1273523212800363,0.1157631492438699,-0.0352344916942054,-0.7952468638917626,-0.0841968986293699,0.5993762076747482,0.0336284375642339,-0.0180197825651409,0.0066701300563701,0.0080291191266017,0.0282318112032124,0.0025767029385301,0.2469598427930769,0.1490717518988321,0.0931797233556962,0.0072761098806374,-0.0198888124483825,-0.0477309483548132,0.0064615575802524,0.0140833518413163,-0.0170467462095327,-2.9820678613765863,1.2842911311692804,0.3303820118425418
9.956302404403688,-2.623101706362646,-0.1288927061174424,0.1159509030120214,-0.0333605851524187,-0.796183211076682,-0.0857587361669945,0.5980173951725417,0.0358574063396179,-0.015078670331055,0.0090154424613522,0.0199005970377194,0.0449266810096186,0.0386522626479222,0.0131157956846866,0.5086841729429872,0.3670888294120555,-0.0017351163243639,-0.028204621941684,-0.0507985528212293,-0.0023882381651345,0.0020368141170359,-0.0116835719807527,-2.968325133967713,1.2798914899841436,0.3437318454873431
10.060981035232544,-2.619544324615194,-0.1304578442424059,0.1176691619367147,-0.0303903144235192,-0.796807793330907,-0.0878516914840678,0.5970392362146381,0.037713897162563,-0.0086562210838283,0.0147384120310687,0.0100231320271897,0.1353662865352126,0.0782760642646144,-0.0889727527822335,0.6976952317380843,0.1793526523457155,0.0024996335503684,-0.0158151842143106,-0.0710980923163187,-0.0056120106496139,0.0178046979706054,0.0100589231531205,-2.94614254810337,1.2757570207007796,0.364707684245336
10.16270399093628,-2.615339236539474,-0.1307160540856599,0.119002703344774,-0.0295073116632592,-0.7965712561985506,-0.0893198568766706,0.5971813087532141,0.0379711414984456,0.0124298099692075,0.0250341831694143,0.0015050839857645,0.1899011383552657,0.0768317080812245,0.0008486720616448,-0.0946971341223807,-0.4525126030475985,-0.0129591376235918,0.0074047739995267,-0.0306807065149882,0.0003780732068447,0.0885638968926379,-0.0173027432046183,-2.9352076138462526,1.275328797275563,0.3764876994041422
10.26799774169922,-2.611708135317575,-0.1277758931580505,0.122938311689099,-0.0242119814204645,-0.7916380751543776,-0.0927525996161473,0.6034234774899083,0.0380180348899319,0.0305301319876803,0.0304666757798205,0.0108135052152792,0.1111783512078222,-0.0185868020328898,0.103301082283356,-0.7102531903353567,-0.8413379628313413,0.0032557799640578,0.1613126095709653,-0.1057035787255553,0.0072932687719812,0.0936326814211042,-0.0187793375269339,-2.876003663544094,1.2865648629202124,0.4328814869171078
10.372673511505129,-2.6073609613218833,-0.1243088692596686,0.1254082929982753,-0.0203868132241869,-0.7855382517407729,-0.0950815824795746,0.6111248035972622,0.0402288709740954,0.0358487082962806,0.0212180071221099,0.0231768048926541,0.0407235321058086,-0.0999035677329103,0.2746227601681237,-0.3723584406912673,-0.556088771050631,0.0016273999203706,0.1946701368417352,-0.0682393815688561,-0.0183783968196396,0.0772799129759032,0.0478961671367366,-2.819448632452333,1.301659002908618,0.487117800211253
10.478095769882202,-2.6032580781788863,-0.120240064131189,0.1273926094569928,-0.0194696247222758,-0.7750955525626665,-0.0971141162927706,0.6240325845077507,0.0428905164097646,0.0390709532157071,0.0094598305509268,0.0687457081583943,0.0333971433757424,-0.1350891983015049,0.5391139266967581,0.0388634364198002,-0.2663359229132679,-0.0335010136752213,0.3158724355227718,-0.009911244452082,-0.0305511880893097,0.0849128141091675,0.0755724748338873,-2.7499516307352865,1.3300123063244735,0.5579089067183463
10.587857007980348,-2.5980964522851178,-0.1158972324136033,0.1273609710180216,-0.0230862480079697,-0.7620397438540082,-0.0971732656546094,0.6397810644133279,0.055407056855051,0.0430603042395626,-0.0080595756710029,0.1401316585673353,0.0500459892429956,-0.1566175271856487,0.4048228955352567,0.090818754267519,-0.1160848160778909,-0.0594749762582489,0.3644957650600703,0.0829055680989185,-0.022338447608967,0.0917564738876824,0.0993080071698653,-2.6823620342754184,1.368281842302709,0.6303877150980397
10.692757606506348,-2.591443968712618,-0.1110298754963171,0.1257364006304606,-0.0306975253783408,-0.744349861598579,-0.0945314421105427,0.6603519909308395,0.072723352810005,0.0496836819698699,-0.0241884579664205,0.15797995924709,0.0534710355307997,-0.1607691644311706,-0.6755497375684094,-0.3627646778620065,0.631027406282392,-0.0781779088931555,0.4993853832981367,0.1887047698876487,-0.0181479909670772,0.1600815039860334,0.1194157924799282,-2.5806706960848995,1.4214569791174263,0.7387515513896398
10.79726266860962,-2.5828751186528085,-0.1054957811347934,0.1223026416972352,-0.0431095527585882,-0.719145457408433,-0.0881779557476423,0.6878924521100207,0.0884945554176948,0.0542650758476382,-0.0417200096812829,-0.0006645357330319,-0.0256067753717065,-0.025006312988938,-2.152243629318523,-1.312111861459678,1.6665818155932768,-0.0957709581924034,0.6846587730321372,0.3217371530587751,-0.0115690336705362,0.2090022014658562,0.1340723552430863,-2.2701559339991877,1.4932151380881622,1.0575134056260158
10.90288519859314,-2.572834216203754,-0.0996243428037058,0.1169499620689396,-0.0598049880425927,-0.6832417865552841,-0.0773872728794443,0.7236126273817032,0.0722431376077796,0.0441469553393382,-0.0291222278895371,-0.2956907596003544,-0.2234878420785278,0.1902513418052653,-1.1763687963655056,-1.395202744865947,1.302148054406795,-0.101315976234228,0.9173897862298492,0.4568494803738213,0.0782506371794559,0.1566696500085556,0.0204462847887549,-0.5079565021312427,1.508513609518453,2.8280554805857983
11.010530471801758,-2.5675611889860503,-0.0961273883351183,0.1161798444397772,-0.0665201231532431,-0.6423383329342165,-0.0641162569919736,0.7608322054489469,0.0248539811595591,0.0060807890354858,-0.0008556273683354,-0.2449425718147935,-0.3212052330306779,0.2496945993403879,1.4699241090546522,0.4642955835458521,-0.2059069464650725,0.0607303161665085,0.9979980730492484,0.3626297226362849,0.0770269620792659,-0.6119841922412028,-0.1995514184690268,-0.0725491984040199,1.4029893870305474,-3.028475341128793
11.115296363830566,-2.5674178456313874,-0.0981826882340582,0.1167324302996928,-0.0673818436877604,-0.6544445887229215,-0.0589631958398556,0.7507897901336134,0.019105002433422,-0.0242648288779858,0.0239889627443782,0.0108643984607239,-0.1326620120828213,0.1508218569092636,1.1902420990748872,1.9689050599978064,-1.0074037693182951,0.0527379479243038,-0.3065785982525563,0.0577466434357677,-0.0451736851674436,-0.6384411342447882,-0.2304264677829761,-0.0025105244356317,1.4339176319024771,-2.9647647967297313
11.217451810836792,-2.5636994043868047,-0.1011243410144552,0.1210471837591986,-0.0660664121298018,-0.6653128872129344,-0.062753316078678,0.7409831392264025,0.0267631172793709,-0.0221792267195038,0.0307976962545621,0.0077962455193472,0.0853306485924701,0.0415694548152567,0.0223793157428937,1.2615076439957609,-0.611215828410378,-0.0296170541683787,-0.278884195440328,-0.0982232129296674,-0.0174232740191437,-0.0017866225076026,-0.0602646669779233,-0.04759182378617,1.4636286309967326,-3.006490048542402
11.320603132247925,-2.5619424839847893,-0.1027229907123784,0.1230325102442309,-0.0642233321050106,-0.6773488012015426,-0.0634735361828892,0.7300993599015152,0.0205711883966586,-0.006615945209585,0.0324732541098177,0.0155639267822117,0.1245879279090964,0.0262522907234868,0.3367748418932016,-0.1075938543529387,-0.2215023040995275,0.0178913998860164,-0.3101518432677616,-0.0627826905200789,0.0267109003248781,0.0505717294510808,0.0072770719079979,-0.0762685917555787,1.4961709207371836,-3.036897995794961
11.424740552902222,-2.5594282161806334,-0.1024781508676667,0.1278047337532598,-0.0609515105085295,-0.6844281836129656,-0.0652169425725282,0.7235950008426515,0.0301391382184679,0.0035943507446536,0.0362593338761868,0.0781240165953748,0.0620602771646602,-0.0044901578871272,0.1953956438884185,-0.4962403276289851,-0.2917903353316321,0.0238047464813774,-0.1777407365381663,-0.0836690691136716,-0.0195980404411065,0.0543882977202912,0.0163227276251621,-0.1978448490349724,1.515071373311466,3.1224840459340335
11.534224033355711,-2.5554383852821565,-0.1019415283214984,0.1306733460010573,-0.0613813611593771,-0.6923863400699265,-0.0665329192504506,0.7158259950873587,0.0371092759729592,0.0062467831977258,0.0310661140781692,0.052859223202024,0.0197232692404514,-0.0360427173774856,-0.2082829453124418,-0.2366201239935973,-0.2546799930344973,-0.0213046809961966,-0.2013752478271792,-0.0301372352697547,-0.0127760755024693,0.038662278373965,0.0190019096877655,-0.3069259929049556,1.5368548691319377,3.0158384990948433
11.637309312820436,-2.5515482287890947,-0.1011669928973306,0.1343479862947346,-0.060159520700437,-0.6962185382028843,-0.067961356487679,0.7120686997446857,0.0415095778928815,0.0078428464839228,0.028456272248455,0.0335703044340331,0.00989789360681,-0.0590435044363448,-0.1969430364669319,-0.0489293460609747,-0.1477245130920214,-0.0017474045235612,-0.1004161797902363,-0.0456652497381405,0.0008240581337755,0.0482276227834836,0.0127180979908076,-0.5481344046326511,1.5458118316862772,2.7749115008412253
11.741095781326294,-2.546845918144723,-0.1003186015782093,0.1365500269216622,-0.0610851174145106,-0.7000301448589804,-0.0685166482751906,0.7081891510241487,0.0440411963518396,0.0082865187635995,0.0188042233738758,0.0121034450926496,0.0096664386551852,-0.0664966475878413,-0.1497664938480774,0.0092844501624315,0.1890573860159509,-0.0196565647286456,-0.1049200022602119,-0.0047010392881395,-0.0076117259132114,0.0154236988710778,0.0264282160238938,-0.8305444973334405,1.5551886680956588,2.494595856891934
11.85167932510376,-2.5421248957062987,-0.0993890375927792,0.1383451737788045,-0.0622910582471919,-0.7026601287598648,-0.0686564239601047,0.7054607451606543,0.0439316629176271,0.0099907350803995,0.0145734609987872,0.0022660860872806,0.0120498575988761,-0.0148528433907388,0.0370997800292405,0.0147735310941924,0.2381201322625712,-0.0169708563499841,-0.0695687820480807,0.0071911823096471,0.0014295164084455,0.0265243389019633,0.0107984807486816,-1.2490362738352705,1.5609615189481156,2.0780119814681157
11.95918083190918,-2.5372726146652704,-0.0981494039813655,0.1397383702990246,-0.0637572678176069,-0.7045051733494506,-0.0684761662029679,0.7035044322436343,0.0445156017251076,0.0109348429133644,0.0154227764800881,0.0194281474399067,0.0129295323830437,-0.013174963625726,0.0920660432568383,-0.0046683192143739,-0.0872141661341136,-0.0167975319117545,-0.0518713244562853,0.0168959222092237,0.0056144230659439,0.0387807920186719,-0.0027360514818094,-1.8734116294677283,1.563974365936428,1.4554620046759783
12.067044019699097,-2.5325382568905295,-0.0970344906784813,0.1416684799560003,-0.0640109157561766,-0.7041746987475392,-0.0686565841507852,0.7037946218611039,0.0481259413327546,0.0127783048879367,0.0117207681478663,0.0220448952078411,0.0110351547310208,-0.033710198382935,-0.1063734616865431,-0.024425919637534,-0.1245086242381711,-0.0057420102180961,0.0079928019892631,0.0017190793460282,0.0016527147548063,0.008577495468815,0.0080424347428433,-1.7463764382118077,1.5642043965847692,1.583113698835966
12.16672134399414,-2.5273512149124726,-0.0955358497931065,0.1422681368060384,-0.0657602261412207,-0.7052388681311652,-0.0678622871816523,0.7026438938135046,0.0492707847653282,0.0133204630662996,0.0084169189821058,-0.0005911158698246,0.007968262309522,-0.0400530890525823,-0.0760923685960089,0.0754208075802013,-0.2122264878776611,-0.0134921024021419,-0.0347163335186552,0.0329807916949104,-0.0015834764434129,0.0032284746242105,0.005280116524492,-2.55537995058184,1.566073494369976,0.775466310828882
12.27271556854248,-2.5224407308675247,-0.0943171968912844,0.1434308948493248,-0.0664989167900021,-0.7046255163656013,-0.0677883240277445,0.7031966431075846,0.0478469575631486,0.0144501147310903,0.0033929521799263,0.0083630194318453,0.0279311498657809,-0.0792959187293066,0.1314866592981405,0.0209386221444207,-0.1641401925940175,-0.0089089631049221,0.0144497512376841,0.0122793123950124,0.0029607128987181,0.0513779328520695,0.0102355164317775,-2.5025550321668355,1.5680744700392897,0.8292351890209647
12.380563020706177,-2.517113861537593,-0.0924347730709943,0.1429653618378022,-0.068567505466775,-0.7018184531533868,-0.0662923782548198,0.7059424031695299,0.0511406393128588,0.0193578900587363,-0.0086591131542687,0.0277019720780482,0.0118199247631702,-0.0743825418937468,-0.0076760859256181,-0.3261234756181895,0.3995026083424798,-0.0075706766047057,0.0680395321854837,0.0534518245584654,-0.0023536044862351,0.0360998095585118,0.0234614317281263,0.4086310512184337,1.5641355085895594,-2.5419496178796632
